{
  "timestamp": "2025-11-08T17:03:44.246036Z",
  "source": "Open-Meteo",
  "forecast_window_hours": 6,
  "features_evaluated": 935,
  "alerts": [
    {
      "id": "1",
      "country": "Afghanistan",
      "name": "Herat",
      "latitude": 34.3482,
      "longitude": 62.1997,
      "base_risk": 9.5,
      "rain_6h_mm": 0.0,
      "humidity_avg": 34.3,
      "soil_moisture_avg": 0.0,
      "rain_mult": 0.0,
      "soil_mult": 0.95,
      "humidity_mult": 1.017,
      "raw_dynamic_score": 0.0,
      "dynamic_level": "None"
    },
    {
      "id": "2",
      "country": "Afghanistan",
      "name": "Kabul",
      "latitude": 34.5289,
      "longitude": 69.1725,
      "base_risk": 9.13,
      "rain_6h_mm": 0.0,
      "humidity_avg": 19.2,
      "soil_moisture_avg": 0.0,
      "rain_mult": 0.0,
      "soil_mult": 0.95,
      "humidity_mult": 1.01,
      "raw_dynamic_score": 0.0,
      "dynamic_level": "None"
    },
    {
      "id": "3",
      "country": "Afghanistan",
      "name": "Kandahar",
      "latitude": 31.6133,
      "longitude": 65.7101,
      "base_risk": 9.39,
      "rain_6h_mm": 0.0,
      "humidity_avg": 22.0,
      "soil_moisture_avg": 0.0,
      "rain_mult": 0.0,
      "soil_mult": 0.95,
      "humidity_mult": 1.011,
      "raw_dynamic_score": 0.0,
      "dynamic_level": "None"
    },
    {
      "id": "4",
      "country": "Afghanistan",
      "name": "Mazar-e Sharif",
      "latitude": 36.709,
      "longitude": 67.1109,
      "base_risk": 9.23,
      "rain_6h_mm": 0.0,
      "humidity_avg": 65.2,
      "soil_moisture_avg": 0.0,
      "rain_mult": 0.0,
      "soil_mult": 0.95,
      "humidity_mult": 1.033,
      "raw_dynamic_score": 0.0,
      "dynamic_level": "None"
    },
    {
      "id": "5",
      "country": "Albania",
      "name": "Tiranë (Tirana)",
      "latitude": 41.3275,
      "longitude": 19.8189,
      "base_risk": 9.32,
      "rain_6h_mm": 0.8,
      "humidity_avg": 87.2,
      "soil_moisture_avg": 0.0,
      "rain_mult": 0.008,
      "soil_mult": 0.95,
      "humidity_mult": 1.044,
      "raw_dynamic_score": 0.074,
      "dynamic_level": "Low"
    },
    {
      "id": "11",
      "country": "Algeria",
      "name": "Qacentina",
      "latitude": 36.3549,
      "longitude": 6.6073,
      "base_risk": 9.09,
      "rain_6h_mm": 4.1,
      "humidity_avg": 60.3,
      "soil_moisture_avg": 0.0,
      "rain_mult": 0.041,
      "soil_mult": 0.95,
      "humidity_mult": 1.03,
      "raw_dynamic_score": 0.365,
      "dynamic_level": "Low"
    },
    {
      "id": "12",
      "country": "Algeria",
      "name": "Sétif",
      "latitude": 36.1911,
      "longitude": 5.4137,
      "base_risk": 9.3,
      "rain_6h_mm": 3.3,
      "humidity_avg": 70.0,
      "soil_moisture_avg": 0.0,
      "rain_mult": 0.033,
      "soil_mult": 0.95,
      "humidity_mult": 1.035,
      "raw_dynamic_score": 0.302,
      "dynamic_level": "Low"
    },
    {
      "id": "13",
      "country": "Algeria",
      "name": "Wahran (Oran)",
      "latitude": 35.6911,
      "longitude": -0.6417,
      "base_risk": 9.15,
      "rain_6h_mm": 0.0,
      "humidity_avg": 69.5,
      "soil_moisture_avg": 0.0,
      "rain_mult": 0.0,
      "soil_mult": 0.95,
      "humidity_mult": 1.035,
      "raw_dynamic_score": 0.0,
      "dynamic_level": "None"
    },
    {
      "id": "14",
      "country": "Angola",
      "name": "Benguela",
      "latitude": -12.576,
      "longitude": 13.405,
      "base_risk": 9.33,
      "rain_6h_mm": 0.0,
      "humidity_avg": 73.7,
      "soil_moisture_avg": 0.0,
      "rain_mult": 0.0,
      "soil_mult": 0.95,
      "humidity_mult": 1.037,
      "raw_dynamic_score": 0.0,
      "dynamic_level": "None"
    },
    {
      "id": "15",
      "country": "Angola",
      "name": "Cabinda",
      "latitude": -5.55,
      "longitude": 12.2,
      "base_risk": 9.14,
      "rain_6h_mm": 0.0,
      "humidity_avg": 87.3,
      "soil_moisture_avg": 0.0,
      "rain_mult": 0.0,
      "soil_mult": 0.95,
      "humidity_mult": 1.044,
      "raw_dynamic_score": 0.0,
      "dynamic_level": "None"
    },
    {
      "id": "21",
      "country": "Angola",
      "name": "Malanje",
      "latitude": -9.54,
      "longitude": 16.341,
      "base_risk": 9.23,
      "rain_6h_mm": 15.3,
      "humidity_avg": 79.0,
      "soil_moisture_avg": 0.0,
      "rain_mult": 0.153,
      "soil_mult": 0.95,
      "humidity_mult": 1.04,
      "raw_dynamic_score": 1.395,
      "dynamic_level": "Low"
    },
    {
      "id": "22",
      "country": "Angola",
      "name": "Uige",
      "latitude": -7.1069,
      "longitude": 15.4406,
      "base_risk": 9.45,
      "rain_6h_mm": 3.2,
      "humidity_avg": 80.7,
      "soil_moisture_avg": 0.0,
      "rain_mult": 0.032,
      "soil_mult": 0.95,
      "humidity_mult": 1.04,
      "raw_dynamic_score": 0.299,
      "dynamic_level": "Low"
    },
    {
      "id": "23",
      "country": "Argentina",
      "name": "Bahia Blanca",
      "latitude": -38.7196,
      "longitude": -62.2724,
      "base_risk": 9.12,
      "rain_6h_mm": 0.0,
      "humidity_avg": 59.3,
      "soil_moisture_avg": 0.0,
      "rain_mult": 0.0,
      "soil_mult": 0.95,
      "humidity_mult": 1.03,
      "raw_dynamic_score": 0.0,
      "dynamic_level": "None"
    },
    {
      "id": "24",
      "country": "Argentina",
      "name": "Buenos Aires",
      "latitude": -34.6051,
      "longitude": -58.4004,
      "base_risk": 9.05,
      "rain_6h_mm": 0.0,
      "humidity_avg": 60.3,
      "soil_moisture_avg": 0.0,
      "rain_mult": 0.0,
      "soil_mult": 0.95,
      "humidity_mult": 1.03,
      "raw_dynamic_score": 0.0,
      "dynamic_level": "None"
    },
    {
      "id": "25",
      "country": "Argentina",
      "name": "Córdoba",
      "latitude": -31.4135,
      "longitude": -64.1811,
      "base_risk": 9.23,
      "rain_6h_mm": 0.0,
      "humidity_avg": 53.7,
      "soil_moisture_avg": 0.0,
      "rain_mult": 0.0,
      "soil_mult": 0.95,
      "humidity_mult": 1.027,
      "raw_dynamic_score": 0.0,
      "dynamic_level": "None"
    },
    {
      "id": "31",
      "country": "Argentina",
      "name": "Posadas",
      "latitude": -27.3671,
      "longitude": -55.8961,
      "base_risk": 9.29,
      "rain_6h_mm": 0.0,
      "humidity_avg": 65.3,
      "soil_moisture_avg": 0.0,
      "rain_mult": 0.0,
      "soil_mult": 0.95,
      "humidity_mult": 1.033,
      "raw_dynamic_score": 0.0,
      "dynamic_level": "None"
    },
    {
      "id": "32",
      "country": "Argentina",
      "name": "Resistencia",
      "latitude": -27.4606,
      "longitude": -58.9839,
      "base_risk": 9.42,
      "rain_6h_mm": 0.0,
      "humidity_avg": 68.0,
      "soil_moisture_avg": 0.0,
      "rain_mult": 0.0,
      "soil_mult": 0.95,
      "humidity_mult": 1.034,
      "raw_dynamic_score": 0.0,
      "dynamic_level": "None"
    },
    {
      "id": "33",
      "country": "Argentina",
      "name": "Rosario",
      "latitude": -32.9468,
      "longitude": -60.6393,
      "base_risk": 9.16,
      "rain_6h_mm": 0.0,
      "humidity_avg": 57.8,
      "soil_moisture_avg": 0.0,
      "rain_mult": 0.0,
      "soil_mult": 0.95,
      "humidity_mult": 1.029,
      "raw_dynamic_score": 0.0,
      "dynamic_level": "None"
    },
    {
      "id": "34",
      "country": "Argentina",
      "name": "Salta",
      "latitude": -24.7859,
      "longitude": -65.4117,
      "base_risk": 9.39,
      "rain_6h_mm": 0.0,
      "humidity_avg": 47.5,
      "soil_moisture_avg": 0.0,
      "rain_mult": 0.0,
      "soil_mult": 0.95,
      "humidity_mult": 1.024,
      "raw_dynamic_score": 0.0,
      "dynamic_level": "None"
    },
    {
      "id": "35",
      "country": "Argentina",
      "name": "San Juan",
      "latitude": -31.5375,
      "longitude": -68.5364,
      "base_risk": 8.8,
      "rain_6h_mm": 0.0,
      "humidity_avg": 42.7,
      "soil_moisture_avg": 0.0,
      "rain_mult": 0.0,
      "soil_mult": 0.95,
      "humidity_mult": 1.021,
      "raw_dynamic_score": 0.0,
      "dynamic_level": "None"
    },
    {
      "id": "41",
      "country": "Australia",
      "name": "Adelaide",
      "latitude": -34.9287,
      "longitude": 138.5986,
      "base_risk": 9.32,
      "rain_6h_mm": 0.1,
      "humidity_avg": 71.0,
      "soil_moisture_avg": 0.0,
      "rain_mult": 0.001,
      "soil_mult": 0.95,
      "humidity_mult": 1.036,
      "raw_dynamic_score": 0.009,
      "dynamic_level": "Low"
    },
    {
      "id": "42",
      "country": "Australia",
      "name": "Brisbane",
      "latitude": -27.4679,
      "longitude": 153.0281,
      "base_risk": 8.99,
      "rain_6h_mm": 0.0,
      "humidity_avg": 94.2,
      "soil_moisture_avg": 0.0,
      "rain_mult": 0.0,
      "soil_mult": 0.95,
      "humidity_mult": 1.047,
      "raw_dynamic_score": 0.0,
      "dynamic_level": "None"
    },
    {
      "id": "43",
      "country": "Australia",
      "name": "Canberra",
      "latitude": -35.2835,
      "longitude": 149.1281,
      "base_risk": 8.88,
      "rain_6h_mm": 0.0,
      "humidity_avg": 85.0,
      "soil_moisture_avg": 0.0,
      "rain_mult": 0.0,
      "soil_mult": 0.95,
      "humidity_mult": 1.042,
      "raw_dynamic_score": 0.0,
      "dynamic_level": "None"
    },
    {
      "id": "44",
      "country": "Australia",
      "name": "Central Coast",
      "latitude": -33.42,
      "longitude": 151.3958,
      "base_risk": 9.28,
      "rain_6h_mm": 0.0,
      "humidity_avg": 57.7,
      "soil_moisture_avg": 0.0,
      "rain_mult": 0.0,
      "soil_mult": 0.95,
      "humidity_mult": 1.029,
      "raw_dynamic_score": 0.0,
      "dynamic_level": "None"
    },
    {
      "id": "45",
      "country": "Australia",
      "name": "Gold Coast-Tweed Head",
      "latitude": -28.0003,
      "longitude": 153.4309,
      "base_risk": 9.38,
      "rain_6h_mm": 0.1,
      "humidity_avg": 95.0,
      "soil_moisture_avg": 0.0,
      "rain_mult": 0.001,
      "soil_mult": 0.95,
      "humidity_mult": 1.048,
      "raw_dynamic_score": 0.009,
      "dynamic_level": "Low"
    },
    {
      "id": "51",
      "country": "Australia",
      "name": "Wollongong",
      "latitude": -34.424,
      "longitude": 150.8935,
      "base_risk": 9.37,
      "rain_6h_mm": 0.0,
      "humidity_avg": 61.5,
      "soil_moisture_avg": 0.0,
      "rain_mult": 0.0,
      "soil_mult": 0.95,
      "humidity_mult": 1.031,
      "raw_dynamic_score": 0.0,
      "dynamic_level": "None"
    },
    {
      "id": "52",
      "country": "Austria",
      "name": "Wien (Vienna)",
      "latitude": 48.2064,
      "longitude": 16.3707,
      "base_risk": 8.75,
      "rain_6h_mm": 0.0,
      "humidity_avg": 88.5,
      "soil_moisture_avg": 0.0,
      "rain_mult": 0.0,
      "soil_mult": 0.95,
      "humidity_mult": 1.044,
      "raw_dynamic_score": 0.0,
      "dynamic_level": "None"
    },
    {
      "id": "53",
      "country": "Azerbaijan",
      "name": "Baku",
      "latitude": 40.3777,
      "longitude": 49.892,
      "base_risk": 8.82,
      "rain_6h_mm": 0.0,
      "humidity_avg": 93.7,
      "soil_moisture_avg": 0.0,
      "rain_mult": 0.0,
      "soil_mult": 0.95,
      "humidity_mult": 1.047,
      "raw_dynamic_score": 0.0,
      "dynamic_level": "None"
    },
    {
      "id": "54",
      "country": "Azerbaijan",
      "name": "Gäncä",
      "latitude": 40.6828,
      "longitude": 46.3606,
      "base_risk": 9.07,
      "rain_6h_mm": 0.0,
      "humidity_avg": 80.5,
      "soil_moisture_avg": 0.0,
      "rain_mult": 0.0,
      "soil_mult": 0.95,
      "humidity_mult": 1.04,
      "raw_dynamic_score": 0.0,
      "dynamic_level": "None"
    },
    {
      "id": "55",
      "country": "Azerbaijan",
      "name": "Sumquayit",
      "latitude": 40.5897,
      "longitude": 49.6686,
      "base_risk": 9.08,
      "rain_6h_mm": 0.0,
      "humidity_avg": 93.2,
      "soil_moisture_avg": 0.0,
      "rain_mult": 0.0,
      "soil_mult": 0.95,
      "humidity_mult": 1.047,
      "raw_dynamic_score": 0.0,
      "dynamic_level": "None"
    },
    {
      "id": "61",
      "country": "Bangladesh",
      "name": "Dhaka",
      "latitude": 23.7104,
      "longitude": 90.4074,
      "base_risk": 9.43,
      "rain_6h_mm": 0.0,
      "humidity_avg": 79.0,
      "soil_moisture_avg": 0.0,
      "rain_mult": 0.0,
      "soil_mult": 0.95,
      "humidity_mult": 1.04,
      "raw_dynamic_score": 0.0,
      "dynamic_level": "None"
    },
    {
      "id": "62",
      "country": "Bangladesh",
      "name": "Khulna",
      "latitude": 22.8098,
      "longitude": 89.5644,
      "base_risk": 9.5,
      "rain_6h_mm": 0.0,
      "humidity_avg": 75.0,
      "soil_moisture_avg": 0.0,
      "rain_mult": 0.0,
      "soil_mult": 0.95,
      "humidity_mult": 1.038,
      "raw_dynamic_score": 0.0,
      "dynamic_level": "None"
    },
    {
      "id": "63",
      "country": "Bangladesh",
      "name": "Mymensingh",
      "latitude": 24.75,
      "longitude": 90.4,
      "base_risk": 9.34,
      "rain_6h_mm": 0.0,
      "humidity_avg": 82.7,
      "soil_moisture_avg": 0.0,
      "rain_mult": 0.0,
      "soil_mult": 0.95,
      "humidity_mult": 1.041,
      "raw_dynamic_score": 0.0,
      "dynamic_level": "None"
    },
    {
      "id": "64",
      "country": "Bangladesh",
      "name": "Rajshahi",
      "latitude": 24.3667,
      "longitude": 88.6,
      "base_risk": 9.04,
      "rain_6h_mm": 0.0,
      "humidity_avg": 71.2,
      "soil_moisture_avg": 0.0,
      "rain_mult": 0.0,
      "soil_mult": 0.95,
      "humidity_mult": 1.036,
      "raw_dynamic_score": 0.0,
      "dynamic_level": "None"
    },
    {
      "id": "65",
      "country": "Bangladesh",
      "name": "Rangpur",
      "latitude": 25.75,
      "longitude": 89.25,
      "base_risk": 8.62,
      "rain_6h_mm": 0.0,
      "humidity_avg": 74.0,
      "soil_moisture_avg": 0.0,
      "rain_mult": 0.0,
      "soil_mult": 0.95,
      "humidity_mult": 1.037,
      "raw_dynamic_score": 0.0,
      "dynamic_level": "None"
    },
    {
      "id": "71",
      "country": "Belarus",
      "name": "Minsk",
      "latitude": 53.9,
      "longitude": 27.5667,
      "base_risk": 8.74,
      "rain_6h_mm": 0.0,
      "humidity_avg": 89.7,
      "soil_moisture_avg": 0.488,
      "rain_mult": 0.0,
      "soil_mult": 1.365,
      "humidity_mult": 1.045,
      "raw_dynamic_score": 0.0,
      "dynamic_level": "None"
    },
    {
      "id": "72",
      "country": "Belarus",
      "name": "Mogilev",
      "latitude": 53.9141,
      "longitude": 30.3376,
      "base_risk": 8.6,
      "rain_6h_mm": 0.0,
      "humidity_avg": 89.7,
      "soil_moisture_avg": 0.0,
      "rain_mult": 0.0,
      "soil_mult": 0.95,
      "humidity_mult": 1.045,
      "raw_dynamic_score": 0.0,
      "dynamic_level": "None"
    },
    {
      "id": "73",
      "country": "Belarus",
      "name": "Vitebsk",
      "latitude": 55.1905,
      "longitude": 30.2033,
      "base_risk": 8.87,
      "rain_6h_mm": 0.0,
      "humidity_avg": 95.3,
      "soil_moisture_avg": 0.0,
      "rain_mult": 0.0,
      "soil_mult": 0.95,
      "humidity_mult": 1.048,
      "raw_dynamic_score": 0.0,
      "dynamic_level": "None"
    },
    {
      "id": "74",
      "country": "Belgium",
      "name": "Antwerpen",
      "latitude": 51.2199,
      "longitude": 4.4035,
      "base_risk": 9.16,
      "rain_6h_mm": 0.2,
      "humidity_avg": 82.8,
      "soil_moisture_avg": 0.353,
      "rain_mult": 0.002,
      "soil_mult": 1.25,
      "humidity_mult": 1.041,
      "raw_dynamic_score": 0.024,
      "dynamic_level": "Low"
    },
    {
      "id": "75",
      "country": "Belgium",
      "name": "Bruxelles-Brussel",
      "latitude": 50.8467,
      "longitude": 4.3499,
      "base_risk": 9.46,
      "rain_6h_mm": 0.0,
      "humidity_avg": 82.8,
      "soil_moisture_avg": 0.494,
      "rain_mult": 0.0,
      "soil_mult": 1.37,
      "humidity_mult": 1.041,
      "raw_dynamic_score": 0.0,
      "dynamic_level": "None"
    },
    {
      "id": "81",
      "country": "Benin",
      "name": "Djougou",
      "latitude": 9.7085,
      "longitude": 1.666,
      "base_risk": 9.46,
      "rain_6h_mm": 0.0,
      "humidity_avg": 57.3,
      "soil_moisture_avg": 0.0,
      "rain_mult": 0.0,
      "soil_mult": 0.95,
      "humidity_mult": 1.029,
      "raw_dynamic_score": 0.0,
      "dynamic_level": "None"
    },
    {
      "id": "82",
      "country": "Benin",
      "name": "Parakou",
      "latitude": 9.3372,
      "longitude": 2.6303,
      "base_risk": 9.5,
      "rain_6h_mm": 0.0,
      "humidity_avg": 60.8,
      "soil_moisture_avg": 0.0,
      "rain_mult": 0.0,
      "soil_mult": 0.95,
      "humidity_mult": 1.03,
      "raw_dynamic_score": 0.0,
      "dynamic_level": "None"
    },
    {
      "id": "83",
      "country": "Bolivia (Plurinational State of)",
      "name": "Cochabamba",
      "latitude": -17.3895,
      "longitude": -66.1568,
      "base_risk": 8.93,
      "rain_6h_mm": 0.1,
      "humidity_avg": 37.8,
      "soil_moisture_avg": 0.0,
      "rain_mult": 0.001,
      "soil_mult": 0.95,
      "humidity_mult": 1.019,
      "raw_dynamic_score": 0.009,
      "dynamic_level": "Low"
    },
    {
      "id": "84",
      "country": "Bolivia (Plurinational State of)",
      "name": "La Paz",
      "latitude": -16.5,
      "longitude": -68.15,
      "base_risk": 9.19,
      "rain_6h_mm": 0.8,
      "humidity_avg": 36.5,
      "soil_moisture_avg": 0.0,
      "rain_mult": 0.008,
      "soil_mult": 0.95,
      "humidity_mult": 1.018,
      "raw_dynamic_score": 0.071,
      "dynamic_level": "Low"
    },
    {
      "id": "85",
      "country": "Bolivia (Plurinational State of)",
      "name": "Oruro",
      "latitude": -17.9833,
      "longitude": -67.15,
      "base_risk": 8.94,
      "rain_6h_mm": 0.0,
      "humidity_avg": 21.5,
      "soil_moisture_avg": 0.0,
      "rain_mult": 0.0,
      "soil_mult": 0.95,
      "humidity_mult": 1.011,
      "raw_dynamic_score": 0.0,
      "dynamic_level": "None"
    },
    {
      "id": "91",
      "country": "Brazil",
      "name": "Bauru",
      "latitude": -22.3147,
      "longitude": -49.0606,
      "base_risk": 9.5,
      "rain_6h_mm": 1.8,
      "humidity_avg": 71.8,
      "soil_moisture_avg": 0.0,
      "rain_mult": 0.018,
      "soil_mult": 0.95,
      "humidity_mult": 1.036,
      "raw_dynamic_score": 0.168,
      "dynamic_level": "Low"
    },
    {
      "id": "92",
      "country": "Brazil",
      "name": "Belém",
      "latitude": -1.4561,
      "longitude": -48.479,
      "base_risk": 9.14,
      "rain_6h_mm": 0.0,
      "humidity_avg": 54.5,
      "soil_moisture_avg": 0.0,
      "rain_mult": 0.0,
      "soil_mult": 0.95,
      "humidity_mult": 1.027,
      "raw_dynamic_score": 0.0,
      "dynamic_level": "None"
    },
    {
      "id": "93",
      "country": "Brazil",
      "name": "Belo Horizonte",
      "latitude": -19.9208,
      "longitude": -43.9378,
      "base_risk": 9.19,
      "rain_6h_mm": 0.6,
      "humidity_avg": 75.7,
      "soil_moisture_avg": 0.0,
      "rain_mult": 0.006,
      "soil_mult": 0.95,
      "humidity_mult": 1.038,
      "raw_dynamic_score": 0.054,
      "dynamic_level": "Low"
    },
    {
      "id": "94",
      "country": "Brazil",
      "name": "Blumenau",
      "latitude": -26.9194,
      "longitude": -49.0661,
      "base_risk": 9.15,
      "rain_6h_mm": 0.0,
      "humidity_avg": 52.8,
      "soil_moisture_avg": 0.0,
      "rain_mult": 0.0,
      "soil_mult": 0.95,
      "humidity_mult": 1.026,
      "raw_dynamic_score": 0.0,
      "dynamic_level": "None"
    },
    {
      "id": "95",
      "country": "Brazil",
      "name": "Boa Vista",
      "latitude": 2.8197,
      "longitude": -60.6733,
      "base_risk": 9.46,
      "rain_6h_mm": 0.0,
      "humidity_avg": 50.8,
      "soil_moisture_avg": 0.0,
      "rain_mult": 0.0,
      "soil_mult": 0.95,
      "humidity_mult": 1.025,
      "raw_dynamic_score": 0.0,
      "dynamic_level": "None"
    },
    {
      "id": "101",
      "country": "Brazil",
      "name": "Caruaru",
      "latitude": -8.2833,
      "longitude": -35.9761,
      "base_risk": 9.37,
      "rain_6h_mm": 0.0,
      "humidity_avg": 41.8,
      "soil_moisture_avg": 0.0,
      "rain_mult": 0.0,
      "soil_mult": 0.95,
      "humidity_mult": 1.021,
      "raw_dynamic_score": 0.0,
      "dynamic_level": "None"
    },
    {
      "id": "102",
      "country": "Brazil",
      "name": "Cascavel",
      "latitude": -24.9558,
      "longitude": -53.4553,
      "base_risk": 9.33,
      "rain_6h_mm": 0.0,
      "humidity_avg": 66.5,
      "soil_moisture_avg": 0.0,
      "rain_mult": 0.0,
      "soil_mult": 0.95,
      "humidity_mult": 1.033,
      "raw_dynamic_score": 0.0,
      "dynamic_level": "None"
    },
    {
      "id": "103",
      "country": "Brazil",
      "name": "Caxias Do Sul",
      "latitude": -29.1681,
      "longitude": -51.1794,
      "base_risk": 8.82,
      "rain_6h_mm": 0.0,
      "humidity_avg": 85.0,
      "soil_moisture_avg": 0.0,
      "rain_mult": 0.0,
      "soil_mult": 0.95,
      "humidity_mult": 1.042,
      "raw_dynamic_score": 0.0,
      "dynamic_level": "None"
    },
    {
      "id": "104",
      "country": "Brazil",
      "name": "Cuiabá",
      "latitude": -15.5961,
      "longitude": -56.0967,
      "base_risk": 9.5,
      "rain_6h_mm": 13.3,
      "humidity_avg": 60.7,
      "soil_moisture_avg": 0.0,
      "rain_mult": 0.133,
      "soil_mult": 0.95,
      "humidity_mult": 1.03,
      "raw_dynamic_score": 1.237,
      "dynamic_level": "Low"
    },
    {
      "id": "105",
      "country": "Brazil",
      "name": "Curitiba",
      "latitude": -25.4278,
      "longitude": -49.2731,
      "base_risk": 8.88,
      "rain_6h_mm": 0.0,
      "humidity_avg": 55.5,
      "soil_moisture_avg": 0.0,
      "rain_mult": 0.0,
      "soil_mult": 0.95,
      "humidity_mult": 1.028,
      "raw_dynamic_score": 0.0,
      "dynamic_level": "None"
    },
    {
      "id": "111",
      "country": "Brazil",
      "name": "Grande São Luís",
      "latitude": -2.5385,
      "longitude": -44.2832,
      "base_risk": 8.97,
      "rain_6h_mm": 0.0,
      "humidity_avg": 64.3,
      "soil_moisture_avg": 0.0,
      "rain_mult": 0.0,
      "soil_mult": 0.95,
      "humidity_mult": 1.032,
      "raw_dynamic_score": 0.0,
      "dynamic_level": "None"
    },
    {
      "id": "112",
      "country": "Brazil",
      "name": "Grande Vitória",
      "latitude": -20.3054,
      "longitude": -40.3079,
      "base_risk": 9.5,
      "rain_6h_mm": 0.0,
      "humidity_avg": 50.0,
      "soil_moisture_avg": 0.0,
      "rain_mult": 0.0,
      "soil_mult": 0.95,
      "humidity_mult": 1.025,
      "raw_dynamic_score": 0.0,
      "dynamic_level": "None"
    },
    {
      "id": "113",
      "country": "Brazil",
      "name": "João Pessoa",
      "latitude": -7.115,
      "longitude": -34.8631,
      "base_risk": 9.3,
      "rain_6h_mm": 0.0,
      "humidity_avg": 56.2,
      "soil_moisture_avg": 0.0,
      "rain_mult": 0.0,
      "soil_mult": 0.95,
      "humidity_mult": 1.028,
      "raw_dynamic_score": 0.0,
      "dynamic_level": "None"
    },
    {
      "id": "114",
      "country": "Brazil",
      "name": "Joinville",
      "latitude": -26.3044,
      "longitude": -48.8456,
      "base_risk": 9.02,
      "rain_6h_mm": 0.0,
      "humidity_avg": 48.0,
      "soil_moisture_avg": 0.0,
      "rain_mult": 0.0,
      "soil_mult": 0.95,
      "humidity_mult": 1.024,
      "raw_dynamic_score": 0.0,
      "dynamic_level": "None"
    },
    {
      "id": "115",
      "country": "Brazil",
      "name": "Juazeiro Do Norte",
      "latitude": -7.2131,
      "longitude": -39.3153,
      "base_risk": 9.29,
      "rain_6h_mm": 0.0,
      "humidity_avg": 33.2,
      "soil_moisture_avg": 0.0,
      "rain_mult": 0.0,
      "soil_mult": 0.95,
      "humidity_mult": 1.017,
      "raw_dynamic_score": 0.0,
      "dynamic_level": "None"
    },
    {
      "id": "121",
      "country": "Brazil",
      "name": "Manaus",
      "latitude": -3.1019,
      "longitude": -60.025,
      "base_risk": 9.01,
      "rain_6h_mm": 0.0,
      "humidity_avg": 52.3,
      "soil_moisture_avg": 0.0,
      "rain_mult": 0.0,
      "soil_mult": 0.95,
      "humidity_mult": 1.026,
      "raw_dynamic_score": 0.0,
      "dynamic_level": "None"
    },
    {
      "id": "122",
      "country": "Brazil",
      "name": "Maringá",
      "latitude": -23.4253,
      "longitude": -51.9386,
      "base_risk": 9.32,
      "rain_6h_mm": 0.0,
      "humidity_avg": 52.7,
      "soil_moisture_avg": 0.0,
      "rain_mult": 0.0,
      "soil_mult": 0.95,
      "humidity_mult": 1.026,
      "raw_dynamic_score": 0.0,
      "dynamic_level": "None"
    },
    {
      "id": "123",
      "country": "Brazil",
      "name": "Montes Claros",
      "latitude": -16.735,
      "longitude": -43.8617,
      "base_risk": 9.5,
      "rain_6h_mm": 1.0,
      "humidity_avg": 68.0,
      "soil_moisture_avg": 0.0,
      "rain_mult": 0.01,
      "soil_mult": 0.95,
      "humidity_mult": 1.034,
      "raw_dynamic_score": 0.093,
      "dynamic_level": "Low"
    },
    {
      "id": "124",
      "country": "Brazil",
      "name": "Natal",
      "latitude": -5.795,
      "longitude": -35.2094,
      "base_risk": 9.5,
      "rain_6h_mm": 0.0,
      "humidity_avg": 58.7,
      "soil_moisture_avg": 0.0,
      "rain_mult": 0.0,
      "soil_mult": 0.95,
      "humidity_mult": 1.029,
      "raw_dynamic_score": 0.0,
      "dynamic_level": "None"
    },
    {
      "id": "125",
      "country": "Brazil",
      "name": "Pelotas",
      "latitude": -31.7719,
      "longitude": -52.3425,
      "base_risk": 9.26,
      "rain_6h_mm": 0.6,
      "humidity_avg": 69.2,
      "soil_moisture_avg": 0.0,
      "rain_mult": 0.006,
      "soil_mult": 0.95,
      "humidity_mult": 1.035,
      "raw_dynamic_score": 0.055,
      "dynamic_level": "Low"
    },
    {
      "id": "129",
      "country": "Brazil",
      "name": "Pôrto Alegre",
      "latitude": -30.0331,
      "longitude": -51.23,
      "base_risk": 9.11,
      "rain_6h_mm": 0.0,
      "humidity_avg": 74.2,
      "soil_moisture_avg": 0.0,
      "rain_mult": 0.0,
      "soil_mult": 0.95,
      "humidity_mult": 1.037,
      "raw_dynamic_score": 0.0,
      "dynamic_level": "None"
    },
    {
      "id": "130",
      "country": "Brazil",
      "name": "Pôrto Velho",
      "latitude": -8.7619,
      "longitude": -63.9039,
      "base_risk": 8.9,
      "rain_6h_mm": 0.2,
      "humidity_avg": 58.0,
      "soil_moisture_avg": 0.0,
      "rain_mult": 0.002,
      "soil_mult": 0.95,
      "humidity_mult": 1.029,
      "raw_dynamic_score": 0.017,
      "dynamic_level": "Low"
    },
    {
      "id": "132",
      "country": "Brazil",
      "name": "Ribeirão  Preto",
      "latitude": -21.1775,
      "longitude": -47.8103,
      "base_risk": 9.07,
      "rain_6h_mm": 6.4,
      "humidity_avg": 74.0,
      "soil_moisture_avg": 0.0,
      "rain_mult": 0.064,
      "soil_mult": 0.95,
      "humidity_mult": 1.037,
      "raw_dynamic_score": 0.572,
      "dynamic_level": "Low"
    },
    {
      "id": "134",
      "country": "Brazil",
      "name": "Rio de Janeiro",
      "latitude": -22.9028,
      "longitude": -43.2075,
      "base_risk": 9.38,
      "rain_6h_mm": 0.3,
      "humidity_avg": 70.7,
      "soil_moisture_avg": 0.0,
      "rain_mult": 0.003,
      "soil_mult": 0.95,
      "humidity_mult": 1.035,
      "raw_dynamic_score": 0.028,
      "dynamic_level": "Low"
    },
    {
      "id": "135",
      "country": "Brazil",
      "name": "Salvador",
      "latitude": -12.9711,
      "longitude": -38.5108,
      "base_risk": 9.07,
      "rain_6h_mm": 0.0,
      "humidity_avg": 63.3,
      "soil_moisture_avg": 0.0,
      "rain_mult": 0.0,
      "soil_mult": 0.95,
      "humidity_mult": 1.032,
      "raw_dynamic_score": 0.0,
      "dynamic_level": "None"
    },
    {
      "id": "140",
      "country": "Brazil",
      "name": "Taubaté",
      "latitude": -23.0264,
      "longitude": -45.5553,
      "base_risk": 9.5,
      "rain_6h_mm": 1.7,
      "humidity_avg": 78.8,
      "soil_moisture_avg": 0.0,
      "rain_mult": 0.017,
      "soil_mult": 0.95,
      "humidity_mult": 1.039,
      "raw_dynamic_score": 0.159,
      "dynamic_level": "Low"
    },
    {
      "id": "141",
      "country": "Brazil",
      "name": "Teresina",
      "latitude": -5.0892,
      "longitude": -42.8019,
      "base_risk": 9.39,
      "rain_6h_mm": 0.0,
      "humidity_avg": 41.2,
      "soil_moisture_avg": 0.0,
      "rain_mult": 0.0,
      "soil_mult": 0.95,
      "humidity_mult": 1.021,
      "raw_dynamic_score": 0.0,
      "dynamic_level": "None"
    },
    {
      "id": "142",
      "country": "Brazil",
      "name": "Uberaba",
      "latitude": -19.7483,
      "longitude": -47.9319,
      "base_risk": 9.32,
      "rain_6h_mm": 10.4,
      "humidity_avg": 67.5,
      "soil_moisture_avg": 0.0,
      "rain_mult": 0.104,
      "soil_mult": 0.95,
      "humidity_mult": 1.034,
      "raw_dynamic_score": 0.952,
      "dynamic_level": "Low"
    },
    {
      "id": "143",
      "country": "Brazil",
      "name": "Uberlândia",
      "latitude": -18.9186,
      "longitude": -48.2772,
      "base_risk": 9.5,
      "rain_6h_mm": 2.9,
      "humidity_avg": 55.8,
      "soil_moisture_avg": 0.0,
      "rain_mult": 0.029,
      "soil_mult": 0.95,
      "humidity_mult": 1.028,
      "raw_dynamic_score": 0.269,
      "dynamic_level": "Low"
    },
    {
      "id": "144",
      "country": "Brazil",
      "name": "Vale do Aço",
      "latitude": -19.9405,
      "longitude": -43.9354,
      "base_risk": 9.42,
      "rain_6h_mm": 0.8,
      "humidity_avg": 78.7,
      "soil_moisture_avg": 0.0,
      "rain_mult": 0.008,
      "soil_mult": 0.95,
      "humidity_mult": 1.039,
      "raw_dynamic_score": 0.074,
      "dynamic_level": "Low"
    },
    {
      "id": "150",
      "country": "Burkina Faso",
      "name": "Bobo-Dioulasso",
      "latitude": 11.1772,
      "longitude": -4.2979,
      "base_risk": 9.23,
      "rain_6h_mm": 2.1,
      "humidity_avg": 69.8,
      "soil_moisture_avg": 0.0,
      "rain_mult": 0.021,
      "soil_mult": 0.95,
      "humidity_mult": 1.035,
      "raw_dynamic_score": 0.191,
      "dynamic_level": "Low"
    },
    {
      "id": "151",
      "country": "Burkina Faso",
      "name": "Ouagadougou",
      "latitude": 12.3642,
      "longitude": -1.5383,
      "base_risk": 9.5,
      "rain_6h_mm": 2.6,
      "humidity_avg": 51.8,
      "soil_moisture_avg": 0.0,
      "rain_mult": 0.026,
      "soil_mult": 0.95,
      "humidity_mult": 1.026,
      "raw_dynamic_score": 0.241,
      "dynamic_level": "Low"
    },
    {
      "id": "152",
      "country": "Burundi",
      "name": "Bujumbura",
      "latitude": -3.3822,
      "longitude": 29.3644,
      "base_risk": 9.39,
      "rain_6h_mm": 5.5,
      "humidity_avg": 87.3,
      "soil_moisture_avg": 0.0,
      "rain_mult": 0.055,
      "soil_mult": 0.95,
      "humidity_mult": 1.044,
      "raw_dynamic_score": 0.512,
      "dynamic_level": "Low"
    },
    {
      "id": "153",
      "country": "Cambodia",
      "name": "Phnum Pénh (Phnom Penh)",
      "latitude": 11.5625,
      "longitude": 104.916,
      "base_risk": 9.36,
      "rain_6h_mm": 6.1,
      "humidity_avg": 91.5,
      "soil_moisture_avg": 0.0,
      "rain_mult": 0.061,
      "soil_mult": 0.95,
      "humidity_mult": 1.046,
      "raw_dynamic_score": 0.567,
      "dynamic_level": "Low"
    },
    {
      "id": "154",
      "country": "Cameroon",
      "name": "Bafoussam",
      "latitude": 5.4737,
      "longitude": 10.4179,
      "base_risk": 9.5,
      "rain_6h_mm": 0.5,
      "humidity_avg": 74.3,
      "soil_moisture_avg": 0.0,
      "rain_mult": 0.005,
      "soil_mult": 0.95,
      "humidity_mult": 1.037,
      "raw_dynamic_score": 0.047,
      "dynamic_level": "Low"
    },
    {
      "id": "160",
      "country": "Cameroon",
      "name": "Yaoundé",
      "latitude": 3.8667,
      "longitude": 11.5167,
      "base_risk": 9.5,
      "rain_6h_mm": 0.7,
      "humidity_avg": 78.5,
      "soil_moisture_avg": 0.0,
      "rain_mult": 0.007,
      "soil_mult": 0.95,
      "humidity_mult": 1.039,
      "raw_dynamic_score": 0.066,
      "dynamic_level": "Low"
    },
    {
      "id": "161",
      "country": "Canada",
      "name": "Calgary",
      "latitude": 51.0441,
      "longitude": -114.0593,
      "base_risk": 9.29,
      "rain_6h_mm": 0.0,
      "humidity_avg": 52.3,
      "soil_moisture_avg": 0.0,
      "rain_mult": 0.0,
      "soil_mult": 0.95,
      "humidity_mult": 1.026,
      "raw_dynamic_score": 0.0,
      "dynamic_level": "None"
    },
    {
      "id": "162",
      "country": "Canada",
      "name": "Edmonton",
      "latitude": 53.5434,
      "longitude": -113.5037,
      "base_risk": 9.38,
      "rain_6h_mm": 0.0,
      "humidity_avg": 79.5,
      "soil_moisture_avg": 0.0,
      "rain_mult": 0.0,
      "soil_mult": 0.95,
      "humidity_mult": 1.04,
      "raw_dynamic_score": 0.0,
      "dynamic_level": "None"
    },
    {
      "id": "163",
      "country": "Canada",
      "name": "Halifax",
      "latitude": 44.6477,
      "longitude": -63.5818,
      "base_risk": 9.07,
      "rain_6h_mm": 4.0,
      "humidity_avg": 91.5,
      "soil_moisture_avg": 0.0,
      "rain_mult": 0.04,
      "soil_mult": 0.95,
      "humidity_mult": 1.046,
      "raw_dynamic_score": 0.36,
      "dynamic_level": "Low"
    },
    {
      "id": "164",
      "country": "Canada",
      "name": "Hamilton",
      "latitude": 43.2495,
      "longitude": -79.8475,
      "base_risk": 9.21,
      "rain_6h_mm": 0.0,
      "humidity_avg": 65.2,
      "soil_moisture_avg": 0.0,
      "rain_mult": 0.0,
      "soil_mult": 0.95,
      "humidity_mult": 1.033,
      "raw_dynamic_score": 0.0,
      "dynamic_level": "None"
    },
    {
      "id": "170",
      "country": "Canada",
      "name": "Québec",
      "latitude": 46.8123,
      "longitude": -71.2145,
      "base_risk": 8.95,
      "rain_6h_mm": 0.0,
      "humidity_avg": 77.2,
      "soil_moisture_avg": 0.0,
      "rain_mult": 0.0,
      "soil_mult": 0.95,
      "humidity_mult": 1.039,
      "raw_dynamic_score": 0.0,
      "dynamic_level": "None"
    },
    {
      "id": "171",
      "country": "Canada",
      "name": "Saskatoon",
      "latitude": 52.1168,
      "longitude": -106.6345,
      "base_risk": 9.03,
      "rain_6h_mm": 0.0,
      "humidity_avg": 81.5,
      "soil_moisture_avg": 0.0,
      "rain_mult": 0.0,
      "soil_mult": 0.95,
      "humidity_mult": 1.041,
      "raw_dynamic_score": 0.0,
      "dynamic_level": "None"
    },
    {
      "id": "172",
      "country": "Canada",
      "name": "St. Catharines-Niagara",
      "latitude": 43.1668,
      "longitude": -79.2496,
      "base_risk": 9.27,
      "rain_6h_mm": 0.0,
      "humidity_avg": 66.3,
      "soil_moisture_avg": 0.0,
      "rain_mult": 0.0,
      "soil_mult": 0.95,
      "humidity_mult": 1.033,
      "raw_dynamic_score": 0.0,
      "dynamic_level": "None"
    },
    {
      "id": "173",
      "country": "Canada",
      "name": "Toronto",
      "latitude": 43.7001,
      "longitude": -79.4163,
      "base_risk": 8.92,
      "rain_6h_mm": 0.0,
      "humidity_avg": 68.8,
      "soil_moisture_avg": 0.0,
      "rain_mult": 0.0,
      "soil_mult": 0.95,
      "humidity_mult": 1.034,
      "raw_dynamic_score": 0.0,
      "dynamic_level": "None"
    },
    {
      "id": "174",
      "country": "Canada",
      "name": "Vancouver",
      "latitude": 49.2497,
      "longitude": -123.1193,
      "base_risk": 9.1,
      "rain_6h_mm": 0.0,
      "humidity_avg": 80.8,
      "soil_moisture_avg": 0.0,
      "rain_mult": 0.0,
      "soil_mult": 0.95,
      "humidity_mult": 1.04,
      "raw_dynamic_score": 0.0,
      "dynamic_level": "None"
    },
    {
      "id": "180",
      "country": "Chile",
      "name": "Antofagasta",
      "latitude": -23.65,
      "longitude": -70.4,
      "base_risk": 9.14,
      "rain_6h_mm": 0.0,
      "humidity_avg": 67.8,
      "soil_moisture_avg": 0.0,
      "rain_mult": 0.0,
      "soil_mult": 0.95,
      "humidity_mult": 1.034,
      "raw_dynamic_score": 0.0,
      "dynamic_level": "None"
    },
    {
      "id": "181",
      "country": "Chile",
      "name": "Concepción",
      "latitude": -36.827,
      "longitude": -73.0498,
      "base_risk": 9.03,
      "rain_6h_mm": 0.0,
      "humidity_avg": 85.8,
      "soil_moisture_avg": 0.0,
      "rain_mult": 0.0,
      "soil_mult": 0.95,
      "humidity_mult": 1.043,
      "raw_dynamic_score": 0.0,
      "dynamic_level": "None"
    },
    {
      "id": "182",
      "country": "Chile",
      "name": "La Serena-Coquimbo",
      "latitude": -29.9045,
      "longitude": -71.2489,
      "base_risk": 8.62,
      "rain_6h_mm": 0.0,
      "humidity_avg": 80.0,
      "soil_moisture_avg": 0.0,
      "rain_mult": 0.0,
      "soil_mult": 0.95,
      "humidity_mult": 1.04,
      "raw_dynamic_score": 0.0,
      "dynamic_level": "None"
    },
    {
      "id": "183",
      "country": "Chile",
      "name": "Santiago",
      "latitude": -33.4569,
      "longitude": -70.6483,
      "base_risk": 8.97,
      "rain_6h_mm": 0.0,
      "humidity_avg": 44.7,
      "soil_moisture_avg": 0.0,
      "rain_mult": 0.0,
      "soil_mult": 0.95,
      "humidity_mult": 1.022,
      "raw_dynamic_score": 0.0,
      "dynamic_level": "None"
    },
    {
      "id": "184",
      "country": "Chile",
      "name": "Temuco",
      "latitude": -38.7333,
      "longitude": -72.6,
      "base_risk": 9.22,
      "rain_6h_mm": 0.0,
      "humidity_avg": 68.2,
      "soil_moisture_avg": 0.0,
      "rain_mult": 0.0,
      "soil_mult": 0.95,
      "humidity_mult": 1.034,
      "raw_dynamic_score": 0.0,
      "dynamic_level": "None"
    },
    {
      "id": "189",
      "country": "China",
      "name": "Anning",
      "latitude": 24.9211,
      "longitude": 102.4784,
      "base_risk": 8.75,
      "rain_6h_mm": 16.2,
      "humidity_avg": 95.8,
      "soil_moisture_avg": 0.0,
      "rain_mult": 0.162,
      "soil_mult": 0.95,
      "humidity_mult": 1.048,
      "raw_dynamic_score": 1.411,
      "dynamic_level": "Low"
    },
    {
      "id": "190",
      "country": "China",
      "name": "Anqing",
      "latitude": 30.543,
      "longitude": 117.0533,
      "base_risk": 8.83,
      "rain_6h_mm": 0.0,
      "humidity_avg": 88.3,
      "soil_moisture_avg": 0.0,
      "rain_mult": 0.0,
      "soil_mult": 0.95,
      "humidity_mult": 1.044,
      "raw_dynamic_score": 0.0,
      "dynamic_level": "None"
    },
    {
      "id": "191",
      "country": "China",
      "name": "Anqiu",
      "latitude": 36.4342,
      "longitude": 119.1925,
      "base_risk": 9.2,
      "rain_6h_mm": 0.0,
      "humidity_avg": 94.7,
      "soil_moisture_avg": 0.0,
      "rain_mult": 0.0,
      "soil_mult": 0.95,
      "humidity_mult": 1.047,
      "raw_dynamic_score": 0.0,
      "dynamic_level": "None"
    },
    {
      "id": "192",
      "country": "China",
      "name": "Anshan",
      "latitude": 41.1236,
      "longitude": 122.99,
      "base_risk": 9.29,
      "rain_6h_mm": 0.0,
      "humidity_avg": 93.7,
      "soil_moisture_avg": 0.0,
      "rain_mult": 0.0,
      "soil_mult": 0.95,
      "humidity_mult": 1.047,
      "raw_dynamic_score": 0.0,
      "dynamic_level": "None"
    },
    {
      "id": "198",
      "country": "China",
      "name": "Baoding",
      "latitude": 38.8511,
      "longitude": 115.4903,
      "base_risk": 9.47,
      "rain_6h_mm": 0.0,
      "humidity_avg": 70.5,
      "soil_moisture_avg": 0.0,
      "rain_mult": 0.0,
      "soil_mult": 0.95,
      "humidity_mult": 1.035,
      "raw_dynamic_score": 0.0,
      "dynamic_level": "None"
    },
    {
      "id": "199",
      "country": "China",
      "name": "Baoji",
      "latitude": 34.3651,
      "longitude": 107.2004,
      "base_risk": 9.41,
      "rain_6h_mm": 0.0,
      "humidity_avg": 78.2,
      "soil_moisture_avg": 0.0,
      "rain_mult": 0.0,
      "soil_mult": 0.95,
      "humidity_mult": 1.039,
      "raw_dynamic_score": 0.0,
      "dynamic_level": "None"
    },
    {
      "id": "200",
      "country": "China",
      "name": "Baotou",
      "latitude": 40.6522,
      "longitude": 109.8222,
      "base_risk": 9.06,
      "rain_6h_mm": 0.0,
      "humidity_avg": 61.8,
      "soil_moisture_avg": 0.0,
      "rain_mult": 0.0,
      "soil_mult": 0.95,
      "humidity_mult": 1.031,
      "raw_dynamic_score": 0.0,
      "dynamic_level": "None"
    },
    {
      "id": "201",
      "country": "China",
      "name": "Bayannaoer",
      "latitude": 40.7505,
      "longitude": 107.4052,
      "base_risk": 8.81,
      "rain_6h_mm": 0.0,
      "humidity_avg": 63.7,
      "soil_moisture_avg": 0.0,
      "rain_mult": 0.0,
      "soil_mult": 0.95,
      "humidity_mult": 1.032,
      "raw_dynamic_score": 0.0,
      "dynamic_level": "None"
    },
    {
      "id": "202",
      "country": "China",
      "name": "Bazhong",
      "latitude": 31.8662,
      "longitude": 106.7325,
      "base_risk": 8.74,
      "rain_6h_mm": 0.0,
      "humidity_avg": 91.0,
      "soil_moisture_avg": 0.0,
      "rain_mult": 0.0,
      "soil_mult": 0.95,
      "humidity_mult": 1.046,
      "raw_dynamic_score": 0.0,
      "dynamic_level": "None"
    },
    {
      "id": "208",
      "country": "China",
      "name": "Binzhou",
      "latitude": 37.3811,
      "longitude": 118.0109,
      "base_risk": 8.83,
      "rain_6h_mm": 0.0,
      "humidity_avg": 95.3,
      "soil_moisture_avg": 0.0,
      "rain_mult": 0.0,
      "soil_mult": 0.95,
      "humidity_mult": 1.048,
      "raw_dynamic_score": 0.0,
      "dynamic_level": "None"
    },
    {
      "id": "209",
      "country": "China",
      "name": "Botou",
      "latitude": 38.0667,
      "longitude": 116.5667,
      "base_risk": 9.27,
      "rain_6h_mm": 0.0,
      "humidity_avg": 95.0,
      "soil_moisture_avg": 0.0,
      "rain_mult": 0.0,
      "soil_mult": 0.95,
      "humidity_mult": 1.048,
      "raw_dynamic_score": 0.0,
      "dynamic_level": "None"
    },
    {
      "id": "210",
      "country": "China",
      "name": "Bozhou",
      "latitude": 33.8703,
      "longitude": 115.777,
      "base_risk": 9.31,
      "rain_6h_mm": 0.0,
      "humidity_avg": 96.5,
      "soil_moisture_avg": 0.0,
      "rain_mult": 0.0,
      "soil_mult": 0.95,
      "humidity_mult": 1.048,
      "raw_dynamic_score": 0.0,
      "dynamic_level": "None"
    },
    {
      "id": "211",
      "country": "China",
      "name": "Cangzhou",
      "latitude": 38.3167,
      "longitude": 116.8667,
      "base_risk": 9.34,
      "rain_6h_mm": 0.0,
      "humidity_avg": 93.7,
      "soil_moisture_avg": 0.0,
      "rain_mult": 0.0,
      "soil_mult": 0.95,
      "humidity_mult": 1.047,
      "raw_dynamic_score": 0.0,
      "dynamic_level": "None"
    },
    {
      "id": "212",
      "country": "China",
      "name": "Cenxi",
      "latitude": 22.9191,
      "longitude": 110.9945,
      "base_risk": 8.86,
      "rain_6h_mm": 0.2,
      "humidity_avg": 94.8,
      "soil_moisture_avg": 0.0,
      "rain_mult": 0.002,
      "soil_mult": 0.95,
      "humidity_mult": 1.047,
      "raw_dynamic_score": 0.018,
      "dynamic_level": "Low"
    },
    {
      "id": "218",
      "country": "China",
      "name": "Changsha",
      "latitude": 28.2274,
      "longitude": 112.9383,
      "base_risk": 9.47,
      "rain_6h_mm": 1.6,
      "humidity_avg": 93.5,
      "soil_moisture_avg": 0.0,
      "rain_mult": 0.016,
      "soil_mult": 0.95,
      "humidity_mult": 1.047,
      "raw_dynamic_score": 0.151,
      "dynamic_level": "Low"
    },
    {
      "id": "219",
      "country": "China",
      "name": "Changshu",
      "latitude": 31.6539,
      "longitude": 120.7467,
      "base_risk": 9.47,
      "rain_6h_mm": 0.0,
      "humidity_avg": 89.7,
      "soil_moisture_avg": 0.0,
      "rain_mult": 0.0,
      "soil_mult": 0.95,
      "humidity_mult": 1.045,
      "raw_dynamic_score": 0.0,
      "dynamic_level": "None"
    },
    {
      "id": "220",
      "country": "China",
      "name": "Changyi",
      "latitude": 36.8546,
      "longitude": 119.3913,
      "base_risk": 9.19,
      "rain_6h_mm": 0.0,
      "humidity_avg": 96.5,
      "soil_moisture_avg": 0.0,
      "rain_mult": 0.0,
      "soil_mult": 0.95,
      "humidity_mult": 1.048,
      "raw_dynamic_score": 0.0,
      "dynamic_level": "None"
    },
    {
      "id": "221",
      "country": "China",
      "name": "Changzhi",
      "latitude": 36.1921,
      "longitude": 113.1155,
      "base_risk": 8.8,
      "rain_6h_mm": 0.0,
      "humidity_avg": 91.8,
      "soil_moisture_avg": 0.0,
      "rain_mult": 0.0,
      "soil_mult": 0.95,
      "humidity_mult": 1.046,
      "raw_dynamic_score": 0.0,
      "dynamic_level": "None"
    },
    {
      "id": "222",
      "country": "China",
      "name": "Changzhou, Jiangsu",
      "latitude": 31.7943,
      "longitude": 119.9589,
      "base_risk": 9.4,
      "rain_6h_mm": 0.0,
      "humidity_avg": 88.8,
      "soil_moisture_avg": 0.0,
      "rain_mult": 0.0,
      "soil_mult": 0.95,
      "humidity_mult": 1.044,
      "raw_dynamic_score": 0.0,
      "dynamic_level": "None"
    },
    {
      "id": "223",
      "country": "China",
      "name": "Chaohu",
      "latitude": 31.6,
      "longitude": 117.8667,
      "base_risk": 8.88,
      "rain_6h_mm": 0.0,
      "humidity_avg": 89.5,
      "soil_moisture_avg": 0.0,
      "rain_mult": 0.0,
      "soil_mult": 0.95,
      "humidity_mult": 1.045,
      "raw_dynamic_score": 0.0,
      "dynamic_level": "None"
    },
    {
      "id": "229",
      "country": "China",
      "name": "Chifeng",
      "latitude": 42.2646,
      "longitude": 118.9152,
      "base_risk": 9.34,
      "rain_6h_mm": 0.0,
      "humidity_avg": 40.5,
      "soil_moisture_avg": 0.0,
      "rain_mult": 0.0,
      "soil_mult": 0.95,
      "humidity_mult": 1.02,
      "raw_dynamic_score": 0.0,
      "dynamic_level": "None"
    },
    {
      "id": "230",
      "country": "China",
      "name": "Chizhou",
      "latitude": 30.6578,
      "longitude": 117.4831,
      "base_risk": 9.07,
      "rain_6h_mm": 0.0,
      "humidity_avg": 92.5,
      "soil_moisture_avg": 0.0,
      "rain_mult": 0.0,
      "soil_mult": 0.95,
      "humidity_mult": 1.046,
      "raw_dynamic_score": 0.0,
      "dynamic_level": "None"
    },
    {
      "id": "231",
      "country": "China",
      "name": "Chongqing",
      "latitude": 29.5628,
      "longitude": 106.5528,
      "base_risk": 8.83,
      "rain_6h_mm": 0.0,
      "humidity_avg": 95.7,
      "soil_moisture_avg": 0.0,
      "rain_mult": 0.0,
      "soil_mult": 0.95,
      "humidity_mult": 1.048,
      "raw_dynamic_score": 0.0,
      "dynamic_level": "None"
    },
    {
      "id": "232",
      "country": "China",
      "name": "Chuxiong",
      "latitude": 25.0445,
      "longitude": 101.541,
      "base_risk": 9.25,
      "rain_6h_mm": 1.1,
      "humidity_avg": 99.8,
      "soil_moisture_avg": 0.0,
      "rain_mult": 0.011,
      "soil_mult": 0.95,
      "humidity_mult": 1.05,
      "raw_dynamic_score": 0.101,
      "dynamic_level": "Low"
    },
    {
      "id": "233",
      "country": "China",
      "name": "Chuzhou",
      "latitude": 32.2985,
      "longitude": 118.3164,
      "base_risk": 9.36,
      "rain_6h_mm": 0.0,
      "humidity_avg": 89.7,
      "soil_moisture_avg": 0.0,
      "rain_mult": 0.0,
      "soil_mult": 0.95,
      "humidity_mult": 1.045,
      "raw_dynamic_score": 0.0,
      "dynamic_level": "None"
    },
    {
      "id": "239",
      "country": "China",
      "name": "Danzhou",
      "latitude": 19.5166,
      "longitude": 109.5752,
      "base_risk": 9.13,
      "rain_6h_mm": 0.0,
      "humidity_avg": 93.5,
      "soil_moisture_avg": 0.0,
      "rain_mult": 0.0,
      "soil_mult": 0.95,
      "humidity_mult": 1.047,
      "raw_dynamic_score": 0.0,
      "dynamic_level": "None"
    },
    {
      "id": "240",
      "country": "China",
      "name": "Daqing",
      "latitude": 46.5833,
      "longitude": 125.0,
      "base_risk": 9.32,
      "rain_6h_mm": 0.0,
      "humidity_avg": 86.0,
      "soil_moisture_avg": 0.0,
      "rain_mult": 0.0,
      "soil_mult": 0.95,
      "humidity_mult": 1.043,
      "raw_dynamic_score": 0.0,
      "dynamic_level": "None"
    },
    {
      "id": "241",
      "country": "China",
      "name": "Dashiqiao",
      "latitude": 40.6373,
      "longitude": 122.5025,
      "base_risk": 9.43,
      "rain_6h_mm": 0.0,
      "humidity_avg": 93.2,
      "soil_moisture_avg": 0.0,
      "rain_mult": 0.0,
      "soil_mult": 0.95,
      "humidity_mult": 1.047,
      "raw_dynamic_score": 0.0,
      "dynamic_level": "None"
    },
    {
      "id": "242",
      "country": "China",
      "name": "Datong",
      "latitude": 40.0805,
      "longitude": 113.293,
      "base_risk": 8.64,
      "rain_6h_mm": 0.0,
      "humidity_avg": 47.7,
      "soil_moisture_avg": 0.0,
      "rain_mult": 0.0,
      "soil_mult": 0.95,
      "humidity_mult": 1.024,
      "raw_dynamic_score": 0.0,
      "dynamic_level": "None"
    },
    {
      "id": "243",
      "country": "China",
      "name": "Daye",
      "latitude": 30.0987,
      "longitude": 114.9703,
      "base_risk": 8.79,
      "rain_6h_mm": 0.9,
      "humidity_avg": 92.8,
      "soil_moisture_avg": 0.0,
      "rain_mult": 0.009,
      "soil_mult": 0.95,
      "humidity_mult": 1.046,
      "raw_dynamic_score": 0.079,
      "dynamic_level": "Low"
    },
    {
      "id": "250",
      "country": "China",
      "name": "Donggang",
      "latitude": 39.8834,
      "longitude": 124.1462,
      "base_risk": 9.16,
      "rain_6h_mm": 0.1,
      "humidity_avg": 88.5,
      "soil_moisture_avg": 0.0,
      "rain_mult": 0.001,
      "soil_mult": 0.95,
      "humidity_mult": 1.044,
      "raw_dynamic_score": 0.009,
      "dynamic_level": "Low"
    },
    {
      "id": "251",
      "country": "China",
      "name": "Dongguan",
      "latitude": 23.0212,
      "longitude": 113.7414,
      "base_risk": 9.42,
      "rain_6h_mm": 0.0,
      "humidity_avg": 81.0,
      "soil_moisture_avg": 0.0,
      "rain_mult": 0.0,
      "soil_mult": 0.95,
      "humidity_mult": 1.04,
      "raw_dynamic_score": 0.0,
      "dynamic_level": "None"
    },
    {
      "id": "252",
      "country": "China",
      "name": "Dongtai",
      "latitude": 32.8523,
      "longitude": 120.3095,
      "base_risk": 9.27,
      "rain_6h_mm": 0.0,
      "humidity_avg": 89.2,
      "soil_moisture_avg": 0.0,
      "rain_mult": 0.0,
      "soil_mult": 0.95,
      "humidity_mult": 1.045,
      "raw_dynamic_score": 0.0,
      "dynamic_level": "None"
    },
    {
      "id": "253",
      "country": "China",
      "name": "Dongyang",
      "latitude": 29.2753,
      "longitude": 120.2303,
      "base_risk": 9.27,
      "rain_6h_mm": 1.9,
      "humidity_avg": 94.3,
      "soil_moisture_avg": 0.0,
      "rain_mult": 0.019,
      "soil_mult": 0.95,
      "humidity_mult": 1.047,
      "raw_dynamic_score": 0.175,
      "dynamic_level": "Low"
    },
    {
      "id": "254",
      "country": "China",
      "name": "Dongying",
      "latitude": 37.4533,
      "longitude": 118.5785,
      "base_risk": 8.79,
      "rain_6h_mm": 0.0,
      "humidity_avg": 96.5,
      "soil_moisture_avg": 0.0,
      "rain_mult": 0.0,
      "soil_mult": 0.95,
      "humidity_mult": 1.048,
      "raw_dynamic_score": 0.0,
      "dynamic_level": "None"
    },
    {
      "id": "256",
      "country": "China",
      "name": "Emeishan",
      "latitude": 29.6007,
      "longitude": 103.4856,
      "base_risk": 9.4,
      "rain_6h_mm": 0.0,
      "humidity_avg": 78.0,
      "soil_moisture_avg": 0.0,
      "rain_mult": 0.0,
      "soil_mult": 0.95,
      "humidity_mult": 1.039,
      "raw_dynamic_score": 0.0,
      "dynamic_level": "None"
    },
    {
      "id": "259",
      "country": "China",
      "name": "Erduosi (Ordoss)",
      "latitude": 39.5917,
      "longitude": 109.7666,
      "base_risk": 8.74,
      "rain_6h_mm": 0.0,
      "humidity_avg": 63.0,
      "soil_moisture_avg": 0.0,
      "rain_mult": 0.0,
      "soil_mult": 0.95,
      "humidity_mult": 1.032,
      "raw_dynamic_score": 0.0,
      "dynamic_level": "None"
    },
    {
      "id": "261",
      "country": "China",
      "name": "Fangchenggang",
      "latitude": 21.7659,
      "longitude": 108.354,
      "base_risk": 9.27,
      "rain_6h_mm": 0.7,
      "humidity_avg": 93.5,
      "soil_moisture_avg": 0.0,
      "rain_mult": 0.007,
      "soil_mult": 0.95,
      "humidity_mult": 1.047,
      "raw_dynamic_score": 0.065,
      "dynamic_level": "Low"
    },
    {
      "id": "265",
      "country": "China",
      "name": "Fuan",
      "latitude": 27.0881,
      "longitude": 119.6454,
      "base_risk": 9.2,
      "rain_6h_mm": 0.4,
      "humidity_avg": 96.3,
      "soil_moisture_avg": 0.0,
      "rain_mult": 0.004,
      "soil_mult": 0.95,
      "humidity_mult": 1.048,
      "raw_dynamic_score": 0.037,
      "dynamic_level": "Low"
    },
    {
      "id": "266",
      "country": "China",
      "name": "Fujin",
      "latitude": 47.2485,
      "longitude": 132.0373,
      "base_risk": 9.43,
      "rain_6h_mm": 1.1,
      "humidity_avg": 93.8,
      "soil_moisture_avg": 0.0,
      "rain_mult": 0.011,
      "soil_mult": 0.95,
      "humidity_mult": 1.047,
      "raw_dynamic_score": 0.103,
      "dynamic_level": "Low"
    },
    {
      "id": "267",
      "country": "China",
      "name": "Fuqing",
      "latitude": 25.725,
      "longitude": 119.3794,
      "base_risk": 9.43,
      "rain_6h_mm": 0.0,
      "humidity_avg": 76.3,
      "soil_moisture_avg": 0.0,
      "rain_mult": 0.0,
      "soil_mult": 0.95,
      "humidity_mult": 1.038,
      "raw_dynamic_score": 0.0,
      "dynamic_level": "None"
    },
    {
      "id": "268",
      "country": "China",
      "name": "Fushun, Liaoning",
      "latitude": 41.8807,
      "longitude": 123.9467,
      "base_risk": 9.47,
      "rain_6h_mm": 0.0,
      "humidity_avg": 95.5,
      "soil_moisture_avg": 0.0,
      "rain_mult": 0.0,
      "soil_mult": 0.95,
      "humidity_mult": 1.048,
      "raw_dynamic_score": 0.0,
      "dynamic_level": "None"
    },
    {
      "id": "273",
      "country": "China",
      "name": "Ganzhou",
      "latitude": 25.85,
      "longitude": 114.9333,
      "base_risk": 8.63,
      "rain_6h_mm": 0.0,
      "humidity_avg": 84.0,
      "soil_moisture_avg": 0.0,
      "rain_mult": 0.0,
      "soil_mult": 0.95,
      "humidity_mult": 1.042,
      "raw_dynamic_score": 0.0,
      "dynamic_level": "None"
    },
    {
      "id": "274",
      "country": "China",
      "name": "Gaoan",
      "latitude": 28.4271,
      "longitude": 115.3722,
      "base_risk": 9.0,
      "rain_6h_mm": 0.8,
      "humidity_avg": 89.5,
      "soil_moisture_avg": 0.0,
      "rain_mult": 0.008,
      "soil_mult": 0.95,
      "humidity_mult": 1.045,
      "raw_dynamic_score": 0.071,
      "dynamic_level": "Low"
    },
    {
      "id": "275",
      "country": "China",
      "name": "Gaomi",
      "latitude": 36.3833,
      "longitude": 119.7528,
      "base_risk": 9.13,
      "rain_6h_mm": 0.0,
      "humidity_avg": 96.0,
      "soil_moisture_avg": 0.0,
      "rain_mult": 0.0,
      "soil_mult": 0.95,
      "humidity_mult": 1.048,
      "raw_dynamic_score": 0.0,
      "dynamic_level": "None"
    },
    {
      "id": "276",
      "country": "China",
      "name": "Gaoping",
      "latitude": 35.7977,
      "longitude": 112.923,
      "base_risk": 9.41,
      "rain_6h_mm": 0.0,
      "humidity_avg": 91.0,
      "soil_moisture_avg": 0.0,
      "rain_mult": 0.0,
      "soil_mult": 0.95,
      "humidity_mult": 1.046,
      "raw_dynamic_score": 0.0,
      "dynamic_level": "None"
    },
    {
      "id": "277",
      "country": "China",
      "name": "Gaoyou",
      "latitude": 32.7791,
      "longitude": 119.447,
      "base_risk": 8.72,
      "rain_6h_mm": 0.0,
      "humidity_avg": 87.2,
      "soil_moisture_avg": 0.0,
      "rain_mult": 0.0,
      "soil_mult": 0.95,
      "humidity_mult": 1.044,
      "raw_dynamic_score": 0.0,
      "dynamic_level": "None"
    },
    {
      "id": "283",
      "country": "China",
      "name": "Guangzhou, Guangdong",
      "latitude": 23.1255,
      "longitude": 113.2574,
      "base_risk": 9.5,
      "rain_6h_mm": 0.0,
      "humidity_avg": 82.0,
      "soil_moisture_avg": 0.0,
      "rain_mult": 0.0,
      "soil_mult": 0.95,
      "humidity_mult": 1.041,
      "raw_dynamic_score": 0.0,
      "dynamic_level": "None"
    },
    {
      "id": "284",
      "country": "China",
      "name": "Guigang",
      "latitude": 23.0964,
      "longitude": 109.6092,
      "base_risk": 9.29,
      "rain_6h_mm": 6.5,
      "humidity_avg": 89.7,
      "soil_moisture_avg": 0.0,
      "rain_mult": 0.065,
      "soil_mult": 0.95,
      "humidity_mult": 1.045,
      "raw_dynamic_score": 0.599,
      "dynamic_level": "Low"
    },
    {
      "id": "285",
      "country": "China",
      "name": "Guilin",
      "latitude": 25.2819,
      "longitude": 110.2864,
      "base_risk": 9.5,
      "rain_6h_mm": 0.0,
      "humidity_avg": 83.7,
      "soil_moisture_avg": 0.0,
      "rain_mult": 0.0,
      "soil_mult": 0.95,
      "humidity_mult": 1.042,
      "raw_dynamic_score": 0.0,
      "dynamic_level": "None"
    },
    {
      "id": "286",
      "country": "China",
      "name": "Guiping",
      "latitude": 23.3934,
      "longitude": 110.0744,
      "base_risk": 8.96,
      "rain_6h_mm": 0.5,
      "humidity_avg": 92.0,
      "soil_moisture_avg": 0.0,
      "rain_mult": 0.005,
      "soil_mult": 0.95,
      "humidity_mult": 1.046,
      "raw_dynamic_score": 0.045,
      "dynamic_level": "Low"
    },
    {
      "id": "293",
      "country": "China",
      "name": "Haining",
      "latitude": 30.5273,
      "longitude": 120.6897,
      "base_risk": 9.13,
      "rain_6h_mm": 0.1,
      "humidity_avg": 91.2,
      "soil_moisture_avg": 0.0,
      "rain_mult": 0.001,
      "soil_mult": 0.95,
      "humidity_mult": 1.046,
      "raw_dynamic_score": 0.009,
      "dynamic_level": "Low"
    },
    {
      "id": "294",
      "country": "China",
      "name": "Haiyang",
      "latitude": 36.7823,
      "longitude": 121.1703,
      "base_risk": 8.9,
      "rain_6h_mm": 0.0,
      "humidity_avg": 90.7,
      "soil_moisture_avg": 0.0,
      "rain_mult": 0.0,
      "soil_mult": 0.95,
      "humidity_mult": 1.045,
      "raw_dynamic_score": 0.0,
      "dynamic_level": "None"
    },
    {
      "id": "295",
      "country": "China",
      "name": "Hami",
      "latitude": 42.8259,
      "longitude": 93.5169,
      "base_risk": 9.0,
      "rain_6h_mm": 0.0,
      "humidity_avg": 87.3,
      "soil_moisture_avg": 0.0,
      "rain_mult": 0.0,
      "soil_mult": 0.95,
      "humidity_mult": 1.044,
      "raw_dynamic_score": 0.0,
      "dynamic_level": "None"
    },
    {
      "id": "296",
      "country": "China",
      "name": "Hanchuan",
      "latitude": 30.6516,
      "longitude": 113.8329,
      "base_risk": 9.14,
      "rain_6h_mm": 0.0,
      "humidity_avg": 86.7,
      "soil_moisture_avg": 0.0,
      "rain_mult": 0.0,
      "soil_mult": 0.95,
      "humidity_mult": 1.043,
      "raw_dynamic_score": 0.0,
      "dynamic_level": "None"
    },
    {
      "id": "297",
      "country": "China",
      "name": "Handan",
      "latitude": 36.6006,
      "longitude": 114.4678,
      "base_risk": 8.73,
      "rain_6h_mm": 0.0,
      "humidity_avg": 89.8,
      "soil_moisture_avg": 0.0,
      "rain_mult": 0.0,
      "soil_mult": 0.95,
      "humidity_mult": 1.045,
      "raw_dynamic_score": 0.0,
      "dynamic_level": "None"
    },
    {
      "id": "303",
      "country": "China",
      "name": "Hegang",
      "latitude": 47.3443,
      "longitude": 130.2937,
      "base_risk": 9.4,
      "rain_6h_mm": 0.0,
      "humidity_avg": 93.5,
      "soil_moisture_avg": 0.0,
      "rain_mult": 0.0,
      "soil_mult": 0.95,
      "humidity_mult": 1.047,
      "raw_dynamic_score": 0.0,
      "dynamic_level": "None"
    },
    {
      "id": "304",
      "country": "China",
      "name": "Hejian",
      "latitude": 38.4425,
      "longitude": 116.0949,
      "base_risk": 9.31,
      "rain_6h_mm": 0.0,
      "humidity_avg": 89.3,
      "soil_moisture_avg": 0.0,
      "rain_mult": 0.0,
      "soil_mult": 0.95,
      "humidity_mult": 1.045,
      "raw_dynamic_score": 0.0,
      "dynamic_level": "None"
    },
    {
      "id": "305",
      "country": "China",
      "name": "Hengshui",
      "latitude": 37.7411,
      "longitude": 115.6781,
      "base_risk": 9.14,
      "rain_6h_mm": 0.0,
      "humidity_avg": 94.7,
      "soil_moisture_avg": 0.0,
      "rain_mult": 0.0,
      "soil_mult": 0.95,
      "humidity_mult": 1.047,
      "raw_dynamic_score": 0.0,
      "dynamic_level": "None"
    },
    {
      "id": "306",
      "country": "China",
      "name": "Hengyang",
      "latitude": 26.8841,
      "longitude": 112.6251,
      "base_risk": 8.99,
      "rain_6h_mm": 0.0,
      "humidity_avg": 91.0,
      "soil_moisture_avg": 0.0,
      "rain_mult": 0.0,
      "soil_mult": 0.95,
      "humidity_mult": 1.046,
      "raw_dynamic_score": 0.0,
      "dynamic_level": "None"
    },
    {
      "id": "307",
      "country": "China",
      "name": "Heshan",
      "latitude": 22.7659,
      "longitude": 112.959,
      "base_risk": 9.5,
      "rain_6h_mm": 0.0,
      "humidity_avg": 87.3,
      "soil_moisture_avg": 0.0,
      "rain_mult": 0.0,
      "soil_mult": 0.95,
      "humidity_mult": 1.044,
      "raw_dynamic_score": 0.0,
      "dynamic_level": "None"
    },
    {
      "id": "313",
      "country": "China",
      "name": "Huaibei",
      "latitude": 33.9549,
      "longitude": 116.7929,
      "base_risk": 9.23,
      "rain_6h_mm": 0.0,
      "humidity_avg": 96.8,
      "soil_moisture_avg": 0.0,
      "rain_mult": 0.0,
      "soil_mult": 0.95,
      "humidity_mult": 1.048,
      "raw_dynamic_score": 0.0,
      "dynamic_level": "None"
    },
    {
      "id": "314",
      "country": "China",
      "name": "Huaihua",
      "latitude": 27.5494,
      "longitude": 109.9592,
      "base_risk": 9.44,
      "rain_6h_mm": 0.0,
      "humidity_avg": 87.7,
      "soil_moisture_avg": 0.0,
      "rain_mult": 0.0,
      "soil_mult": 0.95,
      "humidity_mult": 1.044,
      "raw_dynamic_score": 0.0,
      "dynamic_level": "None"
    },
    {
      "id": "315",
      "country": "China",
      "name": "Huainan",
      "latitude": 32.6264,
      "longitude": 116.9969,
      "base_risk": 9.11,
      "rain_6h_mm": 0.0,
      "humidity_avg": 93.0,
      "soil_moisture_avg": 0.0,
      "rain_mult": 0.0,
      "soil_mult": 0.95,
      "humidity_mult": 1.046,
      "raw_dynamic_score": 0.0,
      "dynamic_level": "None"
    },
    {
      "id": "316",
      "country": "China",
      "name": "Huangshan",
      "latitude": 29.7127,
      "longitude": 118.3225,
      "base_risk": 9.05,
      "rain_6h_mm": 1.7,
      "humidity_avg": 92.3,
      "soil_moisture_avg": 0.0,
      "rain_mult": 0.017,
      "soil_mult": 0.95,
      "humidity_mult": 1.046,
      "raw_dynamic_score": 0.153,
      "dynamic_level": "Low"
    },
    {
      "id": "317",
      "country": "China",
      "name": "Huangshi",
      "latitude": 30.2068,
      "longitude": 115.0855,
      "base_risk": 9.45,
      "rain_6h_mm": 0.7,
      "humidity_avg": 90.5,
      "soil_moisture_avg": 0.0,
      "rain_mult": 0.007,
      "soil_mult": 0.95,
      "humidity_mult": 1.045,
      "raw_dynamic_score": 0.066,
      "dynamic_level": "Low"
    },
    {
      "id": "323",
      "country": "China",
      "name": "Jiamusi",
      "latitude": 46.7979,
      "longitude": 130.3302,
      "base_risk": 9.05,
      "rain_6h_mm": 0.0,
      "humidity_avg": 92.5,
      "soil_moisture_avg": 0.0,
      "rain_mult": 0.0,
      "soil_mult": 0.95,
      "humidity_mult": 1.046,
      "raw_dynamic_score": 0.0,
      "dynamic_level": "None"
    },
    {
      "id": "324",
      "country": "China",
      "name": "Ji'an, Jiangxi",
      "latitude": 27.1177,
      "longitude": 114.9804,
      "base_risk": 9.24,
      "rain_6h_mm": 0.0,
      "humidity_avg": 88.5,
      "soil_moisture_avg": 0.0,
      "rain_mult": 0.0,
      "soil_mult": 0.95,
      "humidity_mult": 1.044,
      "raw_dynamic_score": 0.0,
      "dynamic_level": "None"
    },
    {
      "id": "325",
      "country": "China",
      "name": "Jiangmen",
      "latitude": 22.5833,
      "longitude": 113.0833,
      "base_risk": 9.07,
      "rain_6h_mm": 0.0,
      "humidity_avg": 88.0,
      "soil_moisture_avg": 0.0,
      "rain_mult": 0.0,
      "soil_mult": 0.95,
      "humidity_mult": 1.044,
      "raw_dynamic_score": 0.0,
      "dynamic_level": "None"
    },
    {
      "id": "326",
      "country": "China",
      "name": "Jiangyin",
      "latitude": 31.9157,
      "longitude": 120.281,
      "base_risk": 9.09,
      "rain_6h_mm": 0.0,
      "humidity_avg": 89.2,
      "soil_moisture_avg": 0.0,
      "rain_mult": 0.0,
      "soil_mult": 0.95,
      "humidity_mult": 1.045,
      "raw_dynamic_score": 0.0,
      "dynamic_level": "None"
    },
    {
      "id": "327",
      "country": "China",
      "name": "Jianyang",
      "latitude": 30.3921,
      "longitude": 104.5448,
      "base_risk": 9.39,
      "rain_6h_mm": 0.0,
      "humidity_avg": 83.5,
      "soil_moisture_avg": 0.0,
      "rain_mult": 0.0,
      "soil_mult": 0.95,
      "humidity_mult": 1.042,
      "raw_dynamic_score": 0.0,
      "dynamic_level": "None"
    },
    {
      "id": "332",
      "country": "China",
      "name": "Jieyang",
      "latitude": 23.5526,
      "longitude": 116.3721,
      "base_risk": 9.28,
      "rain_6h_mm": 0.0,
      "humidity_avg": 88.8,
      "soil_moisture_avg": 0.0,
      "rain_mult": 0.0,
      "soil_mult": 0.95,
      "humidity_mult": 1.044,
      "raw_dynamic_score": 0.0,
      "dynamic_level": "None"
    },
    {
      "id": "333",
      "country": "China",
      "name": "Jilin",
      "latitude": 43.8508,
      "longitude": 126.5603,
      "base_risk": 9.16,
      "rain_6h_mm": 0.0,
      "humidity_avg": 88.7,
      "soil_moisture_avg": 0.0,
      "rain_mult": 0.0,
      "soil_mult": 0.95,
      "humidity_mult": 1.044,
      "raw_dynamic_score": 0.0,
      "dynamic_level": "None"
    },
    {
      "id": "334",
      "country": "China",
      "name": "Ji'nan, Shandong",
      "latitude": 36.6767,
      "longitude": 116.9971,
      "base_risk": 9.3,
      "rain_6h_mm": 0.0,
      "humidity_avg": 96.2,
      "soil_moisture_avg": 0.0,
      "rain_mult": 0.0,
      "soil_mult": 0.95,
      "humidity_mult": 1.048,
      "raw_dynamic_score": 0.0,
      "dynamic_level": "None"
    },
    {
      "id": "335",
      "country": "China",
      "name": "Jincheng",
      "latitude": 35.4865,
      "longitude": 112.8515,
      "base_risk": 9.38,
      "rain_6h_mm": 0.0,
      "humidity_avg": 81.5,
      "soil_moisture_avg": 0.0,
      "rain_mult": 0.0,
      "soil_mult": 0.95,
      "humidity_mult": 1.041,
      "raw_dynamic_score": 0.0,
      "dynamic_level": "None"
    },
    {
      "id": "336",
      "country": "China",
      "name": "Jingdezhen",
      "latitude": 29.2947,
      "longitude": 117.2079,
      "base_risk": 9.23,
      "rain_6h_mm": 0.9,
      "humidity_avg": 89.3,
      "soil_moisture_avg": 0.0,
      "rain_mult": 0.009,
      "soil_mult": 0.95,
      "humidity_mult": 1.045,
      "raw_dynamic_score": 0.082,
      "dynamic_level": "Low"
    },
    {
      "id": "342",
      "country": "China",
      "name": "Jinjiang",
      "latitude": 24.8106,
      "longitude": 118.5773,
      "base_risk": 9.08,
      "rain_6h_mm": 0.0,
      "humidity_avg": 75.5,
      "soil_moisture_avg": 0.0,
      "rain_mult": 0.0,
      "soil_mult": 0.95,
      "humidity_mult": 1.038,
      "raw_dynamic_score": 0.0,
      "dynamic_level": "None"
    },
    {
      "id": "343",
      "country": "China",
      "name": "Jinzhong",
      "latitude": 37.6882,
      "longitude": 112.7349,
      "base_risk": 8.96,
      "rain_6h_mm": 0.0,
      "humidity_avg": 68.8,
      "soil_moisture_avg": 0.0,
      "rain_mult": 0.0,
      "soil_mult": 0.95,
      "humidity_mult": 1.034,
      "raw_dynamic_score": 0.0,
      "dynamic_level": "None"
    },
    {
      "id": "344",
      "country": "China",
      "name": "Jinzhou",
      "latitude": 41.1078,
      "longitude": 121.1417,
      "base_risk": 9.47,
      "rain_6h_mm": 0.0,
      "humidity_avg": 72.8,
      "soil_moisture_avg": 0.0,
      "rain_mult": 0.0,
      "soil_mult": 0.95,
      "humidity_mult": 1.036,
      "raw_dynamic_score": 0.0,
      "dynamic_level": "None"
    },
    {
      "id": "345",
      "country": "China",
      "name": "Jiujiang",
      "latitude": 29.7041,
      "longitude": 116.0013,
      "base_risk": 8.61,
      "rain_6h_mm": 4.3,
      "humidity_avg": 95.2,
      "soil_moisture_avg": 0.0,
      "rain_mult": 0.043,
      "soil_mult": 0.95,
      "humidity_mult": 1.048,
      "raw_dynamic_score": 0.368,
      "dynamic_level": "Low"
    },
    {
      "id": "351",
      "country": "China",
      "name": "Kaili",
      "latitude": 26.5834,
      "longitude": 107.9719,
      "base_risk": 9.49,
      "rain_6h_mm": 3.7,
      "humidity_avg": 90.5,
      "soil_moisture_avg": 0.0,
      "rain_mult": 0.037,
      "soil_mult": 0.95,
      "humidity_mult": 1.045,
      "raw_dynamic_score": 0.349,
      "dynamic_level": "Low"
    },
    {
      "id": "352",
      "country": "China",
      "name": "Kaiping",
      "latitude": 22.3724,
      "longitude": 112.7026,
      "base_risk": 9.24,
      "rain_6h_mm": 0.0,
      "humidity_avg": 92.8,
      "soil_moisture_avg": 0.0,
      "rain_mult": 0.0,
      "soil_mult": 0.95,
      "humidity_mult": 1.046,
      "raw_dynamic_score": 0.0,
      "dynamic_level": "None"
    },
    {
      "id": "353",
      "country": "China",
      "name": "Kelamayi",
      "latitude": 45.5941,
      "longitude": 84.8729,
      "base_risk": 9.23,
      "rain_6h_mm": 0.0,
      "humidity_avg": 67.0,
      "soil_moisture_avg": 0.0,
      "rain_mult": 0.0,
      "soil_mult": 0.95,
      "humidity_mult": 1.034,
      "raw_dynamic_score": 0.0,
      "dynamic_level": "None"
    },
    {
      "id": "354",
      "country": "China",
      "name": "Kuerle",
      "latitude": 41.7646,
      "longitude": 86.1472,
      "base_risk": 9.37,
      "rain_6h_mm": 0.0,
      "humidity_avg": 63.3,
      "soil_moisture_avg": 0.0,
      "rain_mult": 0.0,
      "soil_mult": 0.95,
      "humidity_mult": 1.032,
      "raw_dynamic_score": 0.0,
      "dynamic_level": "None"
    },
    {
      "id": "355",
      "country": "China",
      "name": "Kunming",
      "latitude": 25.0389,
      "longitude": 102.7183,
      "base_risk": 9.25,
      "rain_6h_mm": 16.3,
      "humidity_avg": 96.5,
      "soil_moisture_avg": 0.0,
      "rain_mult": 0.163,
      "soil_mult": 0.95,
      "humidity_mult": 1.048,
      "raw_dynamic_score": 1.501,
      "dynamic_level": "Low"
    },
    {
      "id": "361",
      "country": "China",
      "name": "Laizhou",
      "latitude": 37.1797,
      "longitude": 119.943,
      "base_risk": 9.32,
      "rain_6h_mm": 0.0,
      "humidity_avg": 96.0,
      "soil_moisture_avg": 0.0,
      "rain_mult": 0.0,
      "soil_mult": 0.95,
      "humidity_mult": 1.048,
      "raw_dynamic_score": 0.0,
      "dynamic_level": "None"
    },
    {
      "id": "362",
      "country": "China",
      "name": "Langfang",
      "latitude": 39.5097,
      "longitude": 116.6947,
      "base_risk": 8.99,
      "rain_6h_mm": 0.0,
      "humidity_avg": 78.5,
      "soil_moisture_avg": 0.0,
      "rain_mult": 0.0,
      "soil_mult": 0.95,
      "humidity_mult": 1.039,
      "raw_dynamic_score": 0.0,
      "dynamic_level": "None"
    },
    {
      "id": "363",
      "country": "China",
      "name": "Lanzhou",
      "latitude": 36.0564,
      "longitude": 103.7922,
      "base_risk": 9.02,
      "rain_6h_mm": 0.0,
      "humidity_avg": 83.8,
      "soil_moisture_avg": 0.0,
      "rain_mult": 0.0,
      "soil_mult": 0.95,
      "humidity_mult": 1.042,
      "raw_dynamic_score": 0.0,
      "dynamic_level": "None"
    },
    {
      "id": "364",
      "country": "China",
      "name": "Leiyang",
      "latitude": 26.4169,
      "longitude": 112.8503,
      "base_risk": 9.21,
      "rain_6h_mm": 0.0,
      "humidity_avg": 92.8,
      "soil_moisture_avg": 0.0,
      "rain_mult": 0.0,
      "soil_mult": 0.95,
      "humidity_mult": 1.046,
      "raw_dynamic_score": 0.0,
      "dynamic_level": "None"
    },
    {
      "id": "365",
      "country": "China",
      "name": "Lengshuijiang",
      "latitude": 27.6879,
      "longitude": 111.4374,
      "base_risk": 9.24,
      "rain_6h_mm": 0.0,
      "humidity_avg": 90.5,
      "soil_moisture_avg": 0.0,
      "rain_mult": 0.0,
      "soil_mult": 0.95,
      "humidity_mult": 1.045,
      "raw_dynamic_score": 0.0,
      "dynamic_level": "None"
    },
    {
      "id": "371",
      "country": "China",
      "name": "Liaoyuan",
      "latitude": 42.9036,
      "longitude": 125.1358,
      "base_risk": 9.0,
      "rain_6h_mm": 0.7,
      "humidity_avg": 92.0,
      "soil_moisture_avg": 0.0,
      "rain_mult": 0.007,
      "soil_mult": 0.95,
      "humidity_mult": 1.046,
      "raw_dynamic_score": 0.063,
      "dynamic_level": "Low"
    },
    {
      "id": "372",
      "country": "China",
      "name": "Liling",
      "latitude": 27.6667,
      "longitude": 113.5,
      "base_risk": 9.43,
      "rain_6h_mm": 0.0,
      "humidity_avg": 95.5,
      "soil_moisture_avg": 0.0,
      "rain_mult": 0.0,
      "soil_mult": 0.95,
      "humidity_mult": 1.048,
      "raw_dynamic_score": 0.0,
      "dynamic_level": "None"
    },
    {
      "id": "373",
      "country": "China",
      "name": "Linfen",
      "latitude": 36.0889,
      "longitude": 111.5189,
      "base_risk": 9.39,
      "rain_6h_mm": 0.0,
      "humidity_avg": 65.3,
      "soil_moisture_avg": 0.0,
      "rain_mult": 0.0,
      "soil_mult": 0.95,
      "humidity_mult": 1.033,
      "raw_dynamic_score": 0.0,
      "dynamic_level": "None"
    },
    {
      "id": "374",
      "country": "China",
      "name": "Linhai",
      "latitude": 28.8529,
      "longitude": 121.1403,
      "base_risk": 9.13,
      "rain_6h_mm": 3.3,
      "humidity_avg": 94.7,
      "soil_moisture_avg": 0.0,
      "rain_mult": 0.033,
      "soil_mult": 0.95,
      "humidity_mult": 1.047,
      "raw_dynamic_score": 0.3,
      "dynamic_level": "Low"
    },
    {
      "id": "375",
      "country": "China",
      "name": "Linqing",
      "latitude": 36.8456,
      "longitude": 115.7117,
      "base_risk": 9.39,
      "rain_6h_mm": 0.0,
      "humidity_avg": 95.3,
      "soil_moisture_avg": 0.0,
      "rain_mult": 0.0,
      "soil_mult": 0.95,
      "humidity_mult": 1.048,
      "raw_dynamic_score": 0.0,
      "dynamic_level": "None"
    },
    {
      "id": "381",
      "country": "China",
      "name": "Liuyang",
      "latitude": 28.15,
      "longitude": 113.6333,
      "base_risk": 9.29,
      "rain_6h_mm": 0.4,
      "humidity_avg": 96.0,
      "soil_moisture_avg": 0.0,
      "rain_mult": 0.004,
      "soil_mult": 0.95,
      "humidity_mult": 1.048,
      "raw_dynamic_score": 0.037,
      "dynamic_level": "Low"
    },
    {
      "id": "382",
      "country": "China",
      "name": "Liuzhou",
      "latitude": 24.3017,
      "longitude": 109.3784,
      "base_risk": 8.76,
      "rain_6h_mm": 0.0,
      "humidity_avg": 85.0,
      "soil_moisture_avg": 0.0,
      "rain_mult": 0.0,
      "soil_mult": 0.95,
      "humidity_mult": 1.042,
      "raw_dynamic_score": 0.0,
      "dynamic_level": "None"
    },
    {
      "id": "383",
      "country": "China",
      "name": "Liyang",
      "latitude": 31.423,
      "longitude": 119.4837,
      "base_risk": 9.21,
      "rain_6h_mm": 0.0,
      "humidity_avg": 90.7,
      "soil_moisture_avg": 0.0,
      "rain_mult": 0.0,
      "soil_mult": 0.95,
      "humidity_mult": 1.045,
      "raw_dynamic_score": 0.0,
      "dynamic_level": "None"
    },
    {
      "id": "384",
      "country": "China",
      "name": "Longchang",
      "latitude": 29.3394,
      "longitude": 105.2876,
      "base_risk": 9.36,
      "rain_6h_mm": 0.1,
      "humidity_avg": 84.8,
      "soil_moisture_avg": 0.0,
      "rain_mult": 0.001,
      "soil_mult": 0.95,
      "humidity_mult": 1.042,
      "raw_dynamic_score": 0.009,
      "dynamic_level": "Low"
    },
    {
      "id": "385",
      "country": "China",
      "name": "Longhai",
      "latitude": 24.4462,
      "longitude": 117.809,
      "base_risk": 9.37,
      "rain_6h_mm": 0.0,
      "humidity_avg": 86.3,
      "soil_moisture_avg": 0.0,
      "rain_mult": 0.0,
      "soil_mult": 0.95,
      "humidity_mult": 1.043,
      "raw_dynamic_score": 0.0,
      "dynamic_level": "None"
    },
    {
      "id": "389",
      "country": "China",
      "name": "Luoding",
      "latitude": 22.7708,
      "longitude": 111.566,
      "base_risk": 9.41,
      "rain_6h_mm": 0.0,
      "humidity_avg": 94.7,
      "soil_moisture_avg": 0.0,
      "rain_mult": 0.0,
      "soil_mult": 0.95,
      "humidity_mult": 1.047,
      "raw_dynamic_score": 0.0,
      "dynamic_level": "None"
    },
    {
      "id": "390",
      "country": "China",
      "name": "Luohe",
      "latitude": 33.5731,
      "longitude": 114.0241,
      "base_risk": 9.13,
      "rain_6h_mm": 0.0,
      "humidity_avg": 95.0,
      "soil_moisture_avg": 0.0,
      "rain_mult": 0.0,
      "soil_mult": 0.95,
      "humidity_mult": 1.048,
      "raw_dynamic_score": 0.0,
      "dynamic_level": "None"
    },
    {
      "id": "394",
      "country": "China",
      "name": "Ma'anshan",
      "latitude": 31.7071,
      "longitude": 118.5038,
      "base_risk": 9.18,
      "rain_6h_mm": 0.0,
      "humidity_avg": 88.5,
      "soil_moisture_avg": 0.0,
      "rain_mult": 0.0,
      "soil_mult": 0.95,
      "humidity_mult": 1.044,
      "raw_dynamic_score": 0.0,
      "dynamic_level": "None"
    },
    {
      "id": "395",
      "country": "China",
      "name": "Macheng",
      "latitude": 31.1783,
      "longitude": 115.0319,
      "base_risk": 9.26,
      "rain_6h_mm": 0.0,
      "humidity_avg": 87.5,
      "soil_moisture_avg": 0.0,
      "rain_mult": 0.0,
      "soil_mult": 0.95,
      "humidity_mult": 1.044,
      "raw_dynamic_score": 0.0,
      "dynamic_level": "None"
    },
    {
      "id": "399",
      "country": "China",
      "name": "Meizhou",
      "latitude": 24.2989,
      "longitude": 116.1214,
      "base_risk": 9.45,
      "rain_6h_mm": 0.0,
      "humidity_avg": 82.0,
      "soil_moisture_avg": 0.0,
      "rain_mult": 0.0,
      "soil_mult": 0.95,
      "humidity_mult": 1.041,
      "raw_dynamic_score": 0.0,
      "dynamic_level": "None"
    },
    {
      "id": "400",
      "country": "China",
      "name": "Mianyang, Sichuan",
      "latitude": 31.4839,
      "longitude": 104.737,
      "base_risk": 9.43,
      "rain_6h_mm": 0.0,
      "humidity_avg": 94.0,
      "soil_moisture_avg": 0.0,
      "rain_mult": 0.0,
      "soil_mult": 0.95,
      "humidity_mult": 1.047,
      "raw_dynamic_score": 0.0,
      "dynamic_level": "None"
    },
    {
      "id": "401",
      "country": "China",
      "name": "Miluo",
      "latitude": 28.8069,
      "longitude": 113.0721,
      "base_risk": 8.82,
      "rain_6h_mm": 6.5,
      "humidity_avg": 92.7,
      "soil_moisture_avg": 0.0,
      "rain_mult": 0.065,
      "soil_mult": 0.95,
      "humidity_mult": 1.046,
      "raw_dynamic_score": 0.57,
      "dynamic_level": "Low"
    },
    {
      "id": "402",
      "country": "China",
      "name": "Mudanjiang",
      "latitude": 44.5833,
      "longitude": 129.6,
      "base_risk": 9.45,
      "rain_6h_mm": 0.0,
      "humidity_avg": 94.8,
      "soil_moisture_avg": 0.0,
      "rain_mult": 0.0,
      "soil_mult": 0.95,
      "humidity_mult": 1.047,
      "raw_dynamic_score": 0.0,
      "dynamic_level": "None"
    },
    {
      "id": "403",
      "country": "China",
      "name": "Nanchang",
      "latitude": 28.6833,
      "longitude": 115.8833,
      "base_risk": 9.47,
      "rain_6h_mm": 0.6,
      "humidity_avg": 87.2,
      "soil_moisture_avg": 0.0,
      "rain_mult": 0.006,
      "soil_mult": 0.95,
      "humidity_mult": 1.044,
      "raw_dynamic_score": 0.056,
      "dynamic_level": "Low"
    },
    {
      "id": "407",
      "country": "China",
      "name": "Nanning",
      "latitude": 22.8167,
      "longitude": 108.3167,
      "base_risk": 9.5,
      "rain_6h_mm": 3.1,
      "humidity_avg": 94.2,
      "soil_moisture_avg": 0.0,
      "rain_mult": 0.031,
      "soil_mult": 0.95,
      "humidity_mult": 1.047,
      "raw_dynamic_score": 0.293,
      "dynamic_level": "Low"
    },
    {
      "id": "409",
      "country": "China",
      "name": "Nantong",
      "latitude": 31.9904,
      "longitude": 120.8655,
      "base_risk": 8.72,
      "rain_6h_mm": 0.0,
      "humidity_avg": 88.8,
      "soil_moisture_avg": 0.0,
      "rain_mult": 0.0,
      "soil_mult": 0.95,
      "humidity_mult": 1.044,
      "raw_dynamic_score": 0.0,
      "dynamic_level": "None"
    },
    {
      "id": "411",
      "country": "China",
      "name": "Neijiang",
      "latitude": 29.5835,
      "longitude": 105.0622,
      "base_risk": 9.49,
      "rain_6h_mm": 0.0,
      "humidity_avg": 93.7,
      "soil_moisture_avg": 0.0,
      "rain_mult": 0.0,
      "soil_mult": 0.95,
      "humidity_mult": 1.047,
      "raw_dynamic_score": 0.0,
      "dynamic_level": "None"
    },
    {
      "id": "414",
      "country": "China",
      "name": "Ningguo",
      "latitude": 30.6209,
      "longitude": 118.9796,
      "base_risk": 9.37,
      "rain_6h_mm": 0.0,
      "humidity_avg": 93.2,
      "soil_moisture_avg": 0.0,
      "rain_mult": 0.0,
      "soil_mult": 0.95,
      "humidity_mult": 1.047,
      "raw_dynamic_score": 0.0,
      "dynamic_level": "None"
    },
    {
      "id": "415",
      "country": "China",
      "name": "Panjin",
      "latitude": 41.1219,
      "longitude": 122.0701,
      "base_risk": 9.4,
      "rain_6h_mm": 0.0,
      "humidity_avg": 77.7,
      "soil_moisture_avg": 0.0,
      "rain_mult": 0.0,
      "soil_mult": 0.95,
      "humidity_mult": 1.039,
      "raw_dynamic_score": 0.0,
      "dynamic_level": "None"
    },
    {
      "id": "416",
      "country": "China",
      "name": "Panzhihua",
      "latitude": 26.5851,
      "longitude": 101.7128,
      "base_risk": 9.15,
      "rain_6h_mm": 0.0,
      "humidity_avg": 84.2,
      "soil_moisture_avg": 0.0,
      "rain_mult": 0.0,
      "soil_mult": 0.95,
      "humidity_mult": 1.042,
      "raw_dynamic_score": 0.0,
      "dynamic_level": "None"
    },
    {
      "id": "421",
      "country": "China",
      "name": "Pingxiang, Jiangxi",
      "latitude": 27.6348,
      "longitude": 113.8477,
      "base_risk": 9.5,
      "rain_6h_mm": 0.4,
      "humidity_avg": 95.2,
      "soil_moisture_avg": 0.0,
      "rain_mult": 0.004,
      "soil_mult": 0.95,
      "humidity_mult": 1.048,
      "raw_dynamic_score": 0.038,
      "dynamic_level": "Low"
    },
    {
      "id": "422",
      "country": "China",
      "name": "Pizhou",
      "latitude": 34.3114,
      "longitude": 117.9503,
      "base_risk": 9.42,
      "rain_6h_mm": 0.0,
      "humidity_avg": 95.7,
      "soil_moisture_avg": 0.0,
      "rain_mult": 0.0,
      "soil_mult": 0.95,
      "humidity_mult": 1.048,
      "raw_dynamic_score": 0.0,
      "dynamic_level": "None"
    },
    {
      "id": "423",
      "country": "China",
      "name": "Puning",
      "latitude": 23.2967,
      "longitude": 116.1647,
      "base_risk": 9.4,
      "rain_6h_mm": 0.0,
      "humidity_avg": 93.8,
      "soil_moisture_avg": 0.0,
      "rain_mult": 0.0,
      "soil_mult": 0.95,
      "humidity_mult": 1.047,
      "raw_dynamic_score": 0.0,
      "dynamic_level": "None"
    },
    {
      "id": "424",
      "country": "China",
      "name": "Putian",
      "latitude": 25.4394,
      "longitude": 119.0103,
      "base_risk": 9.12,
      "rain_6h_mm": 0.0,
      "humidity_avg": 81.2,
      "soil_moisture_avg": 0.0,
      "rain_mult": 0.0,
      "soil_mult": 0.95,
      "humidity_mult": 1.041,
      "raw_dynamic_score": 0.0,
      "dynamic_level": "None"
    },
    {
      "id": "425",
      "country": "China",
      "name": "Puyang",
      "latitude": 35.7705,
      "longitude": 115.0438,
      "base_risk": 9.13,
      "rain_6h_mm": 0.0,
      "humidity_avg": 97.0,
      "soil_moisture_avg": 0.0,
      "rain_mult": 0.0,
      "soil_mult": 0.95,
      "humidity_mult": 1.048,
      "raw_dynamic_score": 0.0,
      "dynamic_level": "None"
    },
    {
      "id": "430",
      "country": "China",
      "name": "Qingzhou",
      "latitude": 36.6845,
      "longitude": 118.4796,
      "base_risk": 9.26,
      "rain_6h_mm": 0.0,
      "humidity_avg": 84.5,
      "soil_moisture_avg": 0.0,
      "rain_mult": 0.0,
      "soil_mult": 0.95,
      "humidity_mult": 1.042,
      "raw_dynamic_score": 0.0,
      "dynamic_level": "None"
    },
    {
      "id": "431",
      "country": "China",
      "name": "Qinhuangdao",
      "latitude": 39.9317,
      "longitude": 119.5883,
      "base_risk": 9.2,
      "rain_6h_mm": 0.0,
      "humidity_avg": 86.2,
      "soil_moisture_avg": 0.0,
      "rain_mult": 0.0,
      "soil_mult": 0.95,
      "humidity_mult": 1.043,
      "raw_dynamic_score": 0.0,
      "dynamic_level": "None"
    },
    {
      "id": "432",
      "country": "China",
      "name": "Qinzhou",
      "latitude": 21.9681,
      "longitude": 108.6214,
      "base_risk": 8.82,
      "rain_6h_mm": 2.7,
      "humidity_avg": 94.7,
      "soil_moisture_avg": 0.0,
      "rain_mult": 0.027,
      "soil_mult": 0.95,
      "humidity_mult": 1.047,
      "raw_dynamic_score": 0.237,
      "dynamic_level": "Low"
    },
    {
      "id": "433",
      "country": "China",
      "name": "Qiqihaer",
      "latitude": 47.3408,
      "longitude": 123.9672,
      "base_risk": 9.01,
      "rain_6h_mm": 0.0,
      "humidity_avg": 79.2,
      "soil_moisture_avg": 0.0,
      "rain_mult": 0.0,
      "soil_mult": 0.95,
      "humidity_mult": 1.04,
      "raw_dynamic_score": 0.0,
      "dynamic_level": "None"
    },
    {
      "id": "439",
      "country": "China",
      "name": "Renqiu",
      "latitude": 38.6989,
      "longitude": 116.0936,
      "base_risk": 9.46,
      "rain_6h_mm": 0.0,
      "humidity_avg": 82.0,
      "soil_moisture_avg": 0.0,
      "rain_mult": 0.0,
      "soil_mult": 0.95,
      "humidity_mult": 1.041,
      "raw_dynamic_score": 0.0,
      "dynamic_level": "None"
    },
    {
      "id": "440",
      "country": "China",
      "name": "Rizhao",
      "latitude": 35.4034,
      "longitude": 119.512,
      "base_risk": 9.46,
      "rain_6h_mm": 0.0,
      "humidity_avg": 94.0,
      "soil_moisture_avg": 0.0,
      "rain_mult": 0.0,
      "soil_mult": 0.95,
      "humidity_mult": 1.047,
      "raw_dynamic_score": 0.0,
      "dynamic_level": "None"
    },
    {
      "id": "441",
      "country": "China",
      "name": "Rongcheng",
      "latitude": 37.154,
      "longitude": 122.4363,
      "base_risk": 9.41,
      "rain_6h_mm": 0.0,
      "humidity_avg": 88.8,
      "soil_moisture_avg": 0.0,
      "rain_mult": 0.0,
      "soil_mult": 0.95,
      "humidity_mult": 1.044,
      "raw_dynamic_score": 0.0,
      "dynamic_level": "None"
    },
    {
      "id": "442",
      "country": "China",
      "name": "Rugao",
      "latitude": 32.3977,
      "longitude": 120.5604,
      "base_risk": 9.42,
      "rain_6h_mm": 0.0,
      "humidity_avg": 91.0,
      "soil_moisture_avg": 0.0,
      "rain_mult": 0.0,
      "soil_mult": 0.95,
      "humidity_mult": 1.046,
      "raw_dynamic_score": 0.0,
      "dynamic_level": "None"
    },
    {
      "id": "443",
      "country": "China",
      "name": "Ruian",
      "latitude": 27.7808,
      "longitude": 120.6755,
      "base_risk": 9.08,
      "rain_6h_mm": 0.7,
      "humidity_avg": 90.5,
      "soil_moisture_avg": 0.0,
      "rain_mult": 0.007,
      "soil_mult": 0.95,
      "humidity_mult": 1.045,
      "raw_dynamic_score": 0.063,
      "dynamic_level": "Low"
    },
    {
      "id": "449",
      "country": "China",
      "name": "Shanghai",
      "latitude": 31.2222,
      "longitude": 121.4581,
      "base_risk": 8.76,
      "rain_6h_mm": 0.0,
      "humidity_avg": 88.0,
      "soil_moisture_avg": 0.0,
      "rain_mult": 0.0,
      "soil_mult": 0.95,
      "humidity_mult": 1.044,
      "raw_dynamic_score": 0.0,
      "dynamic_level": "None"
    },
    {
      "id": "450",
      "country": "China",
      "name": "Shangqiu",
      "latitude": 34.4244,
      "longitude": 115.6514,
      "base_risk": 8.85,
      "rain_6h_mm": 0.0,
      "humidity_avg": 96.8,
      "soil_moisture_avg": 0.0,
      "rain_mult": 0.0,
      "soil_mult": 0.95,
      "humidity_mult": 1.048,
      "raw_dynamic_score": 0.0,
      "dynamic_level": "None"
    },
    {
      "id": "451",
      "country": "China",
      "name": "Shangrao",
      "latitude": 28.4604,
      "longitude": 117.9531,
      "base_risk": 9.2,
      "rain_6h_mm": 1.2,
      "humidity_avg": 92.7,
      "soil_moisture_avg": 0.0,
      "rain_mult": 0.012,
      "soil_mult": 0.95,
      "humidity_mult": 1.046,
      "raw_dynamic_score": 0.11,
      "dynamic_level": "Low"
    },
    {
      "id": "452",
      "country": "China",
      "name": "Shangyu",
      "latitude": 30.0311,
      "longitude": 120.8722,
      "base_risk": 9.11,
      "rain_6h_mm": 2.5,
      "humidity_avg": 91.2,
      "soil_moisture_avg": 0.0,
      "rain_mult": 0.025,
      "soil_mult": 0.95,
      "humidity_mult": 1.046,
      "raw_dynamic_score": 0.226,
      "dynamic_level": "Low"
    },
    {
      "id": "453",
      "country": "China",
      "name": "Shantou",
      "latitude": 23.3681,
      "longitude": 116.7148,
      "base_risk": 8.88,
      "rain_6h_mm": 0.0,
      "humidity_avg": 83.5,
      "soil_moisture_avg": 0.0,
      "rain_mult": 0.0,
      "soil_mult": 0.95,
      "humidity_mult": 1.042,
      "raw_dynamic_score": 0.0,
      "dynamic_level": "None"
    },
    {
      "id": "459",
      "country": "China",
      "name": "Shenmu",
      "latitude": 38.8341,
      "longitude": 110.4847,
      "base_risk": 9.2,
      "rain_6h_mm": 0.0,
      "humidity_avg": 71.3,
      "soil_moisture_avg": 0.0,
      "rain_mult": 0.0,
      "soil_mult": 0.95,
      "humidity_mult": 1.036,
      "raw_dynamic_score": 0.0,
      "dynamic_level": "None"
    },
    {
      "id": "460",
      "country": "China",
      "name": "Shenyang",
      "latitude": 41.7922,
      "longitude": 123.4328,
      "base_risk": 8.86,
      "rain_6h_mm": 0.0,
      "humidity_avg": 95.8,
      "soil_moisture_avg": 0.0,
      "rain_mult": 0.0,
      "soil_mult": 0.95,
      "humidity_mult": 1.048,
      "raw_dynamic_score": 0.0,
      "dynamic_level": "None"
    },
    {
      "id": "461",
      "country": "China",
      "name": "Shenzhen",
      "latitude": 22.5415,
      "longitude": 114.0634,
      "base_risk": 9.49,
      "rain_6h_mm": 0.0,
      "humidity_avg": 90.5,
      "soil_moisture_avg": 0.0,
      "rain_mult": 0.0,
      "soil_mult": 0.95,
      "humidity_mult": 1.045,
      "raw_dynamic_score": 0.0,
      "dynamic_level": "None"
    },
    {
      "id": "462",
      "country": "China",
      "name": "Shihezi",
      "latitude": 44.3075,
      "longitude": 86.032,
      "base_risk": 9.21,
      "rain_6h_mm": 0.0,
      "humidity_avg": 74.5,
      "soil_moisture_avg": 0.0,
      "rain_mult": 0.0,
      "soil_mult": 0.95,
      "humidity_mult": 1.037,
      "raw_dynamic_score": 0.0,
      "dynamic_level": "None"
    },
    {
      "id": "463",
      "country": "China",
      "name": "Shijiazhuang",
      "latitude": 38.0418,
      "longitude": 114.5108,
      "base_risk": 9.15,
      "rain_6h_mm": 0.0,
      "humidity_avg": 68.8,
      "soil_moisture_avg": 0.0,
      "rain_mult": 0.0,
      "soil_mult": 0.95,
      "humidity_mult": 1.034,
      "raw_dynamic_score": 0.0,
      "dynamic_level": "None"
    },
    {
      "id": "469",
      "country": "China",
      "name": "Shuozhou",
      "latitude": 39.3158,
      "longitude": 112.4225,
      "base_risk": 9.24,
      "rain_6h_mm": 0.0,
      "humidity_avg": 44.2,
      "soil_moisture_avg": 0.0,
      "rain_mult": 0.0,
      "soil_mult": 0.95,
      "humidity_mult": 1.022,
      "raw_dynamic_score": 0.0,
      "dynamic_level": "None"
    },
    {
      "id": "470",
      "country": "China",
      "name": "Sihui",
      "latitude": 23.3462,
      "longitude": 112.6958,
      "base_risk": 8.91,
      "rain_6h_mm": 0.0,
      "humidity_avg": 92.0,
      "soil_moisture_avg": 0.0,
      "rain_mult": 0.0,
      "soil_mult": 0.95,
      "humidity_mult": 1.046,
      "raw_dynamic_score": 0.0,
      "dynamic_level": "None"
    },
    {
      "id": "471",
      "country": "China",
      "name": "Siping",
      "latitude": 43.1633,
      "longitude": 124.3686,
      "base_risk": 9.4,
      "rain_6h_mm": 0.0,
      "humidity_avg": 93.8,
      "soil_moisture_avg": 0.0,
      "rain_mult": 0.0,
      "soil_mult": 0.95,
      "humidity_mult": 1.047,
      "raw_dynamic_score": 0.0,
      "dynamic_level": "None"
    },
    {
      "id": "472",
      "country": "China",
      "name": "Songyuan",
      "latitude": 27.6217,
      "longitude": 119.0592,
      "base_risk": 9.48,
      "rain_6h_mm": 0.5,
      "humidity_avg": 99.2,
      "soil_moisture_avg": 0.0,
      "rain_mult": 0.005,
      "soil_mult": 0.95,
      "humidity_mult": 1.05,
      "raw_dynamic_score": 0.047,
      "dynamic_level": "Low"
    },
    {
      "id": "473",
      "country": "China",
      "name": "Songzi",
      "latitude": 30.1736,
      "longitude": 111.7761,
      "base_risk": 8.74,
      "rain_6h_mm": 0.1,
      "humidity_avg": 89.0,
      "soil_moisture_avg": 0.0,
      "rain_mult": 0.001,
      "soil_mult": 0.95,
      "humidity_mult": 1.044,
      "raw_dynamic_score": 0.009,
      "dynamic_level": "Low"
    },
    {
      "id": "478",
      "country": "China",
      "name": "Suzhou, Anhui",
      "latitude": 33.6359,
      "longitude": 116.9747,
      "base_risk": 9.3,
      "rain_6h_mm": 0.0,
      "humidity_avg": 95.8,
      "soil_moisture_avg": 0.0,
      "rain_mult": 0.0,
      "soil_mult": 0.95,
      "humidity_mult": 1.048,
      "raw_dynamic_score": 0.0,
      "dynamic_level": "None"
    },
    {
      "id": "479",
      "country": "China",
      "name": "Suzhou, Jiangsu",
      "latitude": 31.3021,
      "longitude": 120.5853,
      "base_risk": 9.34,
      "rain_6h_mm": 0.0,
      "humidity_avg": 89.3,
      "soil_moisture_avg": 0.0,
      "rain_mult": 0.0,
      "soil_mult": 0.95,
      "humidity_mult": 1.045,
      "raw_dynamic_score": 0.0,
      "dynamic_level": "None"
    },
    {
      "id": "480",
      "country": "China",
      "name": "Taian, Shandong",
      "latitude": 36.1904,
      "longitude": 117.1191,
      "base_risk": 9.43,
      "rain_6h_mm": 0.0,
      "humidity_avg": 95.2,
      "soil_moisture_avg": 0.0,
      "rain_mult": 0.0,
      "soil_mult": 0.95,
      "humidity_mult": 1.048,
      "raw_dynamic_score": 0.0,
      "dynamic_level": "None"
    },
    {
      "id": "481",
      "country": "China",
      "name": "Taicang",
      "latitude": 31.4549,
      "longitude": 121.1172,
      "base_risk": 9.09,
      "rain_6h_mm": 0.0,
      "humidity_avg": 89.0,
      "soil_moisture_avg": 0.0,
      "rain_mult": 0.0,
      "soil_mult": 0.95,
      "humidity_mult": 1.044,
      "raw_dynamic_score": 0.0,
      "dynamic_level": "None"
    },
    {
      "id": "487",
      "country": "China",
      "name": "Tangshan, Hebei",
      "latitude": 39.6285,
      "longitude": 118.1799,
      "base_risk": 8.71,
      "rain_6h_mm": 0.0,
      "humidity_avg": 95.2,
      "soil_moisture_avg": 0.0,
      "rain_mult": 0.0,
      "soil_mult": 0.95,
      "humidity_mult": 1.048,
      "raw_dynamic_score": 0.0,
      "dynamic_level": "None"
    },
    {
      "id": "488",
      "country": "China",
      "name": "Tengzhou",
      "latitude": 35.0845,
      "longitude": 117.1624,
      "base_risk": 9.32,
      "rain_6h_mm": 0.0,
      "humidity_avg": 95.2,
      "soil_moisture_avg": 0.0,
      "rain_mult": 0.0,
      "soil_mult": 0.95,
      "humidity_mult": 1.048,
      "raw_dynamic_score": 0.0,
      "dynamic_level": "None"
    },
    {
      "id": "489",
      "country": "China",
      "name": "Tianjin",
      "latitude": 39.1088,
      "longitude": 117.1886,
      "base_risk": 8.93,
      "rain_6h_mm": 0.0,
      "humidity_avg": 85.0,
      "soil_moisture_avg": 0.0,
      "rain_mult": 0.0,
      "soil_mult": 0.95,
      "humidity_mult": 1.042,
      "raw_dynamic_score": 0.0,
      "dynamic_level": "None"
    },
    {
      "id": "490",
      "country": "China",
      "name": "Tianmen",
      "latitude": 30.6534,
      "longitude": 113.1605,
      "base_risk": 9.42,
      "rain_6h_mm": 0.0,
      "humidity_avg": 87.3,
      "soil_moisture_avg": 0.0,
      "rain_mult": 0.0,
      "soil_mult": 0.95,
      "humidity_mult": 1.044,
      "raw_dynamic_score": 0.0,
      "dynamic_level": "None"
    },
    {
      "id": "491",
      "country": "China",
      "name": "Tianshui",
      "latitude": 34.5809,
      "longitude": 105.7237,
      "base_risk": 9.09,
      "rain_6h_mm": 0.0,
      "humidity_avg": 79.0,
      "soil_moisture_avg": 0.0,
      "rain_mult": 0.0,
      "soil_mult": 0.95,
      "humidity_mult": 1.04,
      "raw_dynamic_score": 0.0,
      "dynamic_level": "None"
    },
    {
      "id": "497",
      "country": "China",
      "name": "Tongling",
      "latitude": 30.9363,
      "longitude": 117.8109,
      "base_risk": 9.19,
      "rain_6h_mm": 0.0,
      "humidity_avg": 92.2,
      "soil_moisture_avg": 0.0,
      "rain_mult": 0.0,
      "soil_mult": 0.95,
      "humidity_mult": 1.046,
      "raw_dynamic_score": 0.0,
      "dynamic_level": "None"
    },
    {
      "id": "498",
      "country": "China",
      "name": "Tongxiang",
      "latitude": 30.6296,
      "longitude": 120.5536,
      "base_risk": 9.12,
      "rain_6h_mm": 0.0,
      "humidity_avg": 91.0,
      "soil_moisture_avg": 0.0,
      "rain_mult": 0.0,
      "soil_mult": 0.95,
      "humidity_mult": 1.046,
      "raw_dynamic_score": 0.0,
      "dynamic_level": "None"
    },
    {
      "id": "499",
      "country": "China",
      "name": "Ürümqi (Wulumqi)",
      "latitude": 43.8253,
      "longitude": 87.6038,
      "base_risk": 9.45,
      "rain_6h_mm": 0.0,
      "humidity_avg": 83.0,
      "soil_moisture_avg": 0.0,
      "rain_mult": 0.0,
      "soil_mult": 0.95,
      "humidity_mult": 1.042,
      "raw_dynamic_score": 0.0,
      "dynamic_level": "None"
    },
    {
      "id": "500",
      "country": "China",
      "name": "Wafangdian ",
      "latitude": 39.6267,
      "longitude": 121.9949,
      "base_risk": 9.05,
      "rain_6h_mm": 0.0,
      "humidity_avg": 89.2,
      "soil_moisture_avg": 0.0,
      "rain_mult": 0.0,
      "soil_mult": 0.95,
      "humidity_mult": 1.045,
      "raw_dynamic_score": 0.0,
      "dynamic_level": "None"
    },
    {
      "id": "501",
      "country": "China",
      "name": "Wanning",
      "latitude": 18.7955,
      "longitude": 110.3826,
      "base_risk": 9.33,
      "rain_6h_mm": 1.5,
      "humidity_avg": 93.3,
      "soil_moisture_avg": 0.0,
      "rain_mult": 0.015,
      "soil_mult": 0.95,
      "humidity_mult": 1.047,
      "raw_dynamic_score": 0.139,
      "dynamic_level": "Low"
    },
    {
      "id": "507",
      "country": "China",
      "name": "Wenzhou",
      "latitude": 27.9994,
      "longitude": 120.6668,
      "base_risk": 9.17,
      "rain_6h_mm": 2.5,
      "humidity_avg": 97.5,
      "soil_moisture_avg": 0.0,
      "rain_mult": 0.025,
      "soil_mult": 0.95,
      "humidity_mult": 1.049,
      "raw_dynamic_score": 0.228,
      "dynamic_level": "Low"
    },