{
  "timestamp": "2025-11-05T17:15:48.539338Z",
  "source": "Open-Meteo",
  "forecast_window_hours": 6,
  "features_evaluated": 940,
  "alerts": [
    {
      "id": "1",
      "country": "Afghanistan",
      "name": "Herat",
      "latitude": 34.3482,
      "longitude": 62.1997,
      "base_risk": 9.5,
      "rain_6h_mm": 0.0,
      "humidity_avg": 53.7,
      "soil_moisture_avg": 0.0,
      "rain_mult": 0.0,
      "soil_mult": 0.95,
      "humidity_mult": 1.027,
      "raw_dynamic_score": 0.0,
      "dynamic_level": "None"
    },
    {
      "id": "2",
      "country": "Afghanistan",
      "name": "Kabul",
      "latitude": 34.5289,
      "longitude": 69.1725,
      "base_risk": 9.13,
      "rain_6h_mm": 0.0,
      "humidity_avg": 8.3,
      "soil_moisture_avg": 0.0,
      "rain_mult": 0.0,
      "soil_mult": 0.95,
      "humidity_mult": 1.004,
      "raw_dynamic_score": 0.0,
      "dynamic_level": "None"
    },
    {
      "id": "3",
      "country": "Afghanistan",
      "name": "Kandahar",
      "latitude": 31.6133,
      "longitude": 65.7101,
      "base_risk": 9.39,
      "rain_6h_mm": 0.0,
      "humidity_avg": 21.8,
      "soil_moisture_avg": 0.0,
      "rain_mult": 0.0,
      "soil_mult": 0.95,
      "humidity_mult": 1.011,
      "raw_dynamic_score": 0.0,
      "dynamic_level": "None"
    },
    {
      "id": "4",
      "country": "Afghanistan",
      "name": "Mazar-e Sharif",
      "latitude": 36.709,
      "longitude": 67.1109,
      "base_risk": 9.23,
      "rain_6h_mm": 0.0,
      "humidity_avg": 77.8,
      "soil_moisture_avg": 0.0,
      "rain_mult": 0.0,
      "soil_mult": 0.95,
      "humidity_mult": 1.039,
      "raw_dynamic_score": 0.0,
      "dynamic_level": "None"
    },
    {
      "id": "9",
      "country": "Algeria",
      "name": "El Djazaïr  (Algiers)",
      "latitude": 36.7525,
      "longitude": 3.042,
      "base_risk": 9.41,
      "rain_6h_mm": 0.0,
      "humidity_avg": 71.2,
      "soil_moisture_avg": 0.0,
      "rain_mult": 0.0,
      "soil_mult": 0.95,
      "humidity_mult": 1.036,
      "raw_dynamic_score": 0.0,
      "dynamic_level": "None"
    },
    {
      "id": "10",
      "country": "Algeria",
      "name": "El Djelfa",
      "latitude": 34.6728,
      "longitude": 3.263,
      "base_risk": 9.18,
      "rain_6h_mm": 0.0,
      "humidity_avg": 40.3,
      "soil_moisture_avg": 0.0,
      "rain_mult": 0.0,
      "soil_mult": 0.95,
      "humidity_mult": 1.02,
      "raw_dynamic_score": 0.0,
      "dynamic_level": "None"
    },
    {
      "id": "11",
      "country": "Algeria",
      "name": "Qacentina",
      "latitude": 36.3549,
      "longitude": 6.6073,
      "base_risk": 9.09,
      "rain_6h_mm": 0.0,
      "humidity_avg": 48.8,
      "soil_moisture_avg": 0.0,
      "rain_mult": 0.0,
      "soil_mult": 0.95,
      "humidity_mult": 1.024,
      "raw_dynamic_score": 0.0,
      "dynamic_level": "None"
    },
    {
      "id": "12",
      "country": "Algeria",
      "name": "Sétif",
      "latitude": 36.1911,
      "longitude": 5.4137,
      "base_risk": 9.3,
      "rain_6h_mm": 0.0,
      "humidity_avg": 68.2,
      "soil_moisture_avg": 0.0,
      "rain_mult": 0.0,
      "soil_mult": 0.95,
      "humidity_mult": 1.034,
      "raw_dynamic_score": 0.0,
      "dynamic_level": "None"
    },
    {
      "id": "17",
      "country": "Angola",
      "name": "Huambo",
      "latitude": -12.7761,
      "longitude": 15.7392,
      "base_risk": 9.32,
      "rain_6h_mm": 3.9,
      "humidity_avg": 73.8,
      "soil_moisture_avg": 0.0,
      "rain_mult": 0.039,
      "soil_mult": 0.95,
      "humidity_mult": 1.037,
      "raw_dynamic_score": 0.358,
      "dynamic_level": "Low"
    },
    {
      "id": "18",
      "country": "Angola",
      "name": "Lobito",
      "latitude": -12.364,
      "longitude": 13.536,
      "base_risk": 9.25,
      "rain_6h_mm": 0.0,
      "humidity_avg": 86.5,
      "soil_moisture_avg": 0.0,
      "rain_mult": 0.0,
      "soil_mult": 0.95,
      "humidity_mult": 1.043,
      "raw_dynamic_score": 0.0,
      "dynamic_level": "None"
    },
    {
      "id": "19",
      "country": "Angola",
      "name": "Luanda",
      "latitude": -8.8368,
      "longitude": 13.2343,
      "base_risk": 9.5,
      "rain_6h_mm": 0.0,
      "humidity_avg": 80.8,
      "soil_moisture_avg": 0.0,
      "rain_mult": 0.0,
      "soil_mult": 0.95,
      "humidity_mult": 1.04,
      "raw_dynamic_score": 0.0,
      "dynamic_level": "None"
    },
    {
      "id": "20",
      "country": "Angola",
      "name": "Lubango",
      "latitude": -14.9172,
      "longitude": 13.4925,
      "base_risk": 9.15,
      "rain_6h_mm": 7.2,
      "humidity_avg": 78.2,
      "soil_moisture_avg": 0.0,
      "rain_mult": 0.072,
      "soil_mult": 0.95,
      "humidity_mult": 1.039,
      "raw_dynamic_score": 0.65,
      "dynamic_level": "Low"
    },
    {
      "id": "25",
      "country": "Argentina",
      "name": "Córdoba",
      "latitude": -31.4135,
      "longitude": -64.1811,
      "base_risk": 9.23,
      "rain_6h_mm": 0.0,
      "humidity_avg": 51.0,
      "soil_moisture_avg": 0.0,
      "rain_mult": 0.0,
      "soil_mult": 0.95,
      "humidity_mult": 1.026,
      "raw_dynamic_score": 0.0,
      "dynamic_level": "None"
    },
    {
      "id": "26",
      "country": "Argentina",
      "name": "Corrientes",
      "latitude": -27.4806,
      "longitude": -58.8341,
      "base_risk": 9.43,
      "rain_6h_mm": 0.0,
      "humidity_avg": 64.5,
      "soil_moisture_avg": 0.0,
      "rain_mult": 0.0,
      "soil_mult": 0.95,
      "humidity_mult": 1.032,
      "raw_dynamic_score": 0.0,
      "dynamic_level": "None"
    },
    {
      "id": "27",
      "country": "Argentina",
      "name": "La Plata",
      "latitude": -34.9215,
      "longitude": -57.9545,
      "base_risk": 9.39,
      "rain_6h_mm": 0.0,
      "humidity_avg": 56.3,
      "soil_moisture_avg": 0.0,
      "rain_mult": 0.0,
      "soil_mult": 0.95,
      "humidity_mult": 1.028,
      "raw_dynamic_score": 0.0,
      "dynamic_level": "None"
    },
    {
      "id": "28",
      "country": "Argentina",
      "name": "Mar Del Plata",
      "latitude": -38.0023,
      "longitude": -57.5575,
      "base_risk": 9.09,
      "rain_6h_mm": 0.0,
      "humidity_avg": 63.5,
      "soil_moisture_avg": 0.0,
      "rain_mult": 0.0,
      "soil_mult": 0.95,
      "humidity_mult": 1.032,
      "raw_dynamic_score": 0.0,
      "dynamic_level": "None"
    },
    {
      "id": "33",
      "country": "Argentina",
      "name": "Rosario",
      "latitude": -32.9468,
      "longitude": -60.6393,
      "base_risk": 9.16,
      "rain_6h_mm": 0.0,
      "humidity_avg": 50.0,
      "soil_moisture_avg": 0.0,
      "rain_mult": 0.0,
      "soil_mult": 0.95,
      "humidity_mult": 1.025,
      "raw_dynamic_score": 0.0,
      "dynamic_level": "None"
    },
    {
      "id": "34",
      "country": "Argentina",
      "name": "Salta",
      "latitude": -24.7859,
      "longitude": -65.4117,
      "base_risk": 9.39,
      "rain_6h_mm": 0.8,
      "humidity_avg": 86.5,
      "soil_moisture_avg": 0.0,
      "rain_mult": 0.008,
      "soil_mult": 0.95,
      "humidity_mult": 1.043,
      "raw_dynamic_score": 0.074,
      "dynamic_level": "Low"
    },
    {
      "id": "35",
      "country": "Argentina",
      "name": "San Juan",
      "latitude": -31.5375,
      "longitude": -68.5364,
      "base_risk": 8.8,
      "rain_6h_mm": 0.0,
      "humidity_avg": 34.3,
      "soil_moisture_avg": 0.0,
      "rain_mult": 0.0,
      "soil_mult": 0.95,
      "humidity_mult": 1.017,
      "raw_dynamic_score": 0.0,
      "dynamic_level": "None"
    },
    {
      "id": "36",
      "country": "Argentina",
      "name": "San Miguel de Tucumán",
      "latitude": -26.8241,
      "longitude": -65.2226,
      "base_risk": 8.72,
      "rain_6h_mm": 0.0,
      "humidity_avg": 67.3,
      "soil_moisture_avg": 0.0,
      "rain_mult": 0.0,
      "soil_mult": 0.95,
      "humidity_mult": 1.034,
      "raw_dynamic_score": 0.0,
      "dynamic_level": "None"
    },
    {
      "id": "41",
      "country": "Australia",
      "name": "Adelaide",
      "latitude": -34.9287,
      "longitude": 138.5986,
      "base_risk": 9.32,
      "rain_6h_mm": 0.0,
      "humidity_avg": 71.0,
      "soil_moisture_avg": 0.0,
      "rain_mult": 0.0,
      "soil_mult": 0.95,
      "humidity_mult": 1.036,
      "raw_dynamic_score": 0.0,
      "dynamic_level": "None"
    },
    {
      "id": "42",
      "country": "Australia",
      "name": "Brisbane",
      "latitude": -27.4679,
      "longitude": 153.0281,
      "base_risk": 8.99,
      "rain_6h_mm": 0.0,
      "humidity_avg": 89.3,
      "soil_moisture_avg": 0.0,
      "rain_mult": 0.0,
      "soil_mult": 0.95,
      "humidity_mult": 1.045,
      "raw_dynamic_score": 0.0,
      "dynamic_level": "None"
    },
    {
      "id": "43",
      "country": "Australia",
      "name": "Canberra",
      "latitude": -35.2835,
      "longitude": 149.1281,
      "base_risk": 8.88,
      "rain_6h_mm": 0.0,
      "humidity_avg": 96.3,
      "soil_moisture_avg": 0.0,
      "rain_mult": 0.0,
      "soil_mult": 0.95,
      "humidity_mult": 1.048,
      "raw_dynamic_score": 0.0,
      "dynamic_level": "None"
    },
    {
      "id": "44",
      "country": "Australia",
      "name": "Central Coast",
      "latitude": -33.42,
      "longitude": 151.3958,
      "base_risk": 9.28,
      "rain_6h_mm": 0.0,
      "humidity_avg": 79.8,
      "soil_moisture_avg": 0.0,
      "rain_mult": 0.0,
      "soil_mult": 0.95,
      "humidity_mult": 1.04,
      "raw_dynamic_score": 0.0,
      "dynamic_level": "None"
    },
    {
      "id": "49",
      "country": "Australia",
      "name": "Sunshine Coast",
      "latitude": -26.6601,
      "longitude": 153.0995,
      "base_risk": 9.39,
      "rain_6h_mm": 0.0,
      "humidity_avg": 81.2,
      "soil_moisture_avg": 0.0,
      "rain_mult": 0.0,
      "soil_mult": 0.95,
      "humidity_mult": 1.041,
      "raw_dynamic_score": 0.0,
      "dynamic_level": "None"
    },
    {
      "id": "50",
      "country": "Australia",
      "name": "Sydney",
      "latitude": -33.8679,
      "longitude": 151.2073,
      "base_risk": 9.19,
      "rain_6h_mm": 0.0,
      "humidity_avg": 79.8,
      "soil_moisture_avg": 0.0,
      "rain_mult": 0.0,
      "soil_mult": 0.95,
      "humidity_mult": 1.04,
      "raw_dynamic_score": 0.0,
      "dynamic_level": "None"
    },
    {
      "id": "51",
      "country": "Australia",
      "name": "Wollongong",
      "latitude": -34.424,
      "longitude": 150.8935,
      "base_risk": 9.37,
      "rain_6h_mm": 0.0,
      "humidity_avg": 63.2,
      "soil_moisture_avg": 0.0,
      "rain_mult": 0.0,
      "soil_mult": 0.95,
      "humidity_mult": 1.032,
      "raw_dynamic_score": 0.0,
      "dynamic_level": "None"
    },
    {
      "id": "52",
      "country": "Austria",
      "name": "Wien (Vienna)",
      "latitude": 48.2064,
      "longitude": 16.3707,
      "base_risk": 8.75,
      "rain_6h_mm": 0.0,
      "humidity_avg": 65.3,
      "soil_moisture_avg": 0.0,
      "rain_mult": 0.0,
      "soil_mult": 0.95,
      "humidity_mult": 1.033,
      "raw_dynamic_score": 0.0,
      "dynamic_level": "None"
    },
    {
      "id": "57",
      "country": "Bangladesh",
      "name": "Barisal",
      "latitude": 22.7019,
      "longitude": 90.3711,
      "base_risk": 9.37,
      "rain_6h_mm": 0.6,
      "humidity_avg": 91.0,
      "soil_moisture_avg": 0.0,
      "rain_mult": 0.006,
      "soil_mult": 0.95,
      "humidity_mult": 1.046,
      "raw_dynamic_score": 0.056,
      "dynamic_level": "Low"
    },
    {
      "id": "58",
      "country": "Bangladesh",
      "name": "Bogra",
      "latitude": 24.85,
      "longitude": 89.3667,
      "base_risk": 9.17,
      "rain_6h_mm": 0.1,
      "humidity_avg": 86.2,
      "soil_moisture_avg": 0.0,
      "rain_mult": 0.001,
      "soil_mult": 0.95,
      "humidity_mult": 1.043,
      "raw_dynamic_score": 0.009,
      "dynamic_level": "Low"
    },
    {
      "id": "59",
      "country": "Bangladesh",
      "name": "Chittagong",
      "latitude": 22.3331,
      "longitude": 91.8364,
      "base_risk": 9.36,
      "rain_6h_mm": 7.4,
      "humidity_avg": 86.8,
      "soil_moisture_avg": 0.0,
      "rain_mult": 0.074,
      "soil_mult": 0.95,
      "humidity_mult": 1.043,
      "raw_dynamic_score": 0.687,
      "dynamic_level": "Low"
    },
    {
      "id": "60",
      "country": "Bangladesh",
      "name": "Comilla",
      "latitude": 23.4578,
      "longitude": 91.2044,
      "base_risk": 9.5,
      "rain_6h_mm": 1.6,
      "humidity_avg": 95.3,
      "soil_moisture_avg": 0.0,
      "rain_mult": 0.016,
      "soil_mult": 0.95,
      "humidity_mult": 1.048,
      "raw_dynamic_score": 0.151,
      "dynamic_level": "Low"
    },
    {
      "id": "65",
      "country": "Bangladesh",
      "name": "Rangpur",
      "latitude": 25.75,
      "longitude": 89.25,
      "base_risk": 8.62,
      "rain_6h_mm": 0.0,
      "humidity_avg": 84.3,
      "soil_moisture_avg": 0.0,
      "rain_mult": 0.0,
      "soil_mult": 0.95,
      "humidity_mult": 1.042,
      "raw_dynamic_score": 0.0,
      "dynamic_level": "None"
    },
    {
      "id": "66",
      "country": "Bangladesh",
      "name": "Rupganj",
      "latitude": 23.7926,
      "longitude": 90.5206,
      "base_risk": 9.13,
      "rain_6h_mm": 0.3,
      "humidity_avg": 89.8,
      "soil_moisture_avg": 0.0,
      "rain_mult": 0.003,
      "soil_mult": 0.95,
      "humidity_mult": 1.045,
      "raw_dynamic_score": 0.027,
      "dynamic_level": "Low"
    },
    {
      "id": "67",
      "country": "Bangladesh",
      "name": "Sylhet",
      "latitude": 24.8967,
      "longitude": 91.8717,
      "base_risk": 9.35,
      "rain_6h_mm": 3.1,
      "humidity_avg": 93.8,
      "soil_moisture_avg": 0.0,
      "rain_mult": 0.031,
      "soil_mult": 0.95,
      "humidity_mult": 1.047,
      "raw_dynamic_score": 0.288,
      "dynamic_level": "Low"
    },
    {
      "id": "68",
      "country": "Belarus",
      "name": "Brest",
      "latitude": 52.0976,
      "longitude": 23.6878,
      "base_risk": 9.37,
      "rain_6h_mm": 0.0,
      "humidity_avg": 80.3,
      "soil_moisture_avg": 0.424,
      "rain_mult": 0.0,
      "soil_mult": 1.311,
      "humidity_mult": 1.04,
      "raw_dynamic_score": 0.0,
      "dynamic_level": "None"
    },
    {
      "id": "73",
      "country": "Belarus",
      "name": "Vitebsk",
      "latitude": 55.1905,
      "longitude": 30.2033,
      "base_risk": 8.87,
      "rain_6h_mm": 0.0,
      "humidity_avg": 87.8,
      "soil_moisture_avg": 0.0,
      "rain_mult": 0.0,
      "soil_mult": 0.95,
      "humidity_mult": 1.044,
      "raw_dynamic_score": 0.0,
      "dynamic_level": "None"
    },
    {
      "id": "74",
      "country": "Belgium",
      "name": "Antwerpen",
      "latitude": 51.2199,
      "longitude": 4.4035,
      "base_risk": 9.16,
      "rain_6h_mm": 0.0,
      "humidity_avg": 67.7,
      "soil_moisture_avg": 0.369,
      "rain_mult": 0.0,
      "soil_mult": 1.263,
      "humidity_mult": 1.034,
      "raw_dynamic_score": 0.0,
      "dynamic_level": "None"
    },
    {
      "id": "75",
      "country": "Belgium",
      "name": "Bruxelles-Brussel",
      "latitude": 50.8467,
      "longitude": 4.3499,
      "base_risk": 9.46,
      "rain_6h_mm": 0.0,
      "humidity_avg": 60.2,
      "soil_moisture_avg": 0.515,
      "rain_mult": 0.0,
      "soil_mult": 1.388,
      "humidity_mult": 1.03,
      "raw_dynamic_score": 0.0,
      "dynamic_level": "None"
    },
    {
      "id": "76",
      "country": "Belgium",
      "name": "Charleroi",
      "latitude": 50.4114,
      "longitude": 4.4445,
      "base_risk": 9.22,
      "rain_6h_mm": 0.0,
      "humidity_avg": 65.5,
      "soil_moisture_avg": 0.547,
      "rain_mult": 0.0,
      "soil_mult": 1.415,
      "humidity_mult": 1.033,
      "raw_dynamic_score": 0.0,
      "dynamic_level": "None"
    },
    {
      "id": "81",
      "country": "Benin",
      "name": "Djougou",
      "latitude": 9.7085,
      "longitude": 1.666,
      "base_risk": 9.46,
      "rain_6h_mm": 0.0,
      "humidity_avg": 40.8,
      "soil_moisture_avg": 0.0,
      "rain_mult": 0.0,
      "soil_mult": 0.95,
      "humidity_mult": 1.02,
      "raw_dynamic_score": 0.0,
      "dynamic_level": "None"
    },
    {
      "id": "82",
      "country": "Benin",
      "name": "Parakou",
      "latitude": 9.3372,
      "longitude": 2.6303,
      "base_risk": 9.5,
      "rain_6h_mm": 0.0,
      "humidity_avg": 56.3,
      "soil_moisture_avg": 0.0,
      "rain_mult": 0.0,
      "soil_mult": 0.95,
      "humidity_mult": 1.028,
      "raw_dynamic_score": 0.0,
      "dynamic_level": "None"
    },
    {
      "id": "83",
      "country": "Bolivia (Plurinational State of)",
      "name": "Cochabamba",
      "latitude": -17.3895,
      "longitude": -66.1568,
      "base_risk": 8.93,
      "rain_6h_mm": 0.0,
      "humidity_avg": 24.8,
      "soil_moisture_avg": 0.0,
      "rain_mult": 0.0,
      "soil_mult": 0.95,
      "humidity_mult": 1.012,
      "raw_dynamic_score": 0.0,
      "dynamic_level": "None"
    },
    {
      "id": "84",
      "country": "Bolivia (Plurinational State of)",
      "name": "La Paz",
      "latitude": -16.5,
      "longitude": -68.15,
      "base_risk": 9.19,
      "rain_6h_mm": 0.0,
      "humidity_avg": 30.0,
      "soil_moisture_avg": 0.0,
      "rain_mult": 0.0,
      "soil_mult": 0.95,
      "humidity_mult": 1.015,
      "raw_dynamic_score": 0.0,
      "dynamic_level": "None"
    },
    {
      "id": "89",
      "country": "Brazil",
      "name": "Aracaju",
      "latitude": -10.9111,
      "longitude": -37.0717,
      "base_risk": 9.4,
      "rain_6h_mm": 0.0,
      "humidity_avg": 56.3,
      "soil_moisture_avg": 0.0,
      "rain_mult": 0.0,
      "soil_mult": 0.95,
      "humidity_mult": 1.028,
      "raw_dynamic_score": 0.0,
      "dynamic_level": "None"
    },
    {
      "id": "90",
      "country": "Brazil",
      "name": "Baixada Santista",
      "latitude": -23.957,
      "longitude": -46.3266,
      "base_risk": 9.48,
      "rain_6h_mm": 0.6,
      "humidity_avg": 54.7,
      "soil_moisture_avg": 0.0,
      "rain_mult": 0.006,
      "soil_mult": 0.95,
      "humidity_mult": 1.027,
      "raw_dynamic_score": 0.056,
      "dynamic_level": "Low"
    },
    {
      "id": "91",
      "country": "Brazil",
      "name": "Bauru",
      "latitude": -22.3147,
      "longitude": -49.0606,
      "base_risk": 9.5,
      "rain_6h_mm": 4.3,
      "humidity_avg": 72.8,
      "soil_moisture_avg": 0.0,
      "rain_mult": 0.043,
      "soil_mult": 0.95,
      "humidity_mult": 1.036,
      "raw_dynamic_score": 0.402,
      "dynamic_level": "Low"
    },
    {
      "id": "92",
      "country": "Brazil",
      "name": "Belém",
      "latitude": -1.4561,
      "longitude": -48.479,
      "base_risk": 9.14,
      "rain_6h_mm": 0.3,
      "humidity_avg": 58.7,
      "soil_moisture_avg": 0.0,
      "rain_mult": 0.003,
      "soil_mult": 0.95,
      "humidity_mult": 1.029,
      "raw_dynamic_score": 0.027,
      "dynamic_level": "Low"
    },
    {
      "id": "97",
      "country": "Brazil",
      "name": "Campina Grande",
      "latitude": -7.2306,
      "longitude": -35.8811,
      "base_risk": 9.5,
      "rain_6h_mm": 0.0,
      "humidity_avg": 46.7,
      "soil_moisture_avg": 0.0,
      "rain_mult": 0.0,
      "soil_mult": 0.95,
      "humidity_mult": 1.023,
      "raw_dynamic_score": 0.0,
      "dynamic_level": "None"
    },
    {
      "id": "98",
      "country": "Brazil",
      "name": "Campinas",
      "latitude": -22.9109,
      "longitude": -47.0656,
      "base_risk": 9.41,
      "rain_6h_mm": 2.8,
      "humidity_avg": 63.8,
      "soil_moisture_avg": 0.0,
      "rain_mult": 0.028,
      "soil_mult": 0.95,
      "humidity_mult": 1.032,
      "raw_dynamic_score": 0.258,
      "dynamic_level": "Low"
    },
    {
      "id": "99",
      "country": "Brazil",
      "name": "Campo Grande",
      "latitude": -20.4567,
      "longitude": -54.6185,
      "base_risk": 9.07,
      "rain_6h_mm": 5.5,
      "humidity_avg": 68.8,
      "soil_moisture_avg": 0.0,
      "rain_mult": 0.055,
      "soil_mult": 0.95,
      "humidity_mult": 1.034,
      "raw_dynamic_score": 0.49,
      "dynamic_level": "Low"
    },
    {
      "id": "100",
      "country": "Brazil",
      "name": "Campos dos Goytacazes",
      "latitude": -21.7664,
      "longitude": -41.3196,
      "base_risk": 9.41,
      "rain_6h_mm": 0.0,
      "humidity_avg": 50.8,
      "soil_moisture_avg": 0.0,
      "rain_mult": 0.0,
      "soil_mult": 0.95,
      "humidity_mult": 1.025,
      "raw_dynamic_score": 0.0,
      "dynamic_level": "None"
    },
    {
      "id": "105",
      "country": "Brazil",
      "name": "Curitiba",
      "latitude": -25.4278,
      "longitude": -49.2731,
      "base_risk": 8.88,
      "rain_6h_mm": 1.0,
      "humidity_avg": 65.2,
      "soil_moisture_avg": 0.0,
      "rain_mult": 0.01,
      "soil_mult": 0.95,
      "humidity_mult": 1.033,
      "raw_dynamic_score": 0.087,
      "dynamic_level": "Low"
    },
    {
      "id": "106",
      "country": "Brazil",
      "name": "Feira De Santana",
      "latitude": -12.2667,
      "longitude": -38.9667,
      "base_risk": 9.34,
      "rain_6h_mm": 0.0,
      "humidity_avg": 44.8,
      "soil_moisture_avg": 0.0,
      "rain_mult": 0.0,
      "soil_mult": 0.95,
      "humidity_mult": 1.022,
      "raw_dynamic_score": 0.0,
      "dynamic_level": "None"
    },
    {
      "id": "107",
      "country": "Brazil",
      "name": "Florianópolis",
      "latitude": -27.5967,
      "longitude": -48.5492,
      "base_risk": 9.19,
      "rain_6h_mm": 1.7,
      "humidity_avg": 69.2,
      "soil_moisture_avg": 0.0,
      "rain_mult": 0.017,
      "soil_mult": 0.95,
      "humidity_mult": 1.035,
      "raw_dynamic_score": 0.154,
      "dynamic_level": "Low"
    },
    {
      "id": "108",
      "country": "Brazil",
      "name": "Fortaleza",
      "latitude": -3.7412,
      "longitude": -38.5436,
      "base_risk": 9.05,
      "rain_6h_mm": 0.0,
      "humidity_avg": 54.0,
      "soil_moisture_avg": 0.0,
      "rain_mult": 0.0,
      "soil_mult": 0.95,
      "humidity_mult": 1.027,
      "raw_dynamic_score": 0.0,
      "dynamic_level": "None"
    },
    {
      "id": "113",
      "country": "Brazil",
      "name": "João Pessoa",
      "latitude": -7.115,
      "longitude": -34.8631,
      "base_risk": 9.3,
      "rain_6h_mm": 0.0,
      "humidity_avg": 56.3,
      "soil_moisture_avg": 0.0,
      "rain_mult": 0.0,
      "soil_mult": 0.95,
      "humidity_mult": 1.028,
      "raw_dynamic_score": 0.0,
      "dynamic_level": "None"
    },
    {
      "id": "114",
      "country": "Brazil",
      "name": "Joinville",
      "latitude": -26.3044,
      "longitude": -48.8456,
      "base_risk": 9.02,
      "rain_6h_mm": 0.9,
      "humidity_avg": 64.7,
      "soil_moisture_avg": 0.0,
      "rain_mult": 0.009,
      "soil_mult": 0.95,
      "humidity_mult": 1.032,
      "raw_dynamic_score": 0.08,
      "dynamic_level": "Low"
    },
    {
      "id": "115",
      "country": "Brazil",
      "name": "Juazeiro Do Norte",
      "latitude": -7.2131,
      "longitude": -39.3153,
      "base_risk": 9.29,
      "rain_6h_mm": 0.0,
      "humidity_avg": 30.7,
      "soil_moisture_avg": 0.0,
      "rain_mult": 0.0,
      "soil_mult": 0.95,
      "humidity_mult": 1.015,
      "raw_dynamic_score": 0.0,
      "dynamic_level": "None"
    },
    {
      "id": "116",
      "country": "Brazil",
      "name": "Juiz De Fora",
      "latitude": -21.7642,
      "longitude": -43.3503,
      "base_risk": 8.99,
      "rain_6h_mm": 0.4,
      "humidity_avg": 45.7,
      "soil_moisture_avg": 0.0,
      "rain_mult": 0.004,
      "soil_mult": 0.95,
      "humidity_mult": 1.023,
      "raw_dynamic_score": 0.035,
      "dynamic_level": "Low"
    },
    {
      "id": "121",
      "country": "Brazil",
      "name": "Manaus",
      "latitude": -3.1019,
      "longitude": -60.025,
      "base_risk": 9.01,
      "rain_6h_mm": 0.2,
      "humidity_avg": 61.5,
      "soil_moisture_avg": 0.0,
      "rain_mult": 0.002,
      "soil_mult": 0.95,
      "humidity_mult": 1.031,
      "raw_dynamic_score": 0.018,
      "dynamic_level": "Low"
    },
    {
      "id": "122",
      "country": "Brazil",
      "name": "Maringá",
      "latitude": -23.4253,
      "longitude": -51.9386,
      "base_risk": 9.32,
      "rain_6h_mm": 5.4,
      "humidity_avg": 76.0,
      "soil_moisture_avg": 0.0,
      "rain_mult": 0.054,
      "soil_mult": 0.95,
      "humidity_mult": 1.038,
      "raw_dynamic_score": 0.496,
      "dynamic_level": "Low"
    },
    {
      "id": "123",
      "country": "Brazil",
      "name": "Montes Claros",
      "latitude": -16.735,
      "longitude": -43.8617,
      "base_risk": 9.5,
      "rain_6h_mm": 0.0,
      "humidity_avg": 34.3,
      "soil_moisture_avg": 0.0,
      "rain_mult": 0.0,
      "soil_mult": 0.95,
      "humidity_mult": 1.017,
      "raw_dynamic_score": 0.0,
      "dynamic_level": "None"
    },
    {
      "id": "124",
      "country": "Brazil",
      "name": "Natal",
      "latitude": -5.795,
      "longitude": -35.2094,
      "base_risk": 9.5,
      "rain_6h_mm": 0.0,
      "humidity_avg": 57.0,
      "soil_moisture_avg": 0.0,
      "rain_mult": 0.0,
      "soil_mult": 0.95,
      "humidity_mult": 1.028,
      "raw_dynamic_score": 0.0,
      "dynamic_level": "None"
    },
    {
      "id": "129",
      "country": "Brazil",
      "name": "Pôrto Alegre",
      "latitude": -30.0331,
      "longitude": -51.23,
      "base_risk": 9.11,
      "rain_6h_mm": 0.4,
      "humidity_avg": 63.8,
      "soil_moisture_avg": 0.0,
      "rain_mult": 0.004,
      "soil_mult": 0.95,
      "humidity_mult": 1.032,
      "raw_dynamic_score": 0.036,
      "dynamic_level": "Low"
    },
    {
      "id": "130",
      "country": "Brazil",
      "name": "Pôrto Velho",
      "latitude": -8.7619,
      "longitude": -63.9039,
      "base_risk": 8.9,
      "rain_6h_mm": 0.3,
      "humidity_avg": 70.8,
      "soil_moisture_avg": 0.0,
      "rain_mult": 0.003,
      "soil_mult": 0.95,
      "humidity_mult": 1.035,
      "raw_dynamic_score": 0.026,
      "dynamic_level": "Low"
    },
    {
      "id": "131",
      "country": "Brazil",
      "name": "Recife",
      "latitude": -8.0539,
      "longitude": -34.8811,
      "base_risk": 9.18,
      "rain_6h_mm": 0.0,
      "humidity_avg": 57.0,
      "soil_moisture_avg": 0.0,
      "rain_mult": 0.0,
      "soil_mult": 0.95,
      "humidity_mult": 1.028,
      "raw_dynamic_score": 0.0,
      "dynamic_level": "None"
    },
    {
      "id": "132",
      "country": "Brazil",
      "name": "Ribeirão  Preto",
      "latitude": -21.1775,
      "longitude": -47.8103,
      "base_risk": 9.07,
      "rain_6h_mm": 3.9,
      "humidity_avg": 62.8,
      "soil_moisture_avg": 0.0,
      "rain_mult": 0.039,
      "soil_mult": 0.95,
      "humidity_mult": 1.031,
      "raw_dynamic_score": 0.347,
      "dynamic_level": "Low"
    },
    {
      "id": "136",
      "country": "Brazil",
      "name": "São José do Rio Preto",
      "latitude": -20.8197,
      "longitude": -49.3794,
      "base_risk": 9.32,
      "rain_6h_mm": 4.3,
      "humidity_avg": 71.2,
      "soil_moisture_avg": 0.0,
      "rain_mult": 0.043,
      "soil_mult": 0.95,
      "humidity_mult": 1.036,
      "raw_dynamic_score": 0.394,
      "dynamic_level": "Low"
    },
    {
      "id": "138",
      "country": "Brazil",
      "name": "São Paulo",
      "latitude": -23.5475,
      "longitude": -46.6361,
      "base_risk": 9.5,
      "rain_6h_mm": 0.5,
      "humidity_avg": 60.0,
      "soil_moisture_avg": 0.0,
      "rain_mult": 0.005,
      "soil_mult": 0.95,
      "humidity_mult": 1.03,
      "raw_dynamic_score": 0.046,
      "dynamic_level": "Low"
    },
    {
      "id": "139",
      "country": "Brazil",
      "name": "Sorocaba",
      "latitude": -23.5017,
      "longitude": -47.4581,
      "base_risk": 9.22,
      "rain_6h_mm": 4.0,
      "humidity_avg": 70.5,
      "soil_moisture_avg": 0.0,
      "rain_mult": 0.04,
      "soil_mult": 0.95,
      "humidity_mult": 1.035,
      "raw_dynamic_score": 0.363,
      "dynamic_level": "Low"
    },
    {
      "id": "140",
      "country": "Brazil",
      "name": "Taubaté",
      "latitude": -23.0264,
      "longitude": -45.5553,
      "base_risk": 9.5,
      "rain_6h_mm": 0.2,
      "humidity_avg": 48.2,
      "soil_moisture_avg": 0.0,
      "rain_mult": 0.002,
      "soil_mult": 0.95,
      "humidity_mult": 1.024,
      "raw_dynamic_score": 0.018,
      "dynamic_level": "Low"
    },
    {
      "id": "141",
      "country": "Brazil",
      "name": "Teresina",
      "latitude": -5.0892,
      "longitude": -42.8019,
      "base_risk": 9.39,
      "rain_6h_mm": 0.0,
      "humidity_avg": 35.7,
      "soil_moisture_avg": 0.0,
      "rain_mult": 0.0,
      "soil_mult": 0.95,
      "humidity_mult": 1.018,
      "raw_dynamic_score": 0.0,
      "dynamic_level": "None"
    },
    {
      "id": "144",
      "country": "Brazil",
      "name": "Vale do Aço",
      "latitude": -19.9405,
      "longitude": -43.9354,
      "base_risk": 9.42,
      "rain_6h_mm": 0.0,
      "humidity_avg": 38.2,
      "soil_moisture_avg": 0.0,
      "rain_mult": 0.0,
      "soil_mult": 0.95,
      "humidity_mult": 1.019,
      "raw_dynamic_score": 0.0,
      "dynamic_level": "None"
    },
    {
      "id": "148",
      "country": "Bulgaria",
      "name": "Sofia",
      "latitude": 42.6975,
      "longitude": 23.3242,
      "base_risk": 9.33,
      "rain_6h_mm": 0.0,
      "humidity_avg": 73.7,
      "soil_moisture_avg": 0.0,
      "rain_mult": 0.0,
      "soil_mult": 0.95,
      "humidity_mult": 1.037,
      "raw_dynamic_score": 0.0,
      "dynamic_level": "None"
    },
    {
      "id": "149",
      "country": "Bulgaria",
      "name": "Varna",
      "latitude": 43.2167,
      "longitude": 27.9167,
      "base_risk": 9.44,
      "rain_6h_mm": 1.0,
      "humidity_avg": 82.7,
      "soil_moisture_avg": 0.0,
      "rain_mult": 0.01,
      "soil_mult": 0.95,
      "humidity_mult": 1.041,
      "raw_dynamic_score": 0.093,
      "dynamic_level": "Low"
    },
    {
      "id": "151",
      "country": "Burkina Faso",
      "name": "Ouagadougou",
      "latitude": 12.3642,
      "longitude": -1.5383,
      "base_risk": 9.5,
      "rain_6h_mm": 0.0,
      "humidity_avg": 31.2,
      "soil_moisture_avg": 0.0,
      "rain_mult": 0.0,
      "soil_mult": 0.95,
      "humidity_mult": 1.016,
      "raw_dynamic_score": 0.0,
      "dynamic_level": "None"
    },
    {
      "id": "155",
      "country": "Cameroon",
      "name": "Bamenda",
      "latitude": 5.9527,
      "longitude": 10.1582,
      "base_risk": 9.5,
      "rain_6h_mm": 8.5,
      "humidity_avg": 89.8,
      "soil_moisture_avg": 0.0,
      "rain_mult": 0.085,
      "soil_mult": 0.95,
      "humidity_mult": 1.045,
      "raw_dynamic_score": 0.802,
      "dynamic_level": "Low"
    },
    {
      "id": "156",
      "country": "Cameroon",
      "name": "Douala",
      "latitude": 4.0483,
      "longitude": 9.7043,
      "base_risk": 9.5,
      "rain_6h_mm": 0.0,
      "humidity_avg": 84.3,
      "soil_moisture_avg": 0.0,
      "rain_mult": 0.0,
      "soil_mult": 0.95,
      "humidity_mult": 1.042,
      "raw_dynamic_score": 0.0,
      "dynamic_level": "None"
    },
    {
      "id": "157",
      "country": "Cameroon",
      "name": "Garoua",
      "latitude": 9.3,
      "longitude": 13.4,
      "base_risk": 9.09,
      "rain_6h_mm": 0.0,
      "humidity_avg": 53.2,
      "soil_moisture_avg": 0.0,
      "rain_mult": 0.0,
      "soil_mult": 0.95,
      "humidity_mult": 1.027,
      "raw_dynamic_score": 0.0,
      "dynamic_level": "None"
    },
    {
      "id": "158",
      "country": "Cameroon",
      "name": "Loum",
      "latitude": 4.7182,
      "longitude": 9.7351,
      "base_risk": 9.16,
      "rain_6h_mm": 0.5,
      "humidity_avg": 89.3,
      "soil_moisture_avg": 0.0,
      "rain_mult": 0.005,
      "soil_mult": 0.95,
      "humidity_mult": 1.045,
      "raw_dynamic_score": 0.045,
      "dynamic_level": "Low"
    },
    {
      "id": "163",
      "country": "Canada",
      "name": "Halifax",
      "latitude": 44.6477,
      "longitude": -63.5818,
      "base_risk": 9.07,
      "rain_6h_mm": 0.0,
      "humidity_avg": 62.5,
      "soil_moisture_avg": 0.0,
      "rain_mult": 0.0,
      "soil_mult": 0.95,
      "humidity_mult": 1.031,
      "raw_dynamic_score": 0.0,
      "dynamic_level": "None"
    },
    {
      "id": "164",
      "country": "Canada",
      "name": "Hamilton",
      "latitude": 43.2495,
      "longitude": -79.8475,
      "base_risk": 9.21,
      "rain_6h_mm": 0.0,
      "humidity_avg": 55.8,
      "soil_moisture_avg": 0.0,
      "rain_mult": 0.0,
      "soil_mult": 0.95,
      "humidity_mult": 1.028,
      "raw_dynamic_score": 0.0,
      "dynamic_level": "None"
    },
    {
      "id": "165",
      "country": "Canada",
      "name": "Kitchener-Cambrigde-Waterloo",
      "latitude": 43.4254,
      "longitude": -80.5112,
      "base_risk": 8.96,
      "rain_6h_mm": 0.0,
      "humidity_avg": 72.8,
      "soil_moisture_avg": 0.0,
      "rain_mult": 0.0,
      "soil_mult": 0.95,
      "humidity_mult": 1.036,
      "raw_dynamic_score": 0.0,
      "dynamic_level": "None"
    },
    {
      "id": "166",
      "country": "Canada",
      "name": "London",
      "latitude": 42.9834,
      "longitude": -81.233,
      "base_risk": 9.01,
      "rain_6h_mm": 0.0,
      "humidity_avg": 64.0,
      "soil_moisture_avg": 0.0,
      "rain_mult": 0.0,
      "soil_mult": 0.95,
      "humidity_mult": 1.032,
      "raw_dynamic_score": 0.0,
      "dynamic_level": "None"
    },
    {
      "id": "171",
      "country": "Canada",
      "name": "Saskatoon",
      "latitude": 52.1168,
      "longitude": -106.6345,
      "base_risk": 9.03,
      "rain_6h_mm": 0.0,
      "humidity_avg": 68.2,
      "soil_moisture_avg": 0.0,
      "rain_mult": 0.0,
      "soil_mult": 0.95,
      "humidity_mult": 1.034,
      "raw_dynamic_score": 0.0,
      "dynamic_level": "None"
    },
    {
      "id": "172",
      "country": "Canada",
      "name": "St. Catharines-Niagara",
      "latitude": 43.1668,
      "longitude": -79.2496,
      "base_risk": 9.27,
      "rain_6h_mm": 0.0,
      "humidity_avg": 55.5,
      "soil_moisture_avg": 0.0,
      "rain_mult": 0.0,
      "soil_mult": 0.95,
      "humidity_mult": 1.028,
      "raw_dynamic_score": 0.0,
      "dynamic_level": "None"
    },
    {
      "id": "173",
      "country": "Canada",
      "name": "Toronto",
      "latitude": 43.7001,
      "longitude": -79.4163,
      "base_risk": 8.92,
      "rain_6h_mm": 0.0,
      "humidity_avg": 65.3,
      "soil_moisture_avg": 0.0,
      "rain_mult": 0.0,
      "soil_mult": 0.95,
      "humidity_mult": 1.033,
      "raw_dynamic_score": 0.0,
      "dynamic_level": "None"
    },
    {
      "id": "174",
      "country": "Canada",
      "name": "Vancouver",
      "latitude": 49.2497,
      "longitude": -123.1193,
      "base_risk": 9.1,
      "rain_6h_mm": 1.4,
      "humidity_avg": 80.8,
      "soil_moisture_avg": 0.0,
      "rain_mult": 0.014,
      "soil_mult": 0.95,
      "humidity_mult": 1.04,
      "raw_dynamic_score": 0.126,
      "dynamic_level": "Low"
    },
    {
      "id": "175",
      "country": "Canada",
      "name": "Victoria",
      "latitude": 48.4329,
      "longitude": -123.3693,
      "base_risk": 9.05,
      "rain_6h_mm": 0.0,
      "humidity_avg": 80.5,
      "soil_moisture_avg": 0.0,
      "rain_mult": 0.0,
      "soil_mult": 0.95,
      "humidity_mult": 1.04,
      "raw_dynamic_score": 0.0,
      "dynamic_level": "None"
    },
    {
      "id": "181",
      "country": "Chile",
      "name": "Concepción",
      "latitude": -36.827,
      "longitude": -73.0498,
      "base_risk": 9.03,
      "rain_6h_mm": 0.0,
      "humidity_avg": 90.2,
      "soil_moisture_avg": 0.0,
      "rain_mult": 0.0,
      "soil_mult": 0.95,
      "humidity_mult": 1.045,
      "raw_dynamic_score": 0.0,
      "dynamic_level": "None"
    },
    {
      "id": "182",
      "country": "Chile",
      "name": "La Serena-Coquimbo",
      "latitude": -29.9045,
      "longitude": -71.2489,
      "base_risk": 8.62,
      "rain_6h_mm": 0.0,
      "humidity_avg": 81.2,
      "soil_moisture_avg": 0.0,
      "rain_mult": 0.0,
      "soil_mult": 0.95,
      "humidity_mult": 1.041,
      "raw_dynamic_score": 0.0,
      "dynamic_level": "None"
    },
    {
      "id": "183",
      "country": "Chile",
      "name": "Santiago",
      "latitude": -33.4569,
      "longitude": -70.6483,
      "base_risk": 8.97,
      "rain_6h_mm": 0.0,
      "humidity_avg": 34.5,
      "soil_moisture_avg": 0.0,
      "rain_mult": 0.0,
      "soil_mult": 0.95,
      "humidity_mult": 1.017,
      "raw_dynamic_score": 0.0,
      "dynamic_level": "None"
    },
    {
      "id": "184",
      "country": "Chile",
      "name": "Temuco",
      "latitude": -38.7333,
      "longitude": -72.6,
      "base_risk": 9.22,
      "rain_6h_mm": 0.0,
      "humidity_avg": 60.5,
      "soil_moisture_avg": 0.0,
      "rain_mult": 0.0,
      "soil_mult": 0.95,
      "humidity_mult": 1.03,
      "raw_dynamic_score": 0.0,
      "dynamic_level": "None"
    },
    {
      "id": "189",
      "country": "China",
      "name": "Anning",
      "latitude": 24.9211,
      "longitude": 102.4784,
      "base_risk": 8.75,
      "rain_6h_mm": 0.0,
      "humidity_avg": 93.0,
      "soil_moisture_avg": 0.0,
      "rain_mult": 0.0,
      "soil_mult": 0.95,
      "humidity_mult": 1.046,
      "raw_dynamic_score": 0.0,
      "dynamic_level": "None"
    },
    {
      "id": "190",
      "country": "China",
      "name": "Anqing",
      "latitude": 30.543,
      "longitude": 117.0533,
      "base_risk": 8.83,
      "rain_6h_mm": 0.2,
      "humidity_avg": 83.2,
      "soil_moisture_avg": 0.0,
      "rain_mult": 0.002,
      "soil_mult": 0.95,
      "humidity_mult": 1.042,
      "raw_dynamic_score": 0.017,
      "dynamic_level": "Low"
    },
    {
      "id": "191",
      "country": "China",
      "name": "Anqiu",
      "latitude": 36.4342,
      "longitude": 119.1925,
      "base_risk": 9.2,
      "rain_6h_mm": 0.0,
      "humidity_avg": 90.2,
      "soil_moisture_avg": 0.0,
      "rain_mult": 0.0,
      "soil_mult": 0.95,
      "humidity_mult": 1.045,
      "raw_dynamic_score": 0.0,
      "dynamic_level": "None"
    },
    {
      "id": "192",
      "country": "China",
      "name": "Anshan",
      "latitude": 41.1236,
      "longitude": 122.99,
      "base_risk": 9.29,
      "rain_6h_mm": 0.1,
      "humidity_avg": 88.0,
      "soil_moisture_avg": 0.0,
      "rain_mult": 0.001,
      "soil_mult": 0.95,
      "humidity_mult": 1.044,
      "raw_dynamic_score": 0.009,
      "dynamic_level": "Low"
    },
    {
      "id": "197",
      "country": "China",
      "name": "Baiyin",
      "latitude": 36.5487,
      "longitude": 104.1831,
      "base_risk": 9.14,
      "rain_6h_mm": 0.1,
      "humidity_avg": 81.2,
      "soil_moisture_avg": 0.0,
      "rain_mult": 0.001,
      "soil_mult": 0.95,
      "humidity_mult": 1.041,
      "raw_dynamic_score": 0.009,
      "dynamic_level": "Low"
    },
    {
      "id": "198",
      "country": "China",
      "name": "Baoding",
      "latitude": 38.8511,
      "longitude": 115.4903,
      "base_risk": 9.47,
      "rain_6h_mm": 0.0,
      "humidity_avg": 89.5,
      "soil_moisture_avg": 0.0,
      "rain_mult": 0.0,
      "soil_mult": 0.95,
      "humidity_mult": 1.045,
      "raw_dynamic_score": 0.0,
      "dynamic_level": "None"
    },
    {
      "id": "199",
      "country": "China",
      "name": "Baoji",
      "latitude": 34.3651,
      "longitude": 107.2004,
      "base_risk": 9.41,
      "rain_6h_mm": 0.0,
      "humidity_avg": 94.2,
      "soil_moisture_avg": 0.0,
      "rain_mult": 0.0,
      "soil_mult": 0.95,
      "humidity_mult": 1.047,
      "raw_dynamic_score": 0.0,
      "dynamic_level": "None"
    },
    {
      "id": "200",
      "country": "China",
      "name": "Baotou",
      "latitude": 40.6522,
      "longitude": 109.8222,
      "base_risk": 9.06,
      "rain_6h_mm": 0.0,
      "humidity_avg": 76.2,
      "soil_moisture_avg": 0.0,
      "rain_mult": 0.0,
      "soil_mult": 0.95,
      "humidity_mult": 1.038,
      "raw_dynamic_score": 0.0,
      "dynamic_level": "None"
    },
    {
      "id": "201",
      "country": "China",
      "name": "Bayannaoer",
      "latitude": 40.7505,
      "longitude": 107.4052,
      "base_risk": 8.81,
      "rain_6h_mm": 0.0,
      "humidity_avg": 75.0,
      "soil_moisture_avg": 0.0,
      "rain_mult": 0.0,
      "soil_mult": 0.95,
      "humidity_mult": 1.038,
      "raw_dynamic_score": 0.0,
      "dynamic_level": "None"
    },
    {
      "id": "206",
      "country": "China",
      "name": "Benxi",
      "latitude": 41.2886,
      "longitude": 123.765,
      "base_risk": 8.95,
      "rain_6h_mm": 0.4,
      "humidity_avg": 86.8,
      "soil_moisture_avg": 0.0,
      "rain_mult": 0.004,
      "soil_mult": 0.95,
      "humidity_mult": 1.043,
      "raw_dynamic_score": 0.035,
      "dynamic_level": "Low"
    },
    {
      "id": "207",
      "country": "China",
      "name": "Bijie",
      "latitude": 27.307,
      "longitude": 105.2837,
      "base_risk": 9.1,
      "rain_6h_mm": 0.0,
      "humidity_avg": 96.7,
      "soil_moisture_avg": 0.0,
      "rain_mult": 0.0,
      "soil_mult": 0.95,
      "humidity_mult": 1.048,
      "raw_dynamic_score": 0.0,
      "dynamic_level": "None"
    },
    {
      "id": "208",
      "country": "China",
      "name": "Binzhou",
      "latitude": 37.3811,
      "longitude": 118.0109,
      "base_risk": 8.83,
      "rain_6h_mm": 0.0,
      "humidity_avg": 80.2,
      "soil_moisture_avg": 0.0,
      "rain_mult": 0.0,
      "soil_mult": 0.95,
      "humidity_mult": 1.04,
      "raw_dynamic_score": 0.0,
      "dynamic_level": "None"
    },
    {
      "id": "209",
      "country": "China",
      "name": "Botou",
      "latitude": 38.0667,
      "longitude": 116.5667,
      "base_risk": 9.27,
      "rain_6h_mm": 0.0,
      "humidity_avg": 85.3,
      "soil_moisture_avg": 0.0,
      "rain_mult": 0.0,
      "soil_mult": 0.95,
      "humidity_mult": 1.043,
      "raw_dynamic_score": 0.0,
      "dynamic_level": "None"
    },
    {
      "id": "214",
      "country": "China",
      "name": "Changde",
      "latitude": 29.0464,
      "longitude": 111.6783,
      "base_risk": 9.11,
      "rain_6h_mm": 0.0,
      "humidity_avg": 76.3,
      "soil_moisture_avg": 0.0,
      "rain_mult": 0.0,
      "soil_mult": 0.95,
      "humidity_mult": 1.038,
      "raw_dynamic_score": 0.0,
      "dynamic_level": "None"
    },
    {
      "id": "215",
      "country": "China",
      "name": "Changge",
      "latitude": 34.2224,
      "longitude": 113.7736,
      "base_risk": 9.5,
      "rain_6h_mm": 0.0,
      "humidity_avg": 76.0,
      "soil_moisture_avg": 0.0,
      "rain_mult": 0.0,
      "soil_mult": 0.95,
      "humidity_mult": 1.038,
      "raw_dynamic_score": 0.0,
      "dynamic_level": "None"
    },
    {
      "id": "216",
      "country": "China",
      "name": "Changji",
      "latitude": 44.0117,
      "longitude": 87.3038,
      "base_risk": 9.32,
      "rain_6h_mm": 1.7,
      "humidity_avg": 86.3,
      "soil_moisture_avg": 0.0,
      "rain_mult": 0.017,
      "soil_mult": 0.95,
      "humidity_mult": 1.043,
      "raw_dynamic_score": 0.157,
      "dynamic_level": "Low"
    },
    {
      "id": "217",
      "country": "China",
      "name": "Changning",
      "latitude": 26.4078,
      "longitude": 112.3957,
      "base_risk": 9.45,
      "rain_6h_mm": 0.0,
      "humidity_avg": 88.5,
      "soil_moisture_avg": 0.0,
      "rain_mult": 0.0,
      "soil_mult": 0.95,
      "humidity_mult": 1.044,
      "raw_dynamic_score": 0.0,
      "dynamic_level": "None"
    },
    {
      "id": "222",
      "country": "China",
      "name": "Changzhou, Jiangsu",
      "latitude": 31.7943,
      "longitude": 119.9589,
      "base_risk": 9.4,
      "rain_6h_mm": 0.0,
      "humidity_avg": 92.7,
      "soil_moisture_avg": 0.0,
      "rain_mult": 0.0,
      "soil_mult": 0.95,
      "humidity_mult": 1.046,
      "raw_dynamic_score": 0.0,
      "dynamic_level": "None"
    },
    {
      "id": "223",
      "country": "China",
      "name": "Chaohu",
      "latitude": 31.6,
      "longitude": 117.8667,
      "base_risk": 8.88,
      "rain_6h_mm": 0.0,
      "humidity_avg": 78.7,
      "soil_moisture_avg": 0.0,
      "rain_mult": 0.0,
      "soil_mult": 0.95,
      "humidity_mult": 1.039,
      "raw_dynamic_score": 0.0,
      "dynamic_level": "None"
    },
    {
      "id": "224",
      "country": "China",
      "name": "Chaoyang",
      "latitude": 41.5773,
      "longitude": 120.4511,
      "base_risk": 9.05,
      "rain_6h_mm": 0.0,
      "humidity_avg": 44.8,
      "soil_moisture_avg": 0.0,
      "rain_mult": 0.0,
      "soil_mult": 0.95,
      "humidity_mult": 1.022,
      "raw_dynamic_score": 0.0,
      "dynamic_level": "None"
    },
    {
      "id": "225",
      "country": "China",
      "name": "Chaozhou",
      "latitude": 23.6651,
      "longitude": 116.6379,
      "base_risk": 9.41,
      "rain_6h_mm": 0.0,
      "humidity_avg": 82.2,
      "soil_moisture_avg": 0.0,
      "rain_mult": 0.0,
      "soil_mult": 0.95,
      "humidity_mult": 1.041,
      "raw_dynamic_score": 0.0,
      "dynamic_level": "None"
    },
    {
      "id": "231",
      "country": "China",
      "name": "Chongqing",
      "latitude": 29.5628,
      "longitude": 106.5528,
      "base_risk": 8.83,
      "rain_6h_mm": 0.0,
      "humidity_avg": 80.8,
      "soil_moisture_avg": 0.0,
      "rain_mult": 0.0,
      "soil_mult": 0.95,
      "humidity_mult": 1.04,
      "raw_dynamic_score": 0.0,
      "dynamic_level": "None"
    },
    {
      "id": "232",
      "country": "China",
      "name": "Chuxiong",
      "latitude": 25.0445,
      "longitude": 101.541,
      "base_risk": 9.25,
      "rain_6h_mm": 0.0,
      "humidity_avg": 95.0,
      "soil_moisture_avg": 0.0,
      "rain_mult": 0.0,
      "soil_mult": 0.95,
      "humidity_mult": 1.048,
      "raw_dynamic_score": 0.0,
      "dynamic_level": "None"
    },
    {
      "id": "233",
      "country": "China",
      "name": "Chuzhou",
      "latitude": 32.2985,
      "longitude": 118.3164,
      "base_risk": 9.36,
      "rain_6h_mm": 0.0,
      "humidity_avg": 88.7,
      "soil_moisture_avg": 0.0,
      "rain_mult": 0.0,
      "soil_mult": 0.95,
      "humidity_mult": 1.044,
      "raw_dynamic_score": 0.0,
      "dynamic_level": "None"
    },
    {
      "id": "234",
      "country": "China",
      "name": "Cixi",
      "latitude": 30.1761,
      "longitude": 121.2524,
      "base_risk": 9.31,
      "rain_6h_mm": 0.0,
      "humidity_avg": 92.7,
      "soil_moisture_avg": 0.0,
      "rain_mult": 0.0,
      "soil_mult": 0.95,
      "humidity_mult": 1.046,
      "raw_dynamic_score": 0.0,
      "dynamic_level": "None"
    },
    {
      "id": "239",
      "country": "China",
      "name": "Danzhou",
      "latitude": 19.5166,
      "longitude": 109.5752,
      "base_risk": 9.13,
      "rain_6h_mm": 0.0,
      "humidity_avg": 96.5,
      "soil_moisture_avg": 0.0,
      "rain_mult": 0.0,
      "soil_mult": 0.95,
      "humidity_mult": 1.048,
      "raw_dynamic_score": 0.0,
      "dynamic_level": "None"
    },
    {
      "id": "240",
      "country": "China",
      "name": "Daqing",
      "latitude": 46.5833,
      "longitude": 125.0,
      "base_risk": 9.32,
      "rain_6h_mm": 0.0,
      "humidity_avg": 63.2,
      "soil_moisture_avg": 0.0,
      "rain_mult": 0.0,
      "soil_mult": 0.95,
      "humidity_mult": 1.032,
      "raw_dynamic_score": 0.0,
      "dynamic_level": "None"
    },
    {
      "id": "241",
      "country": "China",
      "name": "Dashiqiao",
      "latitude": 40.6373,
      "longitude": 122.5025,
      "base_risk": 9.43,
      "rain_6h_mm": 0.0,
      "humidity_avg": 87.8,
      "soil_moisture_avg": 0.0,
      "rain_mult": 0.0,
      "soil_mult": 0.95,
      "humidity_mult": 1.044,
      "raw_dynamic_score": 0.0,
      "dynamic_level": "None"
    },
    {
      "id": "242",
      "country": "China",
      "name": "Datong",
      "latitude": 40.0805,
      "longitude": 113.293,
      "base_risk": 8.64,
      "rain_6h_mm": 0.0,
      "humidity_avg": 78.0,
      "soil_moisture_avg": 0.0,
      "rain_mult": 0.0,
      "soil_mult": 0.95,
      "humidity_mult": 1.039,
      "raw_dynamic_score": 0.0,
      "dynamic_level": "None"
    },
    {
      "id": "247",
      "country": "China",
      "name": "Deyang",
      "latitude": 31.1302,
      "longitude": 104.382,
      "base_risk": 8.94,
      "rain_6h_mm": 0.7,
      "humidity_avg": 94.3,
      "soil_moisture_avg": 0.0,
      "rain_mult": 0.007,
      "soil_mult": 0.95,
      "humidity_mult": 1.047,
      "raw_dynamic_score": 0.062,
      "dynamic_level": "Low"
    },
    {
      "id": "248",
      "country": "China",
      "name": "Dezhou",
      "latitude": 37.4518,
      "longitude": 116.301,
      "base_risk": 9.16,
      "rain_6h_mm": 0.0,
      "humidity_avg": 75.0,
      "soil_moisture_avg": 0.0,
      "rain_mult": 0.0,
      "soil_mult": 0.95,
      "humidity_mult": 1.038,
      "raw_dynamic_score": 0.0,
      "dynamic_level": "None"
    },
    {
      "id": "249",
      "country": "China",
      "name": "Dingzhou",
      "latitude": 38.5131,
      "longitude": 114.9956,
      "base_risk": 8.79,
      "rain_6h_mm": 0.0,
      "humidity_avg": 88.2,
      "soil_moisture_avg": 0.0,
      "rain_mult": 0.0,
      "soil_mult": 0.95,
      "humidity_mult": 1.044,
      "raw_dynamic_score": 0.0,
      "dynamic_level": "None"
    },
    {
      "id": "250",
      "country": "China",
      "name": "Donggang",
      "latitude": 39.8834,
      "longitude": 124.1462,
      "base_risk": 9.16,
      "rain_6h_mm": 0.0,
      "humidity_avg": 92.7,
      "soil_moisture_avg": 0.0,
      "rain_mult": 0.0,
      "soil_mult": 0.95,
      "humidity_mult": 1.046,
      "raw_dynamic_score": 0.0,
      "dynamic_level": "None"
    },
    {
      "id": "255",
      "country": "China",
      "name": "Dujiangyan",
      "latitude": 30.9966,
      "longitude": 103.6281,
      "base_risk": 8.88,
      "rain_6h_mm": 0.0,
      "humidity_avg": 99.5,
      "soil_moisture_avg": 0.0,
      "rain_mult": 0.0,
      "soil_mult": 0.95,
      "humidity_mult": 1.05,
      "raw_dynamic_score": 0.0,
      "dynamic_level": "None"
    },
    {
      "id": "256",
      "country": "China",
      "name": "Emeishan",
      "latitude": 29.6007,
      "longitude": 103.4856,
      "base_risk": 9.4,
      "rain_6h_mm": 0.0,
      "humidity_avg": 92.7,
      "soil_moisture_avg": 0.0,
      "rain_mult": 0.0,
      "soil_mult": 0.95,
      "humidity_mult": 1.046,
      "raw_dynamic_score": 0.0,
      "dynamic_level": "None"
    },
    {
      "id": "257",
      "country": "China",
      "name": "Enping",
      "latitude": 22.1853,
      "longitude": 112.3048,
      "base_risk": 8.94,
      "rain_6h_mm": 0.0,
      "humidity_avg": 90.2,
      "soil_moisture_avg": 0.0,
      "rain_mult": 0.0,
      "soil_mult": 0.95,
      "humidity_mult": 1.045,
      "raw_dynamic_score": 0.0,
      "dynamic_level": "None"
    },
    {
      "id": "258",
      "country": "China",
      "name": "Enshi",
      "latitude": 30.2902,
      "longitude": 109.4785,
      "base_risk": 9.13,
      "rain_6h_mm": 0.0,
      "humidity_avg": 78.5,
      "soil_moisture_avg": 0.0,
      "rain_mult": 0.0,
      "soil_mult": 0.95,
      "humidity_mult": 1.039,
      "raw_dynamic_score": 0.0,
      "dynamic_level": "None"
    },
    {
      "id": "259",
      "country": "China",
      "name": "Erduosi (Ordoss)",
      "latitude": 39.5917,
      "longitude": 109.7666,
      "base_risk": 8.74,
      "rain_6h_mm": 0.0,
      "humidity_avg": 83.7,
      "soil_moisture_avg": 0.0,
      "rain_mult": 0.0,
      "soil_mult": 0.95,
      "humidity_mult": 1.042,
      "raw_dynamic_score": 0.0,
      "dynamic_level": "None"
    },
    {
      "id": "264",
      "country": "China",
      "name": "Foshan",
      "latitude": 23.0228,
      "longitude": 113.12,
      "base_risk": 9.09,
      "rain_6h_mm": 0.0,
      "humidity_avg": 84.0,
      "soil_moisture_avg": 0.0,
      "rain_mult": 0.0,
      "soil_mult": 0.95,
      "humidity_mult": 1.042,
      "raw_dynamic_score": 0.0,
      "dynamic_level": "None"
    },
    {
      "id": "265",
      "country": "China",
      "name": "Fuan",
      "latitude": 27.0881,
      "longitude": 119.6454,
      "base_risk": 9.2,
      "rain_6h_mm": 0.0,
      "humidity_avg": 96.2,
      "soil_moisture_avg": 0.0,
      "rain_mult": 0.0,
      "soil_mult": 0.95,
      "humidity_mult": 1.048,
      "raw_dynamic_score": 0.0,
      "dynamic_level": "None"
    },
    {
      "id": "266",
      "country": "China",
      "name": "Fujin",
      "latitude": 47.2485,
      "longitude": 132.0373,
      "base_risk": 9.43,
      "rain_6h_mm": 0.7,
      "humidity_avg": 66.0,
      "soil_moisture_avg": 0.0,
      "rain_mult": 0.007,
      "soil_mult": 0.95,
      "humidity_mult": 1.033,
      "raw_dynamic_score": 0.065,
      "dynamic_level": "Low"
    },
    {
      "id": "267",
      "country": "China",
      "name": "Fuqing",
      "latitude": 25.725,
      "longitude": 119.3794,
      "base_risk": 9.43,
      "rain_6h_mm": 0.0,
      "humidity_avg": 79.2,
      "soil_moisture_avg": 0.0,
      "rain_mult": 0.0,
      "soil_mult": 0.95,
      "humidity_mult": 1.04,
      "raw_dynamic_score": 0.0,
      "dynamic_level": "None"
    },
    {
      "id": "272",
      "country": "China",
      "name": "Fuzhou, Jiangxi",
      "latitude": 27.9812,
      "longitude": 116.3557,
      "base_risk": 9.36,
      "rain_6h_mm": 0.0,
      "humidity_avg": 92.8,
      "soil_moisture_avg": 0.0,
      "rain_mult": 0.0,
      "soil_mult": 0.95,
      "humidity_mult": 1.046,
      "raw_dynamic_score": 0.0,
      "dynamic_level": "None"
    },
    {
      "id": "273",
      "country": "China",
      "name": "Ganzhou",
      "latitude": 25.85,
      "longitude": 114.9333,
      "base_risk": 8.63,
      "rain_6h_mm": 0.0,
      "humidity_avg": 90.8,
      "soil_moisture_avg": 0.0,
      "rain_mult": 0.0,
      "soil_mult": 0.95,
      "humidity_mult": 1.045,
      "raw_dynamic_score": 0.0,
      "dynamic_level": "None"
    },
    {
      "id": "274",
      "country": "China",
      "name": "Gaoan",
      "latitude": 28.4271,
      "longitude": 115.3722,
      "base_risk": 9.0,
      "rain_6h_mm": 0.0,
      "humidity_avg": 85.5,
      "soil_moisture_avg": 0.0,
      "rain_mult": 0.0,
      "soil_mult": 0.95,
      "humidity_mult": 1.043,
      "raw_dynamic_score": 0.0,
      "dynamic_level": "None"
    },
    {
      "id": "275",
      "country": "China",
      "name": "Gaomi",
      "latitude": 36.3833,
      "longitude": 119.7528,
      "base_risk": 9.13,
      "rain_6h_mm": 0.0,
      "humidity_avg": 92.8,
      "soil_moisture_avg": 0.0,
      "rain_mult": 0.0,
      "soil_mult": 0.95,
      "humidity_mult": 1.046,
      "raw_dynamic_score": 0.0,
      "dynamic_level": "None"
    },
    {
      "id": "279",
      "country": "China",
      "name": "Gongyi",
      "latitude": 34.76,
      "longitude": 112.9714,
      "base_risk": 9.2,
      "rain_6h_mm": 0.0,
      "humidity_avg": 71.7,
      "soil_moisture_avg": 0.0,
      "rain_mult": 0.0,
      "soil_mult": 0.95,
      "humidity_mult": 1.036,
      "raw_dynamic_score": 0.0,
      "dynamic_level": "None"
    },
    {
      "id": "281",
      "country": "China",
      "name": "Guang'an",
      "latitude": 30.4639,
      "longitude": 106.6351,
      "base_risk": 9.03,
      "rain_6h_mm": 0.0,
      "humidity_avg": 75.7,
      "soil_moisture_avg": 0.0,
      "rain_mult": 0.0,
      "soil_mult": 0.95,
      "humidity_mult": 1.038,
      "raw_dynamic_score": 0.0,
      "dynamic_level": "None"
    },
    {
      "id": "282",
      "country": "China",
      "name": "Guangyuan",
      "latitude": 32.442,
      "longitude": 105.823,
      "base_risk": 9.36,
      "rain_6h_mm": 1.0,
      "humidity_avg": 91.3,
      "soil_moisture_avg": 0.0,
      "rain_mult": 0.01,
      "soil_mult": 0.95,
      "humidity_mult": 1.046,
      "raw_dynamic_score": 0.093,
      "dynamic_level": "Low"
    },
    {
      "id": "283",
      "country": "China",
      "name": "Guangzhou, Guangdong",
      "latitude": 23.1255,
      "longitude": 113.2574,
      "base_risk": 9.5,
      "rain_6h_mm": 0.0,
      "humidity_avg": 85.2,
      "soil_moisture_avg": 0.0,
      "rain_mult": 0.0,
      "soil_mult": 0.95,
      "humidity_mult": 1.043,
      "raw_dynamic_score": 0.0,
      "dynamic_level": "None"
    },
    {
      "id": "287",
      "country": "China",
      "name": "Guiyang",
      "latitude": 26.5833,
      "longitude": 106.7167,
      "base_risk": 8.82,
      "rain_6h_mm": 0.0,
      "humidity_avg": 96.5,
      "soil_moisture_avg": 0.0,
      "rain_mult": 0.0,
      "soil_mult": 0.95,
      "humidity_mult": 1.048,
      "raw_dynamic_score": 0.0,
      "dynamic_level": "None"
    },
    {
      "id": "288",
      "country": "China",
      "name": "Haerbin",
      "latitude": 45.7563,
      "longitude": 126.6467,
      "base_risk": 9.37,
      "rain_6h_mm": 0.0,
      "humidity_avg": 84.0,
      "soil_moisture_avg": 0.0,
      "rain_mult": 0.0,
      "soil_mult": 0.95,
      "humidity_mult": 1.042,
      "raw_dynamic_score": 0.0,
      "dynamic_level": "None"
    },
    {
      "id": "290",
      "country": "China",
      "name": "Haikou",
      "latitude": 20.0274,
      "longitude": 110.3301,
      "base_risk": 8.85,
      "rain_6h_mm": 0.0,
      "humidity_avg": 88.5,
      "soil_moisture_avg": 0.0,
      "rain_mult": 0.0,
      "soil_mult": 0.95,
      "humidity_mult": 1.044,
      "raw_dynamic_score": 0.0,
      "dynamic_level": "None"
    },
    {
      "id": "291",
      "country": "China",
      "name": "Hailin",
      "latitude": 44.5769,
      "longitude": 129.3896,
      "base_risk": 8.59,
      "rain_6h_mm": 0.7,
      "humidity_avg": 85.7,
      "soil_moisture_avg": 0.0,
      "rain_mult": 0.007,
      "soil_mult": 0.95,
      "humidity_mult": 1.043,
      "raw_dynamic_score": 0.06,
      "dynamic_level": "Low"
    },
    {
      "id": "296",
      "country": "China",
      "name": "Hanchuan",
      "latitude": 30.6516,
      "longitude": 113.8329,
      "base_risk": 9.14,
      "rain_6h_mm": 1.0,
      "humidity_avg": 76.7,
      "soil_moisture_avg": 0.0,
      "rain_mult": 0.01,
      "soil_mult": 0.95,
      "humidity_mult": 1.038,
      "raw_dynamic_score": 0.09,
      "dynamic_level": "Low"
    },
    {
      "id": "297",
      "country": "China",
      "name": "Handan",
      "latitude": 36.6006,
      "longitude": 114.4678,
      "base_risk": 8.73,
      "rain_6h_mm": 0.0,
      "humidity_avg": 79.8,
      "soil_moisture_avg": 0.0,
      "rain_mult": 0.0,
      "soil_mult": 0.95,
      "humidity_mult": 1.04,
      "raw_dynamic_score": 0.0,
      "dynamic_level": "None"
    },
    {
      "id": "298",
      "country": "China",
      "name": "Hangzhou",
      "latitude": 30.2937,
      "longitude": 120.1614,
      "base_risk": 9.47,
      "rain_6h_mm": 0.1,
      "humidity_avg": 91.3,
      "soil_moisture_avg": 0.0,
      "rain_mult": 0.001,
      "soil_mult": 0.95,
      "humidity_mult": 1.046,
      "raw_dynamic_score": 0.009,
      "dynamic_level": "Low"
    },
    {
      "id": "299",
      "country": "China",
      "name": "Hanzhong",
      "latitude": 33.0728,
      "longitude": 107.0303,
      "base_risk": 9.06,
      "rain_6h_mm": 0.0,
      "humidity_avg": 88.7,
      "soil_moisture_avg": 0.0,
      "rain_mult": 0.0,
      "soil_mult": 0.95,
      "humidity_mult": 1.044,
      "raw_dynamic_score": 0.0,
      "dynamic_level": "None"
    },
    {
      "id": "304",
      "country": "China",
      "name": "Hejian",
      "latitude": 38.4425,
      "longitude": 116.0949,
      "base_risk": 9.31,
      "rain_6h_mm": 0.0,
      "humidity_avg": 87.3,
      "soil_moisture_avg": 0.0,
      "rain_mult": 0.0,
      "soil_mult": 0.95,
      "humidity_mult": 1.044,
      "raw_dynamic_score": 0.0,
      "dynamic_level": "None"
    },
    {
      "id": "305",
      "country": "China",
      "name": "Hengshui",
      "latitude": 37.7411,
      "longitude": 115.6781,
      "base_risk": 9.14,
      "rain_6h_mm": 0.0,
      "humidity_avg": 75.3,
      "soil_moisture_avg": 0.0,
      "rain_mult": 0.0,
      "soil_mult": 0.95,
      "humidity_mult": 1.038,
      "raw_dynamic_score": 0.0,
      "dynamic_level": "None"
    },
    {
      "id": "306",
      "country": "China",
      "name": "Hengyang",
      "latitude": 26.8841,
      "longitude": 112.6251,
      "base_risk": 8.99,
      "rain_6h_mm": 0.0,
      "humidity_avg": 84.5,
      "soil_moisture_avg": 0.0,
      "rain_mult": 0.0,
      "soil_mult": 0.95,
      "humidity_mult": 1.042,
      "raw_dynamic_score": 0.0,
      "dynamic_level": "None"
    },
    {
      "id": "307",
      "country": "China",
      "name": "Heshan",
      "latitude": 22.7659,
      "longitude": 112.959,
      "base_risk": 9.5,
      "rain_6h_mm": 0.0,
      "humidity_avg": 87.3,
      "soil_moisture_avg": 0.0,
      "rain_mult": 0.0,
      "soil_mult": 0.95,
      "humidity_mult": 1.044,
      "raw_dynamic_score": 0.0,
      "dynamic_level": "None"
    },
    {
      "id": "312",
      "country": "China",
      "name": "Huai'an",
      "latitude": 33.607,
      "longitude": 119.0148,
      "base_risk": 9.47,
      "rain_6h_mm": 0.0,
      "humidity_avg": 93.3,
      "soil_moisture_avg": 0.0,
      "rain_mult": 0.0,
      "soil_mult": 0.95,
      "humidity_mult": 1.047,
      "raw_dynamic_score": 0.0,
      "dynamic_level": "None"
    },
    {
      "id": "313",
      "country": "China",
      "name": "Huaibei",
      "latitude": 33.9549,
      "longitude": 116.7929,
      "base_risk": 9.23,
      "rain_6h_mm": 0.0,
      "humidity_avg": 80.7,
      "soil_moisture_avg": 0.0,
      "rain_mult": 0.0,
      "soil_mult": 0.95,
      "humidity_mult": 1.04,
      "raw_dynamic_score": 0.0,
      "dynamic_level": "None"
    },
    {
      "id": "314",
      "country": "China",
      "name": "Huaihua",
      "latitude": 27.5494,
      "longitude": 109.9592,
      "base_risk": 9.44,
      "rain_6h_mm": 0.0,
      "humidity_avg": 81.7,
      "soil_moisture_avg": 0.0,
      "rain_mult": 0.0,
      "soil_mult": 0.95,
      "humidity_mult": 1.041,
      "raw_dynamic_score": 0.0,
      "dynamic_level": "None"
    },
    {
      "id": "315",
      "country": "China",
      "name": "Huainan",
      "latitude": 32.6264,
      "longitude": 116.9969,
      "base_risk": 9.11,
      "rain_6h_mm": 0.0,
      "humidity_avg": 74.5,
      "soil_moisture_avg": 0.0,
      "rain_mult": 0.0,
      "soil_mult": 0.95,
      "humidity_mult": 1.037,
      "raw_dynamic_score": 0.0,
      "dynamic_level": "None"
    },
    {
      "id": "320",
      "country": "China",
      "name": "Huizhou",
      "latitude": 23.0833,
      "longitude": 114.4,
      "base_risk": 9.06,
      "rain_6h_mm": 0.0,
      "humidity_avg": 84.5,
      "soil_moisture_avg": 0.0,
      "rain_mult": 0.0,
      "soil_mult": 0.95,
      "humidity_mult": 1.042,
      "raw_dynamic_score": 0.0,
      "dynamic_level": "None"
    },
    {
      "id": "321",
      "country": "China",
      "name": "Huludao",
      "latitude": 40.7524,
      "longitude": 120.8355,
      "base_risk": 9.31,
      "rain_6h_mm": 0.0,
      "humidity_avg": 78.5,
      "soil_moisture_avg": 0.0,
      "rain_mult": 0.0,
      "soil_mult": 0.95,
      "humidity_mult": 1.039,
      "raw_dynamic_score": 0.0,
      "dynamic_level": "None"
    },
    {
      "id": "322",
      "country": "China",
      "name": "Huzhou",
      "latitude": 30.8703,
      "longitude": 120.0933,
      "base_risk": 9.07,
      "rain_6h_mm": 0.1,
      "humidity_avg": 94.8,
      "soil_moisture_avg": 0.0,
      "rain_mult": 0.001,
      "soil_mult": 0.95,
      "humidity_mult": 1.047,
      "raw_dynamic_score": 0.009,
      "dynamic_level": "Low"
    },
    {
      "id": "323",
      "country": "China",
      "name": "Jiamusi",
      "latitude": 46.7979,
      "longitude": 130.3302,
      "base_risk": 9.05,
      "rain_6h_mm": 2.0,
      "humidity_avg": 78.0,
      "soil_moisture_avg": 0.0,
      "rain_mult": 0.02,
      "soil_mult": 0.95,
      "humidity_mult": 1.039,
      "raw_dynamic_score": 0.179,
      "dynamic_level": "Low"
    },
    {
      "id": "328",
      "country": "China",
      "name": "Jiaozhou",
      "latitude": 36.2839,
      "longitude": 120.0033,
      "base_risk": 9.02,
      "rain_6h_mm": 0.0,
      "humidity_avg": 94.0,
      "soil_moisture_avg": 0.0,
      "rain_mult": 0.0,
      "soil_mult": 0.95,
      "humidity_mult": 1.047,
      "raw_dynamic_score": 0.0,
      "dynamic_level": "None"
    },
    {
      "id": "329",
      "country": "China",
      "name": "Jiaozuo",
      "latitude": 35.2397,
      "longitude": 113.2331,
      "base_risk": 8.72,
      "rain_6h_mm": 0.0,
      "humidity_avg": 69.0,
      "soil_moisture_avg": 0.0,
      "rain_mult": 0.0,
      "soil_mult": 0.95,
      "humidity_mult": 1.034,
      "raw_dynamic_score": 0.0,
      "dynamic_level": "None"
    },
    {
      "id": "330",
      "country": "China",
      "name": "Jiaxing",
      "latitude": 30.7665,
      "longitude": 120.7482,
      "base_risk": 8.97,
      "rain_6h_mm": 0.0,
      "humidity_avg": 95.5,
      "soil_moisture_avg": 0.0,
      "rain_mult": 0.0,
      "soil_mult": 0.95,
      "humidity_mult": 1.048,
      "raw_dynamic_score": 0.0,
      "dynamic_level": "None"
    },
    {
      "id": "331",
      "country": "China",
      "name": "Jiayuguan",
      "latitude": 39.808,
      "longitude": 98.2761,
      "base_risk": 9.29,
      "rain_6h_mm": 0.6,
      "humidity_avg": 44.3,
      "soil_moisture_avg": 0.0,
      "rain_mult": 0.006,
      "soil_mult": 0.95,
      "humidity_mult": 1.022,
      "raw_dynamic_score": 0.054,
      "dynamic_level": "Low"
    },
    {
      "id": "336",
      "country": "China",
      "name": "Jingdezhen",
      "latitude": 29.2947,
      "longitude": 117.2079,
      "base_risk": 9.23,
      "rain_6h_mm": 0.1,
      "humidity_avg": 82.3,
      "soil_moisture_avg": 0.0,
      "rain_mult": 0.001,
      "soil_mult": 0.95,
      "humidity_mult": 1.041,
      "raw_dynamic_score": 0.009,
      "dynamic_level": "Low"
    },
    {
      "id": "337",
      "country": "China",
      "name": "Jingjiang",
      "latitude": 32.012,
      "longitude": 120.2627,
      "base_risk": 9.47,
      "rain_6h_mm": 0.0,
      "humidity_avg": 95.3,
      "soil_moisture_avg": 0.0,
      "rain_mult": 0.0,
      "soil_mult": 0.95,
      "humidity_mult": 1.048,
      "raw_dynamic_score": 0.0,
      "dynamic_level": "None"
    },
    {
      "id": "338",
      "country": "China",
      "name": "Jingmen",
      "latitude": 31.0417,
      "longitude": 112.2003,
      "base_risk": 9.46,
      "rain_6h_mm": 0.0,
      "humidity_avg": 65.3,
      "soil_moisture_avg": 0.0,
      "rain_mult": 0.0,
      "soil_mult": 0.95,
      "humidity_mult": 1.033,
      "raw_dynamic_score": 0.0,
      "dynamic_level": "None"
    },
    {
      "id": "339",
      "country": "China",
      "name": "Jingzhou, Hubei",
      "latitude": 30.3276,
      "longitude": 112.2484,
      "base_risk": 9.25,
      "rain_6h_mm": 0.0,
      "humidity_avg": 72.0,
      "soil_moisture_avg": 0.0,
      "rain_mult": 0.0,
      "soil_mult": 0.95,
      "humidity_mult": 1.036,
      "raw_dynamic_score": 0.0,
      "dynamic_level": "None"
    },
    {
      "id": "344",
      "country": "China",
      "name": "Jinzhou",
      "latitude": 41.1078,
      "longitude": 121.1417,
      "base_risk": 9.47,
      "rain_6h_mm": 0.0,
      "humidity_avg": 75.5,
      "soil_moisture_avg": 0.0,
      "rain_mult": 0.0,
      "soil_mult": 0.95,
      "humidity_mult": 1.038,
      "raw_dynamic_score": 0.0,
      "dynamic_level": "None"
    },
    {
      "id": "345",
      "country": "China",
      "name": "Jiujiang",
      "latitude": 29.7041,
      "longitude": 116.0013,
      "base_risk": 8.61,
      "rain_6h_mm": 2.1,
      "humidity_avg": 81.2,
      "soil_moisture_avg": 0.0,
      "rain_mult": 0.021,
      "soil_mult": 0.95,
      "humidity_mult": 1.041,
      "raw_dynamic_score": 0.179,
      "dynamic_level": "Low"
    },
    {
      "id": "346",
      "country": "China",
      "name": "Jiuquan",
      "latitude": 39.738,
      "longitude": 98.5042,
      "base_risk": 9.25,
      "rain_6h_mm": 0.7,
      "humidity_avg": 46.3,
      "soil_moisture_avg": 0.0,
      "rain_mult": 0.007,
      "soil_mult": 0.95,
      "humidity_mult": 1.023,
      "raw_dynamic_score": 0.063,
      "dynamic_level": "Low"
    },
    {
      "id": "347",
      "country": "China",
      "name": "Jixi, Heilongjiang",
      "latitude": 45.2958,
      "longitude": 130.9701,
      "base_risk": 8.96,
      "rain_6h_mm": 1.1,
      "humidity_avg": 81.5,
      "soil_moisture_avg": 0.0,
      "rain_mult": 0.011,
      "soil_mult": 0.95,
      "humidity_mult": 1.041,
      "raw_dynamic_score": 0.097,
      "dynamic_level": "Low"
    },
    {
      "id": "352",
      "country": "China",
      "name": "Kaiping",
      "latitude": 22.3724,
      "longitude": 112.7026,
      "base_risk": 9.24,
      "rain_6h_mm": 0.0,
      "humidity_avg": 91.2,
      "soil_moisture_avg": 0.0,
      "rain_mult": 0.0,
      "soil_mult": 0.95,
      "humidity_mult": 1.046,
      "raw_dynamic_score": 0.0,
      "dynamic_level": "None"
    },
    {
      "id": "353",
      "country": "China",
      "name": "Kelamayi",
      "latitude": 45.5941,
      "longitude": 84.8729,
      "base_risk": 9.23,
      "rain_6h_mm": 0.0,
      "humidity_avg": 56.8,
      "soil_moisture_avg": 0.0,
      "rain_mult": 0.0,
      "soil_mult": 0.95,
      "humidity_mult": 1.028,
      "raw_dynamic_score": 0.0,
      "dynamic_level": "None"
    },
    {
      "id": "354",
      "country": "China",
      "name": "Kuerle",
      "latitude": 41.7646,
      "longitude": 86.1472,
      "base_risk": 9.37,
      "rain_6h_mm": 0.0,
      "humidity_avg": 57.3,
      "soil_moisture_avg": 0.0,
      "rain_mult": 0.0,
      "soil_mult": 0.95,
      "humidity_mult": 1.029,
      "raw_dynamic_score": 0.0,
      "dynamic_level": "None"
    },
    {
      "id": "355",
      "country": "China",
      "name": "Kunming",
      "latitude": 25.0389,
      "longitude": 102.7183,
      "base_risk": 9.25,
      "rain_6h_mm": 0.0,
      "humidity_avg": 91.5,
      "soil_moisture_avg": 0.0,
      "rain_mult": 0.0,
      "soil_mult": 0.95,
      "humidity_mult": 1.046,
      "raw_dynamic_score": 0.0,
      "dynamic_level": "None"
    },
    {
      "id": "360",
      "country": "China",
      "name": "Laiyang",
      "latitude": 36.9758,
      "longitude": 120.7136,
      "base_risk": 9.24,
      "rain_6h_mm": 0.0,
      "humidity_avg": 96.2,
      "soil_moisture_avg": 0.0,
      "rain_mult": 0.0,
      "soil_mult": 0.95,
      "humidity_mult": 1.048,
      "raw_dynamic_score": 0.0,
      "dynamic_level": "None"
    },
    {
      "id": "361",
      "country": "China",
      "name": "Laizhou",
      "latitude": 37.1797,
      "longitude": 119.943,
      "base_risk": 9.32,
      "rain_6h_mm": 0.0,
      "humidity_avg": 90.8,
      "soil_moisture_avg": 0.0,
      "rain_mult": 0.0,
      "soil_mult": 0.95,
      "humidity_mult": 1.045,
      "raw_dynamic_score": 0.0,
      "dynamic_level": "None"
    },
    {
      "id": "362",
      "country": "China",
      "name": "Langfang",
      "latitude": 39.5097,
      "longitude": 116.6947,
      "base_risk": 8.99,
      "rain_6h_mm": 0.0,
      "humidity_avg": 92.7,
      "soil_moisture_avg": 0.0,
      "rain_mult": 0.0,
      "soil_mult": 0.95,
      "humidity_mult": 1.046,
      "raw_dynamic_score": 0.0,
      "dynamic_level": "None"
    },
    {
      "id": "363",
      "country": "China",
      "name": "Lanzhou",
      "latitude": 36.0564,
      "longitude": 103.7922,
      "base_risk": 9.02,
      "rain_6h_mm": 0.2,
      "humidity_avg": 87.3,
      "soil_moisture_avg": 0.0,
      "rain_mult": 0.002,
      "soil_mult": 0.95,
      "humidity_mult": 1.044,
      "raw_dynamic_score": 0.018,
      "dynamic_level": "Low"
    },
    {
      "id": "367",
      "country": "China",
      "name": "Leshan",
      "latitude": 29.5762,
      "longitude": 103.759,
      "base_risk": 8.97,
      "rain_6h_mm": 0.1,
      "humidity_avg": 87.7,
      "soil_moisture_avg": 0.0,
      "rain_mult": 0.001,
      "soil_mult": 0.95,
      "humidity_mult": 1.044,
      "raw_dynamic_score": 0.009,
      "dynamic_level": "Low"
    },
    {
      "id": "368",
      "country": "China",
      "name": "Lianyungang",
      "latitude": 34.5969,
      "longitude": 119.1758,
      "base_risk": 9.49,
      "rain_6h_mm": 0.0,
      "humidity_avg": 91.2,
      "soil_moisture_avg": 0.0,
      "rain_mult": 0.0,
      "soil_mult": 0.95,
      "humidity_mult": 1.046,
      "raw_dynamic_score": 0.0,
      "dynamic_level": "None"
    },
    {
      "id": "369",
      "country": "China",
      "name": "Liaocheng",
      "latitude": 36.4551,
      "longitude": 115.9826,
      "base_risk": 9.39,
      "rain_6h_mm": 0.0,
      "humidity_avg": 75.5,
      "soil_moisture_avg": 0.0,
      "rain_mult": 0.0,
      "soil_mult": 0.95,
      "humidity_mult": 1.038,
      "raw_dynamic_score": 0.0,
      "dynamic_level": "None"
    },
    {
      "id": "374",
      "country": "China",
      "name": "Linhai",
      "latitude": 28.8529,
      "longitude": 121.1403,
      "base_risk": 9.13,
      "rain_6h_mm": 0.0,
      "humidity_avg": 95.8,
      "soil_moisture_avg": 0.0,
      "rain_mult": 0.0,
      "soil_mult": 0.95,
      "humidity_mult": 1.048,
      "raw_dynamic_score": 0.0,
      "dynamic_level": "None"
    },
    {
      "id": "375",
      "country": "China",
      "name": "Linqing",
      "latitude": 36.8456,
      "longitude": 115.7117,
      "base_risk": 9.39,
      "rain_6h_mm": 0.0,
      "humidity_avg": 75.3,
      "soil_moisture_avg": 0.0,
      "rain_mult": 0.0,
      "soil_mult": 0.95,
      "humidity_mult": 1.038,
      "raw_dynamic_score": 0.0,
      "dynamic_level": "None"
    },
    {
      "id": "376",
      "country": "China",
      "name": "Linyi, Shandong",
      "latitude": 35.0541,
      "longitude": 118.3334,
      "base_risk": 9.35,
      "rain_6h_mm": 0.0,
      "humidity_avg": 91.7,
      "soil_moisture_avg": 0.0,
      "rain_mult": 0.0,
      "soil_mult": 0.95,
      "humidity_mult": 1.046,
      "raw_dynamic_score": 0.0,
      "dynamic_level": "None"
    },
    {
      "id": "377",
      "country": "China",
      "name": "Linzhou",
      "latitude": 36.071,
      "longitude": 113.8156,
      "base_risk": 8.67,
      "rain_6h_mm": 0.0,
      "humidity_avg": 84.5,
      "soil_moisture_avg": 0.0,
      "rain_mult": 0.0,
      "soil_mult": 0.95,
      "humidity_mult": 1.042,
      "raw_dynamic_score": 0.0,
      "dynamic_level": "None"
    },
    {
      "id": "382",
      "country": "China",
      "name": "Liuzhou",
      "latitude": 24.3017,
      "longitude": 109.3784,
      "base_risk": 8.76,
      "rain_6h_mm": 0.0,
      "humidity_avg": 92.0,
      "soil_moisture_avg": 0.0,
      "rain_mult": 0.0,
      "soil_mult": 0.95,
      "humidity_mult": 1.046,
      "raw_dynamic_score": 0.0,
      "dynamic_level": "None"
    },
    {
      "id": "383",
      "country": "China",
      "name": "Liyang",
      "latitude": 31.423,
      "longitude": 119.4837,
      "base_risk": 9.21,
      "rain_6h_mm": 0.0,
      "humidity_avg": 90.8,
      "soil_moisture_avg": 0.0,
      "rain_mult": 0.0,
      "soil_mult": 0.95,
      "humidity_mult": 1.045,
      "raw_dynamic_score": 0.0,
      "dynamic_level": "None"
    },
    {
      "id": "384",
      "country": "China",
      "name": "Longchang",
      "latitude": 29.3394,
      "longitude": 105.2876,
      "base_risk": 9.36,
      "rain_6h_mm": 0.0,
      "humidity_avg": 88.2,
      "soil_moisture_avg": 0.0,
      "rain_mult": 0.0,
      "soil_mult": 0.95,
      "humidity_mult": 1.044,
      "raw_dynamic_score": 0.0,
      "dynamic_level": "None"
    },
    {
      "id": "385",
      "country": "China",
      "name": "Longhai",
      "latitude": 24.4462,
      "longitude": 117.809,
      "base_risk": 9.37,
      "rain_6h_mm": 0.0,
      "humidity_avg": 92.3,
      "soil_moisture_avg": 0.0,
      "rain_mult": 0.0,
      "soil_mult": 0.95,
      "humidity_mult": 1.046,
      "raw_dynamic_score": 0.0,
      "dynamic_level": "None"
    },
    {
      "id": "390",
      "country": "China",
      "name": "Luohe",
      "latitude": 33.5731,
      "longitude": 114.0241,
      "base_risk": 9.13,
      "rain_6h_mm": 0.0,
      "humidity_avg": 74.7,
      "soil_moisture_avg": 0.0,
      "rain_mult": 0.0,
      "soil_mult": 0.95,
      "humidity_mult": 1.037,
      "raw_dynamic_score": 0.0,
      "dynamic_level": "None"
    },
    {
      "id": "391",
      "country": "China",
      "name": "Luoyang",
      "latitude": 34.6186,
      "longitude": 112.4562,
      "base_risk": 9.35,
      "rain_6h_mm": 0.0,
      "humidity_avg": 73.7,
      "soil_moisture_avg": 0.0,
      "rain_mult": 0.0,
      "soil_mult": 0.95,
      "humidity_mult": 1.037,
      "raw_dynamic_score": 0.0,
      "dynamic_level": "None"
    },
    {
      "id": "392",
      "country": "China",
      "name": "Luzhou",
      "latitude": 28.8775,
      "longitude": 105.4408,
      "base_risk": 9.29,
      "rain_6h_mm": 0.0,
      "humidity_avg": 90.0,
      "soil_moisture_avg": 0.0,
      "rain_mult": 0.0,
      "soil_mult": 0.95,
      "humidity_mult": 1.045,
      "raw_dynamic_score": 0.0,
      "dynamic_level": "None"
    },
    {
      "id": "393",
      "country": "China",
      "name": "Lvliang",
      "latitude": 37.5195,
      "longitude": 111.1318,
      "base_risk": 9.12,
      "rain_6h_mm": 0.1,
      "humidity_avg": 77.3,
      "soil_moisture_avg": 0.0,
      "rain_mult": 0.001,
      "soil_mult": 0.95,
      "humidity_mult": 1.039,
      "raw_dynamic_score": 0.009,
      "dynamic_level": "Low"
    },
    {
      "id": "394",
      "country": "China",
      "name": "Ma'anshan",
      "latitude": 31.7071,
      "longitude": 118.5038,
      "base_risk": 9.18,
      "rain_6h_mm": 0.0,
      "humidity_avg": 81.5,
      "soil_moisture_avg": 0.0,
      "rain_mult": 0.0,
      "soil_mult": 0.95,
      "humidity_mult": 1.041,
      "raw_dynamic_score": 0.0,
      "dynamic_level": "None"
    },
    {
      "id": "399",
      "country": "China",
      "name": "Meizhou",
      "latitude": 24.2989,
      "longitude": 116.1214,
      "base_risk": 9.45,
      "rain_6h_mm": 0.0,
      "humidity_avg": 90.8,
      "soil_moisture_avg": 0.0,
      "rain_mult": 0.0,
      "soil_mult": 0.95,
      "humidity_mult": 1.045,
      "raw_dynamic_score": 0.0,
      "dynamic_level": "None"
    },
    {
      "id": "400",
      "country": "China",
      "name": "Mianyang, Sichuan",
      "latitude": 31.4839,
      "longitude": 104.737,
      "base_risk": 9.43,
      "rain_6h_mm": 1.1,
      "humidity_avg": 90.5,
      "soil_moisture_avg": 0.0,
      "rain_mult": 0.011,
      "soil_mult": 0.95,
      "humidity_mult": 1.045,
      "raw_dynamic_score": 0.103,
      "dynamic_level": "Low"
    },
    {
      "id": "401",
      "country": "China",
      "name": "Miluo",
      "latitude": 28.8069,
      "longitude": 113.0721,
      "base_risk": 8.82,
      "rain_6h_mm": 0.0,
      "humidity_avg": 80.8,
      "soil_moisture_avg": 0.0,
      "rain_mult": 0.0,
      "soil_mult": 0.95,
      "humidity_mult": 1.04,
      "raw_dynamic_score": 0.0,
      "dynamic_level": "None"
    },
    {
      "id": "402",
      "country": "China",
      "name": "Mudanjiang",
      "latitude": 44.5833,
      "longitude": 129.6,
      "base_risk": 9.45,
      "rain_6h_mm": 0.5,
      "humidity_avg": 84.7,
      "soil_moisture_avg": 0.0,
      "rain_mult": 0.005,
      "soil_mult": 0.95,
      "humidity_mult": 1.042,
      "raw_dynamic_score": 0.047,
      "dynamic_level": "Low"
    },
    {
      "id": "407",
      "country": "China",
      "name": "Nanning",
      "latitude": 22.8167,
      "longitude": 108.3167,
      "base_risk": 9.5,
      "rain_6h_mm": 0.0,
      "humidity_avg": 92.2,
      "soil_moisture_avg": 0.0,
      "rain_mult": 0.0,
      "soil_mult": 0.95,
      "humidity_mult": 1.046,
      "raw_dynamic_score": 0.0,
      "dynamic_level": "None"
    },
    {
      "id": "408",
      "country": "China",
      "name": "Nanping",
      "latitude": 26.6433,
      "longitude": 118.1741,
      "base_risk": 9.03,
      "rain_6h_mm": 0.0,
      "humidity_avg": 98.3,
      "soil_moisture_avg": 0.0,
      "rain_mult": 0.0,
      "soil_mult": 0.95,
      "humidity_mult": 1.049,
      "raw_dynamic_score": 0.0,
      "dynamic_level": "None"
    },
    {
      "id": "409",
      "country": "China",
      "name": "Nantong",
      "latitude": 31.9904,
      "longitude": 120.8655,
      "base_risk": 8.72,
      "rain_6h_mm": 0.0,
      "humidity_avg": 91.0,
      "soil_moisture_avg": 0.0,
      "rain_mult": 0.0,
      "soil_mult": 0.95,
      "humidity_mult": 1.046,
      "raw_dynamic_score": 0.0,
      "dynamic_level": "None"
    },
    {
      "id": "410",
      "country": "China",
      "name": "Nanyang, Henan",
      "latitude": 32.9999,
      "longitude": 112.5259,
      "base_risk": 9.48,
      "rain_6h_mm": 0.0,
      "humidity_avg": 59.8,
      "soil_moisture_avg": 0.0,
      "rain_mult": 0.0,
      "soil_mult": 0.95,
      "humidity_mult": 1.03,
      "raw_dynamic_score": 0.0,
      "dynamic_level": "None"
    },
    {
      "id": "414",
      "country": "China",
      "name": "Ningguo",
      "latitude": 30.6209,
      "longitude": 118.9796,
      "base_risk": 9.37,
      "rain_6h_mm": 0.0,
      "humidity_avg": 91.8,
      "soil_moisture_avg": 0.0,
      "rain_mult": 0.0,
      "soil_mult": 0.95,
      "humidity_mult": 1.046,
      "raw_dynamic_score": 0.0,
      "dynamic_level": "None"
    },
    {
      "id": "416",
      "country": "China",
      "name": "Panzhihua",
      "latitude": 26.5851,
      "longitude": 101.7128,
      "base_risk": 9.15,
      "rain_6h_mm": 0.0,
      "humidity_avg": 92.0,
      "soil_moisture_avg": 0.0,
      "rain_mult": 0.0,
      "soil_mult": 0.95,
      "humidity_mult": 1.046,
      "raw_dynamic_score": 0.0,
      "dynamic_level": "None"
    },
    {
      "id": "418",
      "country": "China",
      "name": "Pingdu",
      "latitude": 36.7808,
      "longitude": 119.9592,
      "base_risk": 9.42,
      "rain_6h_mm": 0.0,
      "humidity_avg": 93.3,
      "soil_moisture_avg": 0.0,
      "rain_mult": 0.0,
      "soil_mult": 0.95,
      "humidity_mult": 1.047,
      "raw_dynamic_score": 0.0,
      "dynamic_level": "None"
    },
    {
      "id": "419",
      "country": "China",
      "name": "Pinghu",
      "latitude": 30.7037,
      "longitude": 121.0097,
      "base_risk": 9.41,
      "rain_6h_mm": 0.0,
      "humidity_avg": 95.3,
      "soil_moisture_avg": 0.0,
      "rain_mult": 0.0,
      "soil_mult": 0.95,
      "humidity_mult": 1.048,
      "raw_dynamic_score": 0.0,
      "dynamic_level": "None"
    },
    {
      "id": "422",
      "country": "China",
      "name": "Pizhou",
      "latitude": 34.3114,
      "longitude": 117.9503,
      "base_risk": 9.42,
      "rain_6h_mm": 0.0,
      "humidity_avg": 92.3,
      "soil_moisture_avg": 0.0,
      "rain_mult": 0.0,
      "soil_mult": 0.95,
      "humidity_mult": 1.046,
      "raw_dynamic_score": 0.0,
      "dynamic_level": "None"
    },
    {
      "id": "423",
      "country": "China",
      "name": "Puning",
      "latitude": 23.2967,
      "longitude": 116.1647,
      "base_risk": 9.4,
      "rain_6h_mm": 0.0,
      "humidity_avg": 92.3,
      "soil_moisture_avg": 0.0,
      "rain_mult": 0.0,
      "soil_mult": 0.95,
      "humidity_mult": 1.046,
      "raw_dynamic_score": 0.0,
      "dynamic_level": "None"
    },
    {
      "id": "428",
      "country": "China",
      "name": "Qingdao",
      "latitude": 36.0986,
      "longitude": 120.3719,
      "base_risk": 8.98,
      "rain_6h_mm": 0.0,
      "humidity_avg": 87.7,
      "soil_moisture_avg": 0.0,
      "rain_mult": 0.0,
      "soil_mult": 0.95,
      "humidity_mult": 1.044,
      "raw_dynamic_score": 0.0,
      "dynamic_level": "None"
    },
    {
      "id": "429",
      "country": "China",
      "name": "Qingyuan",
      "latitude": 23.7146,
      "longitude": 113.0297,
      "base_risk": 9.47,
      "rain_6h_mm": 0.0,
      "humidity_avg": 88.5,
      "soil_moisture_avg": 0.0,
      "rain_mult": 0.0,
      "soil_mult": 0.95,
      "humidity_mult": 1.044,
      "raw_dynamic_score": 0.0,
      "dynamic_level": "None"
    },
    {
      "id": "430",
      "country": "China",
      "name": "Qingzhou",
      "latitude": 36.6845,
      "longitude": 118.4796,
      "base_risk": 9.26,
      "rain_6h_mm": 0.0,
      "humidity_avg": 81.2,
      "soil_moisture_avg": 0.0,
      "rain_mult": 0.0,
      "soil_mult": 0.95,
      "humidity_mult": 1.041,
      "raw_dynamic_score": 0.0,
      "dynamic_level": "None"
    },
    {
      "id": "431",
      "country": "China",
      "name": "Qinhuangdao",
      "latitude": 39.9317,
      "longitude": 119.5883,
      "base_risk": 9.2,
      "rain_6h_mm": 0.0,
      "humidity_avg": 89.5,
      "soil_moisture_avg": 0.0,
      "rain_mult": 0.0,
      "soil_mult": 0.95,
      "humidity_mult": 1.045,
      "raw_dynamic_score": 0.0,
      "dynamic_level": "None"
    },
    {
      "id": "435",
      "country": "China",
      "name": "Quanzhou",
      "latitude": 24.8968,
      "longitude": 118.5997,
      "base_risk": 9.32,
      "rain_6h_mm": 0.0,
      "humidity_avg": 82.2,
      "soil_moisture_avg": 0.0,
      "rain_mult": 0.0,
      "soil_mult": 0.95,
      "humidity_mult": 1.041,
      "raw_dynamic_score": 0.0,
      "dynamic_level": "None"
    },
    {
      "id": "436",
      "country": "China",
      "name": "Qufu",
      "latitude": 35.5967,
      "longitude": 116.9911,
      "base_risk": 9.04,
      "rain_6h_mm": 0.0,
      "humidity_avg": 81.2,
      "soil_moisture_avg": 0.0,
      "rain_mult": 0.0,
      "soil_mult": 0.95,
      "humidity_mult": 1.041,
      "raw_dynamic_score": 0.0,
      "dynamic_level": "None"
    },
    {
      "id": "437",
      "country": "China",
      "name": "Qujing",
      "latitude": 25.4894,
      "longitude": 103.7977,
      "base_risk": 9.48,
      "rain_6h_mm": 0.0,
      "humidity_avg": 93.3,
      "soil_moisture_avg": 0.0,
      "rain_mult": 0.0,
      "soil_mult": 0.95,
      "humidity_mult": 1.047,
      "raw_dynamic_score": 0.0,
      "dynamic_level": "None"
    },
    {
      "id": "438",
      "country": "China",
      "name": "Quzhou",
      "latitude": 28.9594,
      "longitude": 118.8686,
      "base_risk": 8.67,
      "rain_6h_mm": 0.0,
      "humidity_avg": 85.8,
      "soil_moisture_avg": 0.0,
      "rain_mult": 0.0,
      "soil_mult": 0.95,
      "humidity_mult": 1.043,
      "raw_dynamic_score": 0.0,
      "dynamic_level": "None"
    },
    {
      "id": "443",
      "country": "China",
      "name": "Ruian",
      "latitude": 27.7808,
      "longitude": 120.6755,
      "base_risk": 9.08,
      "rain_6h_mm": 0.0,
      "humidity_avg": 90.2,
      "soil_moisture_avg": 0.0,
      "rain_mult": 0.0,
      "soil_mult": 0.95,
      "humidity_mult": 1.045,
      "raw_dynamic_score": 0.0,
      "dynamic_level": "None"
    },
    {
      "id": "444",
      "country": "China",
      "name": "Rushan",
      "latitude": 36.9158,
      "longitude": 121.5267,
      "base_risk": 9.45,
      "rain_6h_mm": 0.0,
      "humidity_avg": 96.8,
      "soil_moisture_avg": 0.0,
      "rain_mult": 0.0,
      "soil_mult": 0.95,
      "humidity_mult": 1.048,
      "raw_dynamic_score": 0.0,
      "dynamic_level": "None"
    },
    {
      "id": "448",
      "country": "China",
      "name": "Sanya",
      "latitude": 18.2676,
      "longitude": 109.5034,
      "base_risk": 9.41,
      "rain_6h_mm": 0.0,
      "humidity_avg": 85.5,
      "soil_moisture_avg": 0.0,
      "rain_mult": 0.0,
      "soil_mult": 0.95,
      "humidity_mult": 1.043,
      "raw_dynamic_score": 0.0,
      "dynamic_level": "None"
    },
    {
      "id": "449",
      "country": "China",
      "name": "Shanghai",
      "latitude": 31.2222,
      "longitude": 121.4581,
      "base_risk": 8.76,
      "rain_6h_mm": 0.0,
      "humidity_avg": 91.3,
      "soil_moisture_avg": 0.0,
      "rain_mult": 0.0,
      "soil_mult": 0.95,
      "humidity_mult": 1.046,
      "raw_dynamic_score": 0.0,
      "dynamic_level": "None"
    },
    {
      "id": "453",
      "country": "China",
      "name": "Shantou",
      "latitude": 23.3681,
      "longitude": 116.7148,
      "base_risk": 8.88,
      "rain_6h_mm": 0.0,
      "humidity_avg": 74.2,
      "soil_moisture_avg": 0.0,
      "rain_mult": 0.0,
      "soil_mult": 0.95,
      "humidity_mult": 1.037,
      "raw_dynamic_score": 0.0,
      "dynamic_level": "None"
    },
    {
      "id": "454",
      "country": "China",
      "name": "Shanwei",
      "latitude": 22.7787,
      "longitude": 115.3568,
      "base_risk": 9.3,
      "rain_6h_mm": 0.0,
      "humidity_avg": 74.3,
      "soil_moisture_avg": 0.0,
      "rain_mult": 0.0,
      "soil_mult": 0.95,
      "humidity_mult": 1.037,
      "raw_dynamic_score": 0.0,
      "dynamic_level": "None"
    },
    {
      "id": "455",
      "country": "China",
      "name": "Shaoguan",
      "latitude": 24.8,
      "longitude": 113.5833,
      "base_risk": 9.11,
      "rain_6h_mm": 0.0,
      "humidity_avg": 93.7,
      "soil_moisture_avg": 0.0,
      "rain_mult": 0.0,
      "soil_mult": 0.95,
      "humidity_mult": 1.047,
      "raw_dynamic_score": 0.0,
      "dynamic_level": "None"
    },
    {
      "id": "456",
      "country": "China",
      "name": "Shaoxing",
      "latitude": 30.011,
      "longitude": 120.5715,
      "base_risk": 9.32,
      "rain_6h_mm": 0.0,
      "humidity_avg": 95.8,
      "soil_moisture_avg": 0.0,
      "rain_mult": 0.0,
      "soil_mult": 0.95,
      "humidity_mult": 1.048,
      "raw_dynamic_score": 0.0,
      "dynamic_level": "None"
    },
    {
      "id": "457",
      "country": "China",
      "name": "Shaoyang",
      "latitude": 27.2403,
      "longitude": 111.4709,
      "base_risk": 9.08,
      "rain_6h_mm": 0.0,
      "humidity_avg": 87.0,
      "soil_moisture_avg": 0.0,
      "rain_mult": 0.0,
      "soil_mult": 0.95,
      "humidity_mult": 1.044,
      "raw_dynamic_score": 0.0,
      "dynamic_level": "None"
    },
    {
      "id": "461",
      "country": "China",
      "name": "Shenzhen",
      "latitude": 22.5415,
      "longitude": 114.0634,
      "base_risk": 9.49,
      "rain_6h_mm": 0.0,
      "humidity_avg": 77.3,
      "soil_moisture_avg": 0.0,
      "rain_mult": 0.0,
      "soil_mult": 0.95,
      "humidity_mult": 1.039,
      "raw_dynamic_score": 0.0,
      "dynamic_level": "None"
    },
    {
      "id": "462",
      "country": "China",
      "name": "Shihezi",
      "latitude": 44.3075,
      "longitude": 86.032,
      "base_risk": 9.21,
      "rain_6h_mm": 2.6,
      "humidity_avg": 82.8,
      "soil_moisture_avg": 0.0,
      "rain_mult": 0.026,
      "soil_mult": 0.95,
      "humidity_mult": 1.041,
      "raw_dynamic_score": 0.237,
      "dynamic_level": "Low"
    },
    {
      "id": "463",
      "country": "China",
      "name": "Shijiazhuang",
      "latitude": 38.0418,
      "longitude": 114.5108,
      "base_risk": 9.15,
      "rain_6h_mm": 0.0,
      "humidity_avg": 80.3,
      "soil_moisture_avg": 0.0,
      "rain_mult": 0.0,
      "soil_mult": 0.95,
      "humidity_mult": 1.04,
      "raw_dynamic_score": 0.0,
      "dynamic_level": "None"
    },
    {
      "id": "464",
      "country": "China",
      "name": "Shishi",
      "latitude": 24.7367,
      "longitude": 118.634,
      "base_risk": 8.84,
      "rain_6h_mm": 0.0,
      "humidity_avg": 74.2,
      "soil_moisture_avg": 0.0,
      "rain_mult": 0.0,
      "soil_mult": 0.95,
      "humidity_mult": 1.037,
      "raw_dynamic_score": 0.0,
      "dynamic_level": "None"
    },
    {
      "id": "469",
      "country": "China",
      "name": "Shuozhou",
      "latitude": 39.3158,
      "longitude": 112.4225,
      "base_risk": 9.24,
      "rain_6h_mm": 0.0,
      "humidity_avg": 75.5,
      "soil_moisture_avg": 0.0,
      "rain_mult": 0.0,
      "soil_mult": 0.95,
      "humidity_mult": 1.038,
      "raw_dynamic_score": 0.0,
      "dynamic_level": "None"
    },
    {
      "id": "470",
      "country": "China",
      "name": "Sihui",
      "latitude": 23.3462,
      "longitude": 112.6958,
      "base_risk": 8.91,
      "rain_6h_mm": 0.0,
      "humidity_avg": 89.8,
      "soil_moisture_avg": 0.0,
      "rain_mult": 0.0,
      "soil_mult": 0.95,
      "humidity_mult": 1.045,
      "raw_dynamic_score": 0.0,
      "dynamic_level": "None"
    },
    {
      "id": "471",
      "country": "China",
      "name": "Siping",
      "latitude": 43.1633,
      "longitude": 124.3686,
      "base_risk": 9.4,
      "rain_6h_mm": 0.0,
      "humidity_avg": 74.7,
      "soil_moisture_avg": 0.0,
      "rain_mult": 0.0,
      "soil_mult": 0.95,
      "humidity_mult": 1.037,
      "raw_dynamic_score": 0.0,
      "dynamic_level": "None"
    },
    {
      "id": "472",
      "country": "China",
      "name": "Songyuan",
      "latitude": 27.6217,
      "longitude": 119.0592,
      "base_risk": 9.48,
      "rain_6h_mm": 0.0,
      "humidity_avg": 96.8,
      "soil_moisture_avg": 0.0,
      "rain_mult": 0.0,
      "soil_mult": 0.95,
      "humidity_mult": 1.048,
      "raw_dynamic_score": 0.0,
      "dynamic_level": "None"
    },
    {
      "id": "477",
      "country": "China",
      "name": "Suqian",
      "latitude": 33.9681,
      "longitude": 118.2924,
      "base_risk": 9.15,
      "rain_6h_mm": 0.0,
      "humidity_avg": 92.3,
      "soil_moisture_avg": 0.0,
      "rain_mult": 0.0,
      "soil_mult": 0.95,
      "humidity_mult": 1.046,
      "raw_dynamic_score": 0.0,
      "dynamic_level": "None"
    },
    {
      "id": "478",
      "country": "China",
      "name": "Suzhou, Anhui",
      "latitude": 33.6359,
      "longitude": 116.9747,
      "base_risk": 9.3,
      "rain_6h_mm": 0.0,
      "humidity_avg": 86.7,
      "soil_moisture_avg": 0.0,
      "rain_mult": 0.0,
      "soil_mult": 0.95,
      "humidity_mult": 1.043,
      "raw_dynamic_score": 0.0,
      "dynamic_level": "None"
    },
    {
      "id": "479",
      "country": "China",
      "name": "Suzhou, Jiangsu",
      "latitude": 31.3021,
      "longitude": 120.5853,
      "base_risk": 9.34,
      "rain_6h_mm": 0.0,
      "humidity_avg": 91.2,
      "soil_moisture_avg": 0.0,
      "rain_mult": 0.0,
      "soil_mult": 0.95,
      "humidity_mult": 1.046,
      "raw_dynamic_score": 0.0,
      "dynamic_level": "None"
    },
    {
      "id": "480",
      "country": "China",
      "name": "Taian, Shandong",
      "latitude": 36.1904,
      "longitude": 117.1191,
      "base_risk": 9.43,
      "rain_6h_mm": 0.0,
      "humidity_avg": 73.5,
      "soil_moisture_avg": 0.0,
      "rain_mult": 0.0,
      "soil_mult": 0.95,
      "humidity_mult": 1.037,
      "raw_dynamic_score": 0.0,
      "dynamic_level": "None"
    },
    {
      "id": "485",
      "country": "China",
      "name": "Taizhou, Jiangsu",
      "latitude": 32.4945,
      "longitude": 119.9029,
      "base_risk": 8.55,
      "rain_6h_mm": 0.0,
      "humidity_avg": 96.7,
      "soil_moisture_avg": 0.0,
      "rain_mult": 0.0,
      "soil_mult": 0.95,
      "humidity_mult": 1.048,
      "raw_dynamic_score": 0.0,
      "dynamic_level": "None"
    },
    {
      "id": "486",
      "country": "China",
      "name": "Taizhou, Zhejiang",
      "latitude": 28.6372,
      "longitude": 121.4185,
      "base_risk": 9.22,
      "rain_6h_mm": 0.0,
      "humidity_avg": 91.8,
      "soil_moisture_avg": 0.0,
      "rain_mult": 0.0,
      "soil_mult": 0.95,
      "humidity_mult": 1.046,
      "raw_dynamic_score": 0.0,
      "dynamic_level": "None"
    },
    {
      "id": "487",
      "country": "China",
      "name": "Tangshan, Hebei",
      "latitude": 39.6285,
      "longitude": 118.1799,
      "base_risk": 8.71,
      "rain_6h_mm": 0.0,
      "humidity_avg": 89.8,
      "soil_moisture_avg": 0.0,
      "rain_mult": 0.0,
      "soil_mult": 0.95,
      "humidity_mult": 1.045,
      "raw_dynamic_score": 0.0,
      "dynamic_level": "None"
    },
    {
      "id": "488",
      "country": "China",
      "name": "Tengzhou",
      "latitude": 35.0845,
      "longitude": 117.1624,
      "base_risk": 9.32,
      "rain_6h_mm": 0.0,
      "humidity_avg": 85.2,
      "soil_moisture_avg": 0.0,
      "rain_mult": 0.0,
      "soil_mult": 0.95,
      "humidity_mult": 1.043,
      "raw_dynamic_score": 0.0,
      "dynamic_level": "None"
    },
    {
      "id": "493",
      "country": "China",
      "name": "Tongcheng",
      "latitude": 31.0538,
      "longitude": 116.9556,
      "base_risk": 9.1,
      "rain_6h_mm": 0.0,
      "humidity_avg": 84.3,
      "soil_moisture_avg": 0.0,
      "rain_mult": 0.0,
      "soil_mult": 0.95,
      "humidity_mult": 1.042,
      "raw_dynamic_score": 0.0,
      "dynamic_level": "None"
    },
    {
      "id": "494",
      "country": "China",
      "name": "Tongchuan",
      "latitude": 34.8988,
      "longitude": 108.9506,
      "base_risk": 9.07,
      "rain_6h_mm": 1.1,
      "humidity_avg": 78.8,
      "soil_moisture_avg": 0.0,
      "rain_mult": 0.011,
      "soil_mult": 0.95,
      "humidity_mult": 1.039,
      "raw_dynamic_score": 0.099,
      "dynamic_level": "Low"
    },
    {
      "id": "495",
      "country": "China",
      "name": "Tonghua",
      "latitude": 41.7201,
      "longitude": 125.9281,
      "base_risk": 9.22,
      "rain_6h_mm": 0.0,
      "humidity_avg": 98.8,
      "soil_moisture_avg": 0.0,
      "rain_mult": 0.0,
      "soil_mult": 0.95,
      "humidity_mult": 1.049,
      "raw_dynamic_score": 0.0,
      "dynamic_level": "None"
    },
    {
      "id": "496",
      "country": "China",
      "name": "Tongliao",
      "latitude": 43.6125,
      "longitude": 122.2653,
      "base_risk": 9.22,
      "rain_6h_mm": 0.0,
      "humidity_avg": 63.8,
      "soil_moisture_avg": 0.0,
      "rain_mult": 0.0,
      "soil_mult": 0.95,
      "humidity_mult": 1.032,
      "raw_dynamic_score": 0.0,
      "dynamic_level": "None"
    },
    {
      "id": "497",
      "country": "China",
      "name": "Tongling",
      "latitude": 30.9363,
      "longitude": 117.8109,
      "base_risk": 9.19,
      "rain_6h_mm": 0.0,
      "humidity_avg": 81.2,
      "soil_moisture_avg": 0.0,
      "rain_mult": 0.0,
      "soil_mult": 0.95,
      "humidity_mult": 1.041,
      "raw_dynamic_score": 0.0,
      "dynamic_level": "None"
    },
    {
      "id": "502",
      "country": "China",
      "name": "Weifang",
      "latitude": 36.71,
      "longitude": 119.1019,
      "base_risk": 9.19,
      "rain_6h_mm": 0.0,
      "humidity_avg": 90.3,
      "soil_moisture_avg": 0.0,
      "rain_mult": 0.0,
      "soil_mult": 0.95,
      "humidity_mult": 1.045,
      "raw_dynamic_score": 0.0,
      "dynamic_level": "None"
    },
    {
      "id": "503",
      "country": "China",
      "name": "Weihai",
      "latitude": 37.5017,
      "longitude": 122.1136,
      "base_risk": 9.04,
      "rain_6h_mm": 0.0,
      "humidity_avg": 97.0,
      "soil_moisture_avg": 0.0,
      "rain_mult": 0.0,
      "soil_mult": 0.95,
      "humidity_mult": 1.048,
      "raw_dynamic_score": 0.0,
      "dynamic_level": "None"
    },