{
  "timestamp": "2025-11-01T14:08:47.174645Z",
  "source": "Open-Meteo",
  "forecast_window_hours": 6,
  "features_evaluated": 344,
  "alerts": [
    {
      "id": "106.0",
      "name": "Navacerrada",
      "latitude": 40.70623067,
      "longitude": -3.972476814,
      "base_risk": 8.91,
      "rain_6h_mm": 0.7,
      "humidity_avg": 81.0,
      "soil_moisture_avg": 0.0,
      "temperature_avg": 11.7,
      "pressure_avg": 903.3,
      "rain_mult": 0.007,
      "soil_mult": 0.8,
      "humidity_mult": 1.062,
      "raw_dynamic_score": 0.053,
      "dynamic_level": "Low"
    },
    {
      "id": "272.0",
      "name": "Anchuelo (Diseminado)",
      "latitude": 40.4843423,
      "longitude": -3.348244904,
      "base_risk": 8.54,
      "rain_6h_mm": 0.2,
      "humidity_avg": 65.7,
      "soil_moisture_avg": 0.0,
      "temperature_avg": 17.0,
      "pressure_avg": 950.8,
      "rain_mult": 0.002,
      "soil_mult": 0.8,
      "humidity_mult": 1.031,
      "raw_dynamic_score": 0.014,
      "dynamic_level": "Low"
    },
    {
      "id": "286.0",
      "name": "Anchuelo",
      "latitude": 40.48490594,
      "longitude": -3.349909973,
      "base_risk": 8.53,
      "rain_6h_mm": 0.2,
      "humidity_avg": 65.7,
      "soil_moisture_avg": 0.0,
      "temperature_avg": 17.0,
      "pressure_avg": 951.1,
      "rain_mult": 0.002,
      "soil_mult": 0.8,
      "humidity_mult": 1.031,
      "raw_dynamic_score": 0.014,
      "dynamic_level": "Low"
    },
    {
      "id": "393.0",
      "name": "Villar del Olmo",
      "latitude": 40.46859545,
      "longitude": -3.365054696,
      "base_risk": 8.68,
      "rain_6h_mm": 0.1,
      "humidity_avg": 66.8,
      "soil_moisture_avg": 0.0,
      "temperature_avg": 17.0,
      "pressure_avg": 951.6,
      "rain_mult": 0.001,
      "soil_mult": 0.8,
      "humidity_mult": 1.034,
      "raw_dynamic_score": 0.007,
      "dynamic_level": "Low"
    },
    {
      "id": "423.0",
      "name": "Villar del Olmo",
      "latitude": 40.47371244,
      "longitude": -3.362564932,
      "base_risk": 8.64,
      "rain_6h_mm": 0.2,
      "humidity_avg": 65.7,
      "soil_moisture_avg": 0.0,
      "temperature_avg": 17.1,
      "pressure_avg": 951.3,
      "rain_mult": 0.002,
      "soil_mult": 0.8,
      "humidity_mult": 1.031,
      "raw_dynamic_score": 0.014,
      "dynamic_level": "Low"
    },
    {
      "id": "440.0",
      "name": "Alcalá de Henares",
      "latitude": 40.48231362,
      "longitude": -3.347813178,
      "base_risk": 8.58,
      "rain_6h_mm": 0.2,
      "humidity_avg": 65.7,
      "soil_moisture_avg": 0.0,
      "temperature_avg": 17.1,
      "pressure_avg": 951.3,
      "rain_mult": 0.002,
      "soil_mult": 0.8,
      "humidity_mult": 1.031,
      "raw_dynamic_score": 0.014,
      "dynamic_level": "Low"
    },
    {
      "id": "570.0",
      "name": "Hueros, Los",
      "latitude": 40.46925965,
      "longitude": -3.414580388,
      "base_risk": 8.82,
      "rain_6h_mm": 0.2,
      "humidity_avg": 66.7,
      "soil_moisture_avg": 0.0,
      "temperature_avg": 17.1,
      "pressure_avg": 952.3,
      "rain_mult": 0.002,
      "soil_mult": 0.8,
      "humidity_mult": 1.033,
      "raw_dynamic_score": 0.015,
      "dynamic_level": "Low"
    },
    {
      "id": "597.0",
      "name": "Pezuela de las Torres (Diseminado)",
      "latitude": 40.46626403,
      "longitude": -3.363127297,
      "base_risk": 8.71,
      "rain_6h_mm": 0.1,
      "humidity_avg": 66.8,
      "soil_moisture_avg": 0.0,
      "temperature_avg": 17.1,
      "pressure_avg": 951.9,
      "rain_mult": 0.001,
      "soil_mult": 0.8,
      "humidity_mult": 1.034,
      "raw_dynamic_score": 0.007,
      "dynamic_level": "Low"
    },
    {
      "id": "633.0",
      "name": "Alcalá de Henares",
      "latitude": 40.48151445,
      "longitude": -3.353867683,
      "base_risk": 8.6,
      "rain_6h_mm": 0.2,
      "humidity_avg": 65.7,
      "soil_moisture_avg": 0.0,
      "temperature_avg": 17.0,
      "pressure_avg": 950.4,
      "rain_mult": 0.002,
      "soil_mult": 0.8,
      "humidity_mult": 1.031,
      "raw_dynamic_score": 0.014,
      "dynamic_level": "Low"
    },
    {
      "id": "841.0",
      "name": "Mirador de Baztán, El",
      "latitude": 40.46712332,
      "longitude": -3.416427827,
      "base_risk": 8.84,
      "rain_6h_mm": 0.1,
      "humidity_avg": 66.3,
      "soil_moisture_avg": 0.0,
      "temperature_avg": 17.2,
      "pressure_avg": 952.6,
      "rain_mult": 0.001,
      "soil_mult": 0.8,
      "humidity_mult": 1.033,
      "raw_dynamic_score": 0.007,
      "dynamic_level": "Low"
    },
    {
      "id": "887.0",
      "name": "Alcalá de Henares",
      "latitude": 40.4707732,
      "longitude": -3.399751404,
      "base_risk": 8.64,
      "rain_6h_mm": 0.2,
      "humidity_avg": 65.7,
      "soil_moisture_avg": 0.0,
      "temperature_avg": 17.1,
      "pressure_avg": 952.5,
      "rain_mult": 0.002,
      "soil_mult": 0.8,
      "humidity_mult": 1.031,
      "raw_dynamic_score": 0.014,
      "dynamic_level": "Low"
    },
    {
      "id": "888.0",
      "name": "Alcalá de Henares (Diseminado)",
      "latitude": 40.47350409,
      "longitude": -3.398522976,
      "base_risk": 8.51,
      "rain_6h_mm": 0.2,
      "humidity_avg": 65.7,
      "soil_moisture_avg": 0.0,
      "temperature_avg": 17.1,
      "pressure_avg": 951.7,
      "rain_mult": 0.002,
      "soil_mult": 0.8,
      "humidity_mult": 1.031,
      "raw_dynamic_score": 0.014,
      "dynamic_level": "Low"
    },
    {
      "id": "1202.0",
      "name": "Alcalá de Henares",
      "latitude": 40.48653191,
      "longitude": -3.356520687,
      "base_risk": 8.51,
      "rain_6h_mm": 0.2,
      "humidity_avg": 65.7,
      "soil_moisture_avg": 0.0,
      "temperature_avg": 17.0,
      "pressure_avg": 949.7,
      "rain_mult": 0.002,
      "soil_mult": 0.8,
      "humidity_mult": 1.031,
      "raw_dynamic_score": 0.014,
      "dynamic_level": "Low"
    },
    {
      "id": "1400.0",
      "name": "Cabanillas de la Sierra",
      "latitude": 40.74511268,
      "longitude": -3.784492436,
      "base_risk": 8.63,
      "rain_6h_mm": 0.5,
      "humidity_avg": 81.2,
      "soil_moisture_avg": 0.0,
      "temperature_avg": 13.8,
      "pressure_avg": 915.9,
      "rain_mult": 0.005,
      "soil_mult": 0.8,
      "humidity_mult": 1.062,
      "raw_dynamic_score": 0.037,
      "dynamic_level": "Low"
    },
    {
      "id": "1403.0",
      "name": "Cabanillas de la Sierra (Diseminado)",
      "latitude": 40.74638068,
      "longitude": -3.784948459,
      "base_risk": 8.55,
      "rain_6h_mm": 0.5,
      "humidity_avg": 81.2,
      "soil_moisture_avg": 0.0,
      "temperature_avg": 13.8,
      "pressure_avg": 916.0,
      "rain_mult": 0.005,
      "soil_mult": 0.8,
      "humidity_mult": 1.062,
      "raw_dynamic_score": 0.036,
      "dynamic_level": "Low"
    },
    {
      "id": "1930.0",
      "name": "San Lorenzo de El Escorial",
      "latitude": 40.63345925,
      "longitude": -4.013628043,
      "base_risk": 8.68,
      "rain_6h_mm": 0.1,
      "humidity_avg": 79.7,
      "soil_moisture_avg": 0.0,
      "temperature_avg": 13.5,
      "pressure_avg": 919.5,
      "rain_mult": 0.001,
      "soil_mult": 0.8,
      "humidity_mult": 1.059,
      "raw_dynamic_score": 0.007,
      "dynamic_level": "Low"
    },
    {
      "id": "2342.0",
      "name": "Pinilla del Valle (Diseminado)",
      "latitude": 40.92636788,
      "longitude": -3.816429001,
      "base_risk": 8.6,
      "rain_6h_mm": 2.9,
      "humidity_avg": 81.5,
      "soil_moisture_avg": 0.0,
      "temperature_avg": 11.7,
      "pressure_avg": 895.1,
      "rain_mult": 0.029,
      "soil_mult": 0.8,
      "humidity_mult": 1.063,
      "raw_dynamic_score": 0.212,
      "dynamic_level": "Low"
    },
    {
      "id": "2872.0",
      "name": "Fuenlabrada",
      "latitude": 40.26970406,
      "longitude": -3.744570169,
      "base_risk": 8.58,
      "rain_6h_mm": 0.0,
      "humidity_avg": 66.7,
      "soil_moisture_avg": 0.0,
      "temperature_avg": 17.0,
      "pressure_avg": 947.3,
      "rain_mult": 0.0,
      "soil_mult": 0.8,
      "humidity_mult": 1.033,
      "raw_dynamic_score": 0.0,
      "dynamic_level": "None"
    },
    {
      "id": "3264.0",
      "name": "Villamanrique de Tajo",
      "latitude": 40.06542324,
      "longitude": -3.239051792,
      "base_risk": 8.73,
      "rain_6h_mm": 0.0,
      "humidity_avg": 52.3,
      "soil_moisture_avg": 0.0,
      "temperature_avg": 19.1,
      "pressure_avg": 957.8,
      "rain_mult": 0.0,
      "soil_mult": 0.8,
      "humidity_mult": 1.005,
      "raw_dynamic_score": 0.0,
      "dynamic_level": "None"
    },
    {
      "id": "3267.0",
      "name": "Villamanrique de Tajo",
      "latitude": 40.06613293,
      "longitude": -3.240739722,
      "base_risk": 8.59,
      "rain_6h_mm": 0.0,
      "humidity_avg": 52.3,
      "soil_moisture_avg": 0.0,
      "temperature_avg": 19.1,
      "pressure_avg": 956.8,
      "rain_mult": 0.0,
      "soil_mult": 0.8,
      "humidity_mult": 1.005,
      "raw_dynamic_score": 0.0,
      "dynamic_level": "None"
    },
    {
      "id": "3855.0",
      "name": "Collado Villalba",
      "latitude": 40.6304307,
      "longitude": -4.009466412,
      "base_risk": 8.7,
      "rain_6h_mm": 0.1,
      "humidity_avg": 79.7,
      "soil_moisture_avg": 0.0,
      "temperature_avg": 13.5,
      "pressure_avg": 919.7,
      "rain_mult": 0.001,
      "soil_mult": 0.8,
      "humidity_mult": 1.059,
      "raw_dynamic_score": 0.007,
      "dynamic_level": "Low"
    },
    {
      "id": "3923.0",
      "name": "Paracuellos de Jarama",
      "latitude": 40.63704358,
      "longitude": -4.013533941,
      "base_risk": 8.59,
      "rain_6h_mm": 0.1,
      "humidity_avg": 79.7,
      "soil_moisture_avg": 0.0,
      "temperature_avg": 13.5,
      "pressure_avg": 919.3,
      "rain_mult": 0.001,
      "soil_mult": 0.8,
      "humidity_mult": 1.059,
      "raw_dynamic_score": 0.007,
      "dynamic_level": "Low"
    },
    {
      "id": "3998.0",
      "name": "Alalpardo",
      "latitude": 40.52902321,
      "longitude": -3.478394339,
      "base_risk": 8.55,
      "rain_6h_mm": 0.1,
      "humidity_avg": 68.2,
      "soil_moisture_avg": 0.0,
      "temperature_avg": 16.4,
      "pressure_avg": 943.0,
      "rain_mult": 0.001,
      "soil_mult": 0.8,
      "humidity_mult": 1.036,
      "raw_dynamic_score": 0.007,
      "dynamic_level": "Low"
    },
    {
      "id": "4003.0",
      "name": "Sevilla la Nueva",
      "latitude": 40.52959268,
      "longitude": -3.478130434,
      "base_risk": 8.56,
      "rain_6h_mm": 0.1,
      "humidity_avg": 68.2,
      "soil_moisture_avg": 0.0,
      "temperature_avg": 16.4,
      "pressure_avg": 942.9,
      "rain_mult": 0.001,
      "soil_mult": 0.8,
      "humidity_mult": 1.036,
      "raw_dynamic_score": 0.007,
      "dynamic_level": "Low"
    },
    {
      "id": "4059.0",
      "name": "Velilla de San Antonio (Diseminado)",
      "latitude": 40.36521887,
      "longitude": -3.494965112,
      "base_risk": 9.36,
      "rain_6h_mm": 0.0,
      "humidity_avg": 65.0,
      "soil_moisture_avg": 0.0,
      "temperature_avg": 17.6,
      "pressure_avg": 956.2,
      "rain_mult": 0.0,
      "soil_mult": 0.8,
      "humidity_mult": 1.03,
      "raw_dynamic_score": 0.0,
      "dynamic_level": "None"
    },
    {
      "id": "4067.0",
      "name": "Velilla de San Antonio (Diseminado)",
      "latitude": 40.36371003,
      "longitude": -3.484863858,
      "base_risk": 9.0,
      "rain_6h_mm": 0.0,
      "humidity_avg": 65.0,
      "soil_moisture_avg": 0.0,
      "temperature_avg": 17.6,
      "pressure_avg": 955.3,
      "rain_mult": 0.0,
      "soil_mult": 0.8,
      "humidity_mult": 1.03,
      "raw_dynamic_score": 0.0,
      "dynamic_level": "None"
    },
    {
      "id": "4068.0",
      "name": "Velilla de San Antonio (Diseminado)",
      "latitude": 40.36326683,
      "longitude": -3.484459945,
      "base_risk": 9.02,
      "rain_6h_mm": 0.0,
      "humidity_avg": 65.0,
      "soil_moisture_avg": 0.0,
      "temperature_avg": 17.6,
      "pressure_avg": 955.7,
      "rain_mult": 0.0,
      "soil_mult": 0.8,
      "humidity_mult": 1.03,
      "raw_dynamic_score": 0.0,
      "dynamic_level": "None"
    },
    {
      "id": "4105.0",
      "name": "Ajalvir",
      "latitude": 40.52990222,
      "longitude": -3.478534808,
      "base_risk": 8.54,
      "rain_6h_mm": 0.1,
      "humidity_avg": 68.2,
      "soil_moisture_avg": 0.0,
      "temperature_avg": 16.4,
      "pressure_avg": 942.6,
      "rain_mult": 0.001,
      "soil_mult": 0.8,
      "humidity_mult": 1.036,
      "raw_dynamic_score": 0.007,
      "dynamic_level": "Low"
    },
    {
      "id": "4230.0",
      "name": "Velilla de San Antonio (Diseminado)",
      "latitude": 40.36461129,
      "longitude": -3.483144251,
      "base_risk": 8.89,
      "rain_6h_mm": 0.0,
      "humidity_avg": 65.0,
      "soil_moisture_avg": 0.0,
      "temperature_avg": 17.6,
      "pressure_avg": 954.7,
      "rain_mult": 0.0,
      "soil_mult": 0.8,
      "humidity_mult": 1.03,
      "raw_dynamic_score": 0.0,
      "dynamic_level": "None"
    },
    {
      "id": "4231.0",
      "name": "Velilla de San Antonio (Diseminado)",
      "latitude": 40.36530873,
      "longitude": -3.481920933,
      "base_risk": 8.83,
      "rain_6h_mm": 0.0,
      "humidity_avg": 65.0,
      "soil_moisture_avg": 0.0,
      "temperature_avg": 17.6,
      "pressure_avg": 955.1,
      "rain_mult": 0.0,
      "soil_mult": 0.8,
      "humidity_mult": 1.03,
      "raw_dynamic_score": 0.0,
      "dynamic_level": "None"
    },
    {
      "id": "4525.0",
      "name": "Patones de Arriba",
      "latitude": 40.85789754,
      "longitude": -3.486688637,
      "base_risk": 8.84,
      "rain_6h_mm": 0.7,
      "humidity_avg": 75.3,
      "soil_moisture_avg": 0.0,
      "temperature_avg": 14.4,
      "pressure_avg": 934.5,
      "rain_mult": 0.007,
      "soil_mult": 0.8,
      "humidity_mult": 1.051,
      "raw_dynamic_score": 0.052,
      "dynamic_level": "Low"
    },
    {
      "id": "4527.0",
      "name": "Patones de Arriba (Diseminado)",
      "latitude": 40.85584319,
      "longitude": -3.481358042,
      "base_risk": 9.18,
      "rain_6h_mm": 0.7,
      "humidity_avg": 75.3,
      "soil_moisture_avg": 0.0,
      "temperature_avg": 14.6,
      "pressure_avg": 937.4,
      "rain_mult": 0.007,
      "soil_mult": 0.8,
      "humidity_mult": 1.051,
      "raw_dynamic_score": 0.054,
      "dynamic_level": "Low"
    },
    {
      "id": "4562.0",
      "name": "Velilla de San Antonio (Diseminado)",
      "latitude": 40.36835633,
      "longitude": -3.490721456,
      "base_risk": 9.19,
      "rain_6h_mm": 0.0,
      "humidity_avg": 65.0,
      "soil_moisture_avg": 0.0,
      "temperature_avg": 17.6,
      "pressure_avg": 956.0,
      "rain_mult": 0.0,
      "soil_mult": 0.8,
      "humidity_mult": 1.03,
      "raw_dynamic_score": 0.0,
      "dynamic_level": "None"
    },
    {
      "id": "4900.0",
      "name": "Velilla de San Antonio",
      "latitude": 40.36690713,
      "longitude": -3.494886255,
      "base_risk": 9.35,
      "rain_6h_mm": 0.0,
      "humidity_avg": 65.0,
      "soil_moisture_avg": 0.0,
      "temperature_avg": 17.6,
      "pressure_avg": 955.9,
      "rain_mult": 0.0,
      "soil_mult": 0.8,
      "humidity_mult": 1.03,
      "raw_dynamic_score": 0.0,
      "dynamic_level": "None"
    },
    {
      "id": "4903.0",
      "name": "Velilla de San Antonio",
      "latitude": 40.36564851,
      "longitude": -3.482807868,
      "base_risk": 8.87,
      "rain_6h_mm": 0.0,
      "humidity_avg": 65.0,
      "soil_moisture_avg": 0.0,
      "temperature_avg": 17.6,
      "pressure_avg": 955.1,
      "rain_mult": 0.0,
      "soil_mult": 0.8,
      "humidity_mult": 1.03,
      "raw_dynamic_score": 0.0,
      "dynamic_level": "None"
    },
    {
      "id": "5097.0",
      "name": "Velilla de San Antonio",
      "latitude": 40.36726195,
      "longitude": -3.482431171,
      "base_risk": 8.83,
      "rain_6h_mm": 0.0,
      "humidity_avg": 65.0,
      "soil_moisture_avg": 0.0,
      "temperature_avg": 17.6,
      "pressure_avg": 955.0,
      "rain_mult": 0.0,
      "soil_mult": 0.8,
      "humidity_mult": 1.03,
      "raw_dynamic_score": 0.0,
      "dynamic_level": "None"
    },
    {
      "id": "5233.0",
      "name": "Negrales - Los Llanos, Los",
      "latitude": 40.63821532,
      "longitude": -4.019676549,
      "base_risk": 8.54,
      "rain_6h_mm": 0.1,
      "humidity_avg": 79.7,
      "soil_moisture_avg": 0.0,
      "temperature_avg": 13.5,
      "pressure_avg": 919.2,
      "rain_mult": 0.001,
      "soil_mult": 0.8,
      "humidity_mult": 1.059,
      "raw_dynamic_score": 0.007,
      "dynamic_level": "Low"
    },
    {
      "id": "5342.0",
      "name": "Molinos, Los (Diseminado)",
      "latitude": 40.46735812,
      "longitude": -3.368085956,
      "base_risk": 8.66,
      "rain_6h_mm": 0.1,
      "humidity_avg": 66.8,
      "soil_moisture_avg": 0.0,
      "temperature_avg": 17.1,
      "pressure_avg": 951.8,
      "rain_mult": 0.001,
      "soil_mult": 0.8,
      "humidity_mult": 1.034,
      "raw_dynamic_score": 0.007,
      "dynamic_level": "Low"
    },
    {
      "id": "5439.0",
      "name": "Alcalá de Henares (Diseminado)",
      "latitude": 40.46805229,
      "longitude": -3.366381211,
      "base_risk": 8.66,
      "rain_6h_mm": 0.1,
      "humidity_avg": 66.8,
      "soil_moisture_avg": 0.0,
      "temperature_avg": 17.0,
      "pressure_avg": 951.6,
      "rain_mult": 0.001,
      "soil_mult": 0.8,
      "humidity_mult": 1.034,
      "raw_dynamic_score": 0.007,
      "dynamic_level": "Low"
    },
    {
      "id": "5637.0",
      "name": "Rozas de Madrid, Las",
      "latitude": 40.8177328,
      "longitude": -3.536314052,
      "base_risk": 8.7,
      "rain_6h_mm": 0.7,
      "humidity_avg": 78.2,
      "soil_moisture_avg": 0.0,
      "temperature_avg": 15.0,
      "pressure_avg": 936.9,
      "rain_mult": 0.007,
      "soil_mult": 0.8,
      "humidity_mult": 1.056,
      "raw_dynamic_score": 0.051,
      "dynamic_level": "Low"
    },
    {
      "id": "6217.0",
      "name": "Torrelaguna (Diseminado)",
      "latitude": 40.82209286,
      "longitude": -3.535483086,
      "base_risk": 8.54,
      "rain_6h_mm": 0.7,
      "humidity_avg": 78.2,
      "soil_moisture_avg": 0.0,
      "temperature_avg": 14.9,
      "pressure_avg": 936.7,
      "rain_mult": 0.007,
      "soil_mult": 0.8,
      "humidity_mult": 1.056,
      "raw_dynamic_score": 0.051,
      "dynamic_level": "Low"
    },
    {
      "id": "6226.0",
      "name": "Arganda del Rey",
      "latitude": 40.32107599,
      "longitude": -3.459751811,
      "base_risk": 8.52,
      "rain_6h_mm": 0.0,
      "humidity_avg": 63.8,
      "soil_moisture_avg": 0.0,
      "temperature_avg": 17.6,
      "pressure_avg": 954.9,
      "rain_mult": 0.0,
      "soil_mult": 0.8,
      "humidity_mult": 1.028,
      "raw_dynamic_score": 0.0,
      "dynamic_level": "None"
    },
    {
      "id": "6271.0",
      "name": "Cotorredondo",
      "latitude": 40.24827142,
      "longitude": -3.950183328,
      "base_risk": 8.56,
      "rain_6h_mm": 0.0,
      "humidity_avg": 69.3,
      "soil_moisture_avg": 0.0,
      "temperature_avg": 16.9,
      "pressure_avg": 955.1,
      "rain_mult": 0.0,
      "soil_mult": 0.8,
      "humidity_mult": 1.039,
      "raw_dynamic_score": 0.0,
      "dynamic_level": "None"
    },
    {
      "id": "6538.0",
      "name": "Aranjuez",
      "latitude": 40.03500409,
      "longitude": -3.61336658,
      "base_risk": 9.09,
      "rain_6h_mm": 0.0,
      "humidity_avg": 55.3,
      "soil_moisture_avg": 0.0,
      "temperature_avg": 19.0,
      "pressure_avg": 961.9,
      "rain_mult": 0.0,
      "soil_mult": 0.8,
      "humidity_mult": 1.011,
      "raw_dynamic_score": 0.0,
      "dynamic_level": "None"
    },
    {
      "id": "6541.0",
      "name": "Aranjuez",
      "latitude": 40.02900912,
      "longitude": -3.624651302,
      "base_risk": 8.98,
      "rain_6h_mm": 0.0,
      "humidity_avg": 53.7,
      "soil_moisture_avg": 0.0,
      "temperature_avg": 19.3,
      "pressure_avg": 962.0,
      "rain_mult": 0.0,
      "soil_mult": 0.8,
      "humidity_mult": 1.007,
      "raw_dynamic_score": 0.0,
      "dynamic_level": "None"
    },
    {
      "id": "6542.0",
      "name": "Meco",
      "latitude": 40.03231106,
      "longitude": -3.62339282,
      "base_risk": 9.07,
      "rain_6h_mm": 0.0,
      "humidity_avg": 55.3,
      "soil_moisture_avg": 0.0,
      "temperature_avg": 19.0,
      "pressure_avg": 962.5,
      "rain_mult": 0.0,
      "soil_mult": 0.8,
      "humidity_mult": 1.011,
      "raw_dynamic_score": 0.0,
      "dynamic_level": "None"
    },
    {
      "id": "6993.0",
      "name": "Aranjuez",
      "latitude": 40.02889065,
      "longitude": -3.643802317,
      "base_risk": 9.18,
      "rain_6h_mm": 0.0,
      "humidity_avg": 53.7,
      "soil_moisture_avg": 0.0,
      "temperature_avg": 19.4,
      "pressure_avg": 963.0,
      "rain_mult": 0.0,
      "soil_mult": 0.8,
      "humidity_mult": 1.007,
      "raw_dynamic_score": 0.0,
      "dynamic_level": "None"
    },
    {
      "id": "7019.0",
      "name": "Aranjuez",
      "latitude": 40.04122083,
      "longitude": -3.586864511,
      "base_risk": 9.07,
      "rain_6h_mm": 0.0,
      "humidity_avg": 54.3,
      "soil_moisture_avg": 0.0,
      "temperature_avg": 19.2,
      "pressure_avg": 961.8,
      "rain_mult": 0.0,
      "soil_mult": 0.8,
      "humidity_mult": 1.009,
      "raw_dynamic_score": 0.0,
      "dynamic_level": "None"
    },
    {
      "id": "7020.0",
      "name": "Aranjuez",
      "latitude": 40.0393903,
      "longitude": -3.606112056,
      "base_risk": 9.12,
      "rain_6h_mm": 0.0,
      "humidity_avg": 55.3,
      "soil_moisture_avg": 0.0,
      "temperature_avg": 19.0,
      "pressure_avg": 962.2,
      "rain_mult": 0.0,
      "soil_mult": 0.8,
      "humidity_mult": 1.011,
      "raw_dynamic_score": 0.0,
      "dynamic_level": "None"
    },
    {
      "id": "7022.0",
      "name": "Aranjuez",
      "latitude": 40.0361086,
      "longitude": -3.602341593,
      "base_risk": 9.01,
      "rain_6h_mm": 0.0,
      "humidity_avg": 55.3,
      "soil_moisture_avg": 0.0,
      "temperature_avg": 19.0,
      "pressure_avg": 961.5,
      "rain_mult": 0.0,
      "soil_mult": 0.8,
      "humidity_mult": 1.011,
      "raw_dynamic_score": 0.0,
      "dynamic_level": "None"
    },
    {
      "id": "7029.0",
      "name": "Aranjuez",
      "latitude": 40.03388726,
      "longitude": -3.604464125,
      "base_risk": 9.03,
      "rain_6h_mm": 0.0,
      "humidity_avg": 55.3,
      "soil_moisture_avg": 0.0,
      "temperature_avg": 19.0,
      "pressure_avg": 961.9,
      "rain_mult": 0.0,
      "soil_mult": 0.8,
      "humidity_mult": 1.011,
      "raw_dynamic_score": 0.0,
      "dynamic_level": "None"
    },
    {
      "id": "7030.0",
      "name": "Miraflores de la Sierra",
      "latitude": 40.03462197,
      "longitude": -3.60681123,
      "base_risk": 9.05,
      "rain_6h_mm": 0.0,
      "humidity_avg": 55.3,
      "soil_moisture_avg": 0.0,
      "temperature_avg": 19.0,
      "pressure_avg": 961.9,
      "rain_mult": 0.0,
      "soil_mult": 0.8,
      "humidity_mult": 1.011,
      "raw_dynamic_score": 0.0,
      "dynamic_level": "None"
    },
    {
      "id": "7084.0",
      "name": "Daganzo de Arriba",
      "latitude": 40.5429398,
      "longitude": -3.454840341,
      "base_risk": 8.53,
      "rain_6h_mm": 0.2,
      "humidity_avg": 70.2,
      "soil_moisture_avg": 0.0,
      "temperature_avg": 16.3,
      "pressure_avg": 943.5,
      "rain_mult": 0.002,
      "soil_mult": 0.8,
      "humidity_mult": 1.04,
      "raw_dynamic_score": 0.014,
      "dynamic_level": "Low"
    },
    {
      "id": "7301.0",
      "name": "Aldea del Fresno (Diseminado)",
      "latitude": 40.32436914,
      "longitude": -4.196441854,
      "base_risk": 8.82,
      "rain_6h_mm": 0.0,
      "humidity_avg": 70.8,
      "soil_moisture_avg": 0.0,
      "temperature_avg": 17.1,
      "pressure_avg": 964.8,
      "rain_mult": 0.0,
      "soil_mult": 0.8,
      "humidity_mult": 1.042,
      "raw_dynamic_score": 0.0,
      "dynamic_level": "None"
    },
    {
      "id": "7768.0",
      "name": "Aranjuez",
      "latitude": 40.03492818,
      "longitude": -3.587512804,
      "base_risk": 8.8,
      "rain_6h_mm": 0.0,
      "humidity_avg": 54.3,
      "soil_moisture_avg": 0.0,
      "temperature_avg": 19.1,
      "pressure_avg": 961.1,
      "rain_mult": 0.0,
      "soil_mult": 0.8,
      "humidity_mult": 1.009,
      "raw_dynamic_score": 0.0,
      "dynamic_level": "None"
    },
    {
      "id": "7779.0",
      "name": "Aranjuez",
      "latitude": 40.03756623,
      "longitude": -3.60405899,
      "base_risk": 9.05,
      "rain_6h_mm": 0.0,
      "humidity_avg": 55.3,
      "soil_moisture_avg": 0.0,
      "temperature_avg": 19.0,
      "pressure_avg": 962.1,
      "rain_mult": 0.0,
      "soil_mult": 0.8,
      "humidity_mult": 1.011,
      "raw_dynamic_score": 0.0,
      "dynamic_level": "None"
    },
    {
      "id": "7861.0",
      "name": "Aranjuez",
      "latitude": 40.03587557,
      "longitude": -3.617226504,
      "base_risk": 9.08,
      "rain_6h_mm": 0.0,
      "humidity_avg": 55.3,
      "soil_moisture_avg": 0.0,
      "temperature_avg": 19.0,
      "pressure_avg": 962.1,
      "rain_mult": 0.0,
      "soil_mult": 0.8,
      "humidity_mult": 1.011,
      "raw_dynamic_score": 0.0,
      "dynamic_level": "None"
    },
    {
      "id": "7862.0",
      "name": "Berzosa, La",
      "latitude": 40.03474034,
      "longitude": -3.618327634,
      "base_risk": 9.04,
      "rain_6h_mm": 0.0,
      "humidity_avg": 55.3,
      "soil_moisture_avg": 0.0,
      "temperature_avg": 19.0,
      "pressure_avg": 961.9,
      "rain_mult": 0.0,
      "soil_mult": 0.8,
      "humidity_mult": 1.011,
      "raw_dynamic_score": 0.0,
      "dynamic_level": "None"
    },
    {
      "id": "10740.0",
      "name": "Madrid",
      "latitude": 40.45323171,
      "longitude": -3.77033754,
      "base_risk": 8.54,
      "rain_6h_mm": 0.1,
      "humidity_avg": 68.7,
      "soil_moisture_avg": 0.0,
      "temperature_avg": 16.5,
      "pressure_avg": 948.0,
      "rain_mult": 0.001,
      "soil_mult": 0.8,
      "humidity_mult": 1.037,
      "raw_dynamic_score": 0.007,
      "dynamic_level": "Low"
    },
    {
      "id": "10745.0",
      "name": "Madrid",
      "latitude": 40.45440596,
      "longitude": -3.765855206,
      "base_risk": 8.59,
      "rain_6h_mm": 0.1,
      "humidity_avg": 68.7,
      "soil_moisture_avg": 0.0,
      "temperature_avg": 16.4,
      "pressure_avg": 947.5,
      "rain_mult": 0.001,
      "soil_mult": 0.8,
      "humidity_mult": 1.037,
      "raw_dynamic_score": 0.007,
      "dynamic_level": "Low"
    },
    {
      "id": "10746.0",
      "name": "Madrid",
      "latitude": 40.4550349,
      "longitude": -3.760406846,
      "base_risk": 8.68,
      "rain_6h_mm": 0.1,
      "humidity_avg": 68.7,
      "soil_moisture_avg": 0.0,
      "temperature_avg": 16.5,
      "pressure_avg": 948.5,
      "rain_mult": 0.001,
      "soil_mult": 0.8,
      "humidity_mult": 1.037,
      "raw_dynamic_score": 0.007,
      "dynamic_level": "Low"
    },
    {
      "id": "13412.0",
      "name": "Cerrada, La",
      "latitude": 40.83797765,
      "longitude": -3.486190777,
      "base_risk": 8.59,
      "rain_6h_mm": 0.7,
      "humidity_avg": 75.3,
      "soil_moisture_avg": 0.0,
      "temperature_avg": 14.7,
      "pressure_avg": 938.6,
      "rain_mult": 0.007,
      "soil_mult": 0.8,
      "humidity_mult": 1.051,
      "raw_dynamic_score": 0.051,
      "dynamic_level": "Low"
    },
    {
      "id": "13859.0",
      "name": "Fuenlabrada",
      "latitude": 40.54480431,
      "longitude": -3.455264648,
      "base_risk": 8.53,
      "rain_6h_mm": 0.2,
      "humidity_avg": 70.2,
      "soil_moisture_avg": 0.0,
      "temperature_avg": 16.2,
      "pressure_avg": 943.2,
      "rain_mult": 0.002,
      "soil_mult": 0.8,
      "humidity_mult": 1.04,
      "raw_dynamic_score": 0.014,
      "dynamic_level": "Low"
    },
    {
      "id": "14692.0",
      "name": "Estación, La",
      "latitude": 40.63239499,
      "longitude": -4.012220327,
      "base_risk": 8.7,
      "rain_6h_mm": 0.1,
      "humidity_avg": 79.7,
      "soil_moisture_avg": 0.0,
      "temperature_avg": 13.5,
      "pressure_avg": 919.5,
      "rain_mult": 0.001,
      "soil_mult": 0.8,
      "humidity_mult": 1.059,
      "raw_dynamic_score": 0.007,
      "dynamic_level": "Low"
    },
    {
      "id": "15520.0",
      "name": "Cerceda",
      "latitude": 40.70086837,
      "longitude": -3.930601128,
      "base_risk": 8.54,
      "rain_6h_mm": 0.7,
      "humidity_avg": 81.0,
      "soil_moisture_avg": 0.0,
      "temperature_avg": 12.2,
      "pressure_avg": 912.3,
      "rain_mult": 0.007,
      "soil_mult": 0.8,
      "humidity_mult": 1.062,
      "raw_dynamic_score": 0.051,
      "dynamic_level": "Low"
    },
    {
      "id": "15521.0",
      "name": "Vegas - Santa María, Las",
      "latitude": 40.70107159,
      "longitude": -3.929124771,
      "base_risk": 8.7,
      "rain_6h_mm": 0.7,
      "humidity_avg": 81.0,
      "soil_moisture_avg": 0.0,
      "temperature_avg": 12.3,
      "pressure_avg": 912.4,
      "rain_mult": 0.007,
      "soil_mult": 0.8,
      "humidity_mult": 1.062,
      "raw_dynamic_score": 0.052,
      "dynamic_level": "Low"
    },
    {
      "id": "15860.0",
      "name": "Estación, La",
      "latitude": 40.63603127,
      "longitude": -4.01469132,
      "base_risk": 8.63,
      "rain_6h_mm": 0.1,
      "humidity_avg": 79.7,
      "soil_moisture_avg": 0.0,
      "temperature_avg": 13.5,
      "pressure_avg": 919.4,
      "rain_mult": 0.001,
      "soil_mult": 0.8,
      "humidity_mult": 1.059,
      "raw_dynamic_score": 0.007,
      "dynamic_level": "Low"
    },
    {
      "id": "15862.0",
      "name": "Arroyomolinos (Diseminado)",
      "latitude": 40.63714491,
      "longitude": -4.017140266,
      "base_risk": 8.61,
      "rain_6h_mm": 0.1,
      "humidity_avg": 79.7,
      "soil_moisture_avg": 0.0,
      "temperature_avg": 13.4,
      "pressure_avg": 918.5,
      "rain_mult": 0.001,
      "soil_mult": 0.8,
      "humidity_mult": 1.059,
      "raw_dynamic_score": 0.007,
      "dynamic_level": "Low"
    },
    {
      "id": "16046.0",
      "name": "Estación, La",
      "latitude": 40.63501547,
      "longitude": -4.013930415,
      "base_risk": 8.65,
      "rain_6h_mm": 0.1,
      "humidity_avg": 79.7,
      "soil_moisture_avg": 0.0,
      "temperature_avg": 13.5,
      "pressure_avg": 919.4,
      "rain_mult": 0.001,
      "soil_mult": 0.8,
      "humidity_mult": 1.059,
      "raw_dynamic_score": 0.007,
      "dynamic_level": "Low"
    },
    {
      "id": "16060.0",
      "name": "Arroyomolinos",
      "latitude": 40.63384159,
      "longitude": -4.013777071,
      "base_risk": 8.68,
      "rain_6h_mm": 0.1,
      "humidity_avg": 79.7,
      "soil_moisture_avg": 0.0,
      "temperature_avg": 13.5,
      "pressure_avg": 919.5,
      "rain_mult": 0.001,
      "soil_mult": 0.8,
      "humidity_mult": 1.059,
      "raw_dynamic_score": 0.007,
      "dynamic_level": "Low"
    },
    {
      "id": "16364.0",
      "name": "Madrid",
      "latitude": 40.13735064,
      "longitude": -3.573868547,
      "base_risk": 8.56,
      "rain_6h_mm": 0.0,
      "humidity_avg": 56.7,
      "soil_moisture_avg": 0.0,
      "temperature_avg": 18.8,
      "pressure_avg": 961.1,
      "rain_mult": 0.0,
      "soil_mult": 0.8,
      "humidity_mult": 1.013,
      "raw_dynamic_score": 0.0,
      "dynamic_level": "None"
    },
    {
      "id": "18722.0",
      "name": "Quintana",
      "latitude": 40.47001657,
      "longitude": -3.525564116,
      "base_risk": 8.55,
      "rain_6h_mm": 0.1,
      "humidity_avg": 68.2,
      "soil_moisture_avg": 0.0,
      "temperature_avg": 17.0,
      "pressure_avg": 953.4,
      "rain_mult": 0.001,
      "soil_mult": 0.8,
      "humidity_mult": 1.036,
      "raw_dynamic_score": 0.007,
      "dynamic_level": "Low"
    },
    {
      "id": "18813.0",
      "name": "Alcorcón",
      "latitude": 40.46031113,
      "longitude": -3.526844932,
      "base_risk": 8.6,
      "rain_6h_mm": 0.1,
      "humidity_avg": 65.3,
      "soil_moisture_avg": 0.0,
      "temperature_avg": 17.2,
      "pressure_avg": 953.8,
      "rain_mult": 0.001,
      "soil_mult": 0.8,
      "humidity_mult": 1.031,
      "raw_dynamic_score": 0.007,
      "dynamic_level": "Low"
    },
    {
      "id": "21126.0",
      "name": "Torrejón de la Calzada (Diseminado)",
      "latitude": 40.27046564,
      "longitude": -3.749403704,
      "base_risk": 8.52,
      "rain_6h_mm": 0.0,
      "humidity_avg": 66.7,
      "soil_moisture_avg": 0.0,
      "temperature_avg": 17.0,
      "pressure_avg": 947.6,
      "rain_mult": 0.0,
      "soil_mult": 0.8,
      "humidity_mult": 1.033,
      "raw_dynamic_score": 0.0,
      "dynamic_level": "None"
    },
    {
      "id": "21153.0",
      "name": "Tres Cantos",
      "latitude": 40.06772459,
      "longitude": -3.615281189,
      "base_risk": 8.9,
      "rain_6h_mm": 0.0,
      "humidity_avg": 55.3,
      "soil_moisture_avg": 0.0,
      "temperature_avg": 19.0,
      "pressure_avg": 962.3,
      "rain_mult": 0.0,
      "soil_mult": 0.8,
      "humidity_mult": 1.011,
      "raw_dynamic_score": 0.0,
      "dynamic_level": "None"
    },
    {
      "id": "22122.0",
      "name": "Madrid",
      "latitude": 40.46815939,
      "longitude": -3.526159181,
      "base_risk": 8.63,
      "rain_6h_mm": 0.1,
      "humidity_avg": 65.3,
      "soil_moisture_avg": 0.0,
      "temperature_avg": 17.2,
      "pressure_avg": 953.4,
      "rain_mult": 0.001,
      "soil_mult": 0.8,
      "humidity_mult": 1.031,
      "raw_dynamic_score": 0.007,
      "dynamic_level": "Low"
    },
    {
      "id": "23106.0",
      "name": "Serna, La (Diseminado)",
      "latitude": 40.0342122,
      "longitude": -3.616444956,
      "base_risk": 9.07,
      "rain_6h_mm": 0.0,
      "humidity_avg": 55.3,
      "soil_moisture_avg": 0.0,
      "temperature_avg": 19.0,
      "pressure_avg": 962.1,
      "rain_mult": 0.0,
      "soil_mult": 0.8,
      "humidity_mult": 1.011,
      "raw_dynamic_score": 0.0,
      "dynamic_level": "None"
    },
    {
      "id": "24538.0",
      "name": "Collado Villalba",
      "latitude": 40.35572772,
      "longitude": -3.482298184,
      "base_risk": 9.36,
      "rain_6h_mm": 0.0,
      "humidity_avg": 65.0,
      "soil_moisture_avg": 0.0,
      "temperature_avg": 17.7,
      "pressure_avg": 956.7,
      "rain_mult": 0.0,
      "soil_mult": 0.8,
      "humidity_mult": 1.03,
      "raw_dynamic_score": 0.0,
      "dynamic_level": "None"
    },
    {
      "id": "25738.0",
      "name": "Quintana",
      "latitude": 40.47422992,
      "longitude": -3.531955357,
      "base_risk": 8.53,
      "rain_6h_mm": 0.1,
      "humidity_avg": 67.3,
      "soil_moisture_avg": 0.0,
      "temperature_avg": 17.1,
      "pressure_avg": 953.4,
      "rain_mult": 0.001,
      "soil_mult": 0.8,
      "humidity_mult": 1.035,
      "raw_dynamic_score": 0.007,
      "dynamic_level": "Low"
    },
    {
      "id": "25739.0",
      "name": "Fresno de Torote (Diseminado)",
      "latitude": 40.47115819,
      "longitude": -3.529394311,
      "base_risk": 8.55,
      "rain_6h_mm": 0.1,
      "humidity_avg": 68.2,
      "soil_moisture_avg": 0.0,
      "temperature_avg": 17.0,
      "pressure_avg": 953.5,
      "rain_mult": 0.001,
      "soil_mult": 0.8,
      "humidity_mult": 1.036,
      "raw_dynamic_score": 0.007,
      "dynamic_level": "Low"
    },
    {
      "id": "25812.0",
      "name": "Madrid",
      "latitude": 40.47018677,
      "longitude": -3.528635872,
      "base_risk": 8.57,
      "rain_6h_mm": 0.1,
      "humidity_avg": 68.2,
      "soil_moisture_avg": 0.0,
      "temperature_avg": 17.1,
      "pressure_avg": 953.6,
      "rain_mult": 0.001,
      "soil_mult": 0.8,
      "humidity_mult": 1.036,
      "raw_dynamic_score": 0.007,
      "dynamic_level": "Low"
    },
    {
      "id": "25816.0",
      "name": "San Sebastián de los Reyes (Diseminado)",
      "latitude": 40.53694887,
      "longitude": -3.554980564,
      "base_risk": 8.71,
      "rain_6h_mm": 0.1,
      "humidity_avg": 70.2,
      "soil_moisture_avg": 0.0,
      "temperature_avg": 16.5,
      "pressure_avg": 951.9,
      "rain_mult": 0.001,
      "soil_mult": 0.8,
      "humidity_mult": 1.04,
      "raw_dynamic_score": 0.007,
      "dynamic_level": "Low"
    },
    {
      "id": "25994.0",
      "name": "Villanueva de Perales",
      "latitude": 40.5317529,
      "longitude": -3.55582203,
      "base_risk": 8.71,
      "rain_6h_mm": 0.1,
      "humidity_avg": 70.2,
      "soil_moisture_avg": 0.0,
      "temperature_avg": 16.5,
      "pressure_avg": 951.6,
      "rain_mult": 0.001,
      "soil_mult": 0.8,
      "humidity_mult": 1.04,
      "raw_dynamic_score": 0.007,
      "dynamic_level": "Low"
    },
    {
      "id": "26041.0",
      "name": "Valle del Río",
      "latitude": 40.63119475,
      "longitude": -3.398294824,
      "base_risk": 8.51,
      "rain_6h_mm": 0.2,
      "humidity_avg": 71.5,
      "soil_moisture_avg": 0.0,
      "temperature_avg": 15.8,
      "pressure_avg": 938.4,
      "rain_mult": 0.002,
      "soil_mult": 0.8,
      "humidity_mult": 1.043,
      "raw_dynamic_score": 0.014,
      "dynamic_level": "Low"
    },
    {
      "id": "27060.0",
      "name": "Espinillos (Diseminado)",
      "latitude": 40.47122142,
      "longitude": -3.530486695,
      "base_risk": 8.51,
      "rain_6h_mm": 0.1,
      "humidity_avg": 68.2,
      "soil_moisture_avg": 0.0,
      "temperature_avg": 17.0,
      "pressure_avg": 953.5,
      "rain_mult": 0.001,
      "soil_mult": 0.8,
      "humidity_mult": 1.036,
      "raw_dynamic_score": 0.007,
      "dynamic_level": "Low"
    },
    {
      "id": "27840.0",
      "name": "Castellanas, Las (Diseminado)",
      "latitude": 40.63170987,
      "longitude": -3.396786174,
      "base_risk": 8.51,
      "rain_6h_mm": 0.2,
      "humidity_avg": 71.5,
      "soil_moisture_avg": 0.0,
      "temperature_avg": 15.8,
      "pressure_avg": 938.2,
      "rain_mult": 0.002,
      "soil_mult": 0.8,
      "humidity_mult": 1.043,
      "raw_dynamic_score": 0.014,
      "dynamic_level": "Low"
    },
    {
      "id": "27927.0",
      "name": "Madrid",
      "latitude": 40.45947113,
      "longitude": -3.526053892,
      "base_risk": 8.6,
      "rain_6h_mm": 0.1,
      "humidity_avg": 65.3,
      "soil_moisture_avg": 0.0,
      "temperature_avg": 17.2,
      "pressure_avg": 953.9,
      "rain_mult": 0.001,
      "soil_mult": 0.8,
      "humidity_mult": 1.031,
      "raw_dynamic_score": 0.007,
      "dynamic_level": "Low"
    },
    {
      "id": "28321.0",
      "name": "Viveros (Diseminado)",
      "latitude": 40.45063835,
      "longitude": -3.523578512,
      "base_risk": 8.59,
      "rain_6h_mm": 0.1,
      "humidity_avg": 65.3,
      "soil_moisture_avg": 0.0,
      "temperature_avg": 17.2,
      "pressure_avg": 953.5,
      "rain_mult": 0.001,
      "soil_mult": 0.8,
      "humidity_mult": 1.031,
      "raw_dynamic_score": 0.007,
      "dynamic_level": "Low"
    },
    {
      "id": "32547.0",
      "name": "Bosque, El",
      "latitude": 40.38537243,
      "longitude": -3.94660677,
      "base_risk": 8.65,
      "rain_6h_mm": 0.0,
      "humidity_avg": 72.2,
      "soil_moisture_avg": 0.0,
      "temperature_avg": 16.4,
      "pressure_avg": 952.3,
      "rain_mult": 0.0,
      "soil_mult": 0.8,
      "humidity_mult": 1.044,
      "raw_dynamic_score": 0.0,
      "dynamic_level": "None"
    },
    {
      "id": "36497.0",
      "name": "Álamo, El (Diseminado)",
      "latitude": 40.53748944,
      "longitude": -3.604215078,
      "base_risk": 8.63,
      "rain_6h_mm": 0.1,
      "humidity_avg": 71.2,
      "soil_moisture_avg": 0.0,
      "temperature_avg": 16.2,
      "pressure_avg": 947.6,
      "rain_mult": 0.001,
      "soil_mult": 0.8,
      "humidity_mult": 1.042,
      "raw_dynamic_score": 0.007,
      "dynamic_level": "Low"
    },
    {
      "id": "38623.0",
      "name": "Patones de Abajo",
      "latitude": 40.85668067,
      "longitude": -3.483940056,
      "base_risk": 9.1,
      "rain_6h_mm": 0.7,
      "humidity_avg": 75.3,
      "soil_moisture_avg": 0.0,
      "temperature_avg": 14.5,
      "pressure_avg": 936.7,
      "rain_mult": 0.007,
      "soil_mult": 0.8,
      "humidity_mult": 1.051,
      "raw_dynamic_score": 0.054,
      "dynamic_level": "Low"
    },
    {
      "id": "38626.0",
      "name": "Ribatejada",
      "latitude": 40.85685184,
      "longitude": -3.482945368,
      "base_risk": 9.11,
      "rain_6h_mm": 0.7,
      "humidity_avg": 75.3,
      "soil_moisture_avg": 0.0,
      "temperature_avg": 14.5,
      "pressure_avg": 936.9,
      "rain_mult": 0.007,
      "soil_mult": 0.8,
      "humidity_mult": 1.051,
      "raw_dynamic_score": 0.054,
      "dynamic_level": "Low"
    },
    {
      "id": "38707.0",
      "name": "Patones de Abajo",
      "latitude": 40.8541403,
      "longitude": -3.485261663,
      "base_risk": 9.13,
      "rain_6h_mm": 0.7,
      "humidity_avg": 75.3,
      "soil_moisture_avg": 0.0,
      "temperature_avg": 14.5,
      "pressure_avg": 937.1,
      "rain_mult": 0.007,
      "soil_mult": 0.8,
      "humidity_mult": 1.051,
      "raw_dynamic_score": 0.054,
      "dynamic_level": "Low"
    },
    {
      "id": "42803.0",
      "name": "Praonal, El (Diseminado)",
      "latitude": 40.29251969,
      "longitude": -3.676266649,
      "base_risk": 8.94,
      "rain_6h_mm": 0.3,
      "humidity_avg": 65.5,
      "soil_moisture_avg": 0.0,
      "temperature_avg": 17.1,
      "pressure_avg": 951.1,
      "rain_mult": 0.003,
      "soil_mult": 0.8,
      "humidity_mult": 1.031,
      "raw_dynamic_score": 0.022,
      "dynamic_level": "Low"
    },
    {
      "id": "44863.0",
      "name": "Pozuelo de Alarcón (Diseminado)",
      "latitude": 40.53557096,
      "longitude": -3.380200601,
      "base_risk": 8.54,
      "rain_6h_mm": 0.2,
      "humidity_avg": 68.7,
      "soil_moisture_avg": 0.0,
      "temperature_avg": 16.5,
      "pressure_avg": 946.8,
      "rain_mult": 0.002,
      "soil_mult": 0.8,
      "humidity_mult": 1.037,
      "raw_dynamic_score": 0.014,
      "dynamic_level": "Low"
    },
    {
      "id": "44927.0",
      "name": "Butarque (Diseminado)",
      "latitude": 40.35073165,
      "longitude": -3.747308193,
      "base_risk": 8.69,
      "rain_6h_mm": 0.1,
      "humidity_avg": 68.2,
      "soil_moisture_avg": 0.0,
      "temperature_avg": 16.7,
      "pressure_avg": 947.6,
      "rain_mult": 0.001,
      "soil_mult": 0.8,
      "humidity_mult": 1.036,
      "raw_dynamic_score": 0.007,
      "dynamic_level": "Low"
    },
    {
      "id": "nan",
      "name": "Da Nang, Vietnam",
      "latitude": 16.0544,
      "longitude": 108.2022,
      "base_risk": 9.1,
      "rain_6h_mm": 2.5,
      "humidity_avg": 95.2,
      "soil_moisture_avg": 0.0,
      "temperature_avg": 24.0,
      "pressure_avg": 1013.3,
      "rain_mult": 0.025,
      "soil_mult": 0.8,
      "humidity_mult": 1.09,
      "raw_dynamic_score": 0.198,
      "dynamic_level": "Low"
    },
    {
      "id": "nan",
      "name": "Catarman, Philippines",
      "latitude": 12.4989,
      "longitude": 124.6377,
      "base_risk": 9.2,
      "rain_6h_mm": 0.0,
      "humidity_avg": 93.3,
      "soil_moisture_avg": 0.0,
      "temperature_avg": 25.7,
      "pressure_avg": 1010.6,
      "rain_mult": 0.0,
      "soil_mult": 0.8,
      "humidity_mult": 1.087,
      "raw_dynamic_score": 0.0,
      "dynamic_level": "None"
    },
    {
      "id": "nan",
      "name": "Mawsynram, India",
      "latitude": 25.237,
      "longitude": 91.542,
      "base_risk": 8.99,
      "rain_6h_mm": 0.5,
      "humidity_avg": 84.8,
      "soil_moisture_avg": 0.0,
      "temperature_avg": 21.2,
      "pressure_avg": 925.4,
      "rain_mult": 0.005,
      "soil_mult": 0.8,
      "humidity_mult": 1.07,
      "raw_dynamic_score": 0.038,
      "dynamic_level": "Low"
    },
    {
      "id": "nan",
      "name": "Mumbai, India",
      "latitude": 19.056,
      "longitude": 72.878,
      "base_risk": 9.42,
      "rain_6h_mm": 2.4,
      "humidity_avg": 88.0,
      "soil_moisture_avg": 0.0,
      "temperature_avg": 27.1,
      "pressure_avg": 1010.6,
      "rain_mult": 0.024,
      "soil_mult": 0.8,
      "humidity_mult": 1.076,
      "raw_dynamic_score": 0.195,
      "dynamic_level": "Low"
    },
    {
      "id": "nan",
      "name": "Mangalore, India",
      "latitude": 12.914,
      "longitude": 74.876,
      "base_risk": 8.91,
      "rain_6h_mm": 0.0,
      "humidity_avg": 74.5,
      "soil_moisture_avg": 0.0,
      "temperature_avg": 27.6,
      "pressure_avg": 1008.4,
      "rain_mult": 0.0,
      "soil_mult": 0.8,
      "humidity_mult": 1.049,
      "raw_dynamic_score": 0.0,
      "dynamic_level": "None"
    },
    {
      "id": "nan",
      "name": "Kochi, India",
      "latitude": 9.951,
      "longitude": 76.227,
      "base_risk": 9.23,
      "rain_6h_mm": 0.0,
      "humidity_avg": 72.0,
      "soil_moisture_avg": 0.0,
      "temperature_avg": 28.6,
      "pressure_avg": 1012.8,
      "rain_mult": 0.0,
      "soil_mult": 0.8,
      "humidity_mult": 1.044,
      "raw_dynamic_score": 0.0,
      "dynamic_level": "None"
    },
    {
      "id": "nan",
      "name": "Thiruvananthapuram, India",
      "latitude": 8.484,
      "longitude": 76.976,
      "base_risk": 9.12,
      "rain_6h_mm": 0.0,
      "humidity_avg": 81.5,
      "soil_moisture_avg": 0.0,
      "temperature_avg": 26.7,
      "pressure_avg": 1009.1,
      "rain_mult": 0.0,
      "soil_mult": 0.8,
      "humidity_mult": 1.063,
      "raw_dynamic_score": 0.0,
      "dynamic_level": "None"
    },
    {
      "id": "nan",
      "name": "Kolkata, India",
      "latitude": 22.632,
      "longitude": 88.344,
      "base_risk": 8.64,
      "rain_6h_mm": 1.8,
      "humidity_avg": 92.5,
      "soil_moisture_avg": 0.0,
      "temperature_avg": 26.6,
      "pressure_avg": 1008.1,
      "rain_mult": 0.018,
      "soil_mult": 0.8,
      "humidity_mult": 1.085,
      "raw_dynamic_score": 0.135,
      "dynamic_level": "Low"
    },
    {
      "id": "nan",
      "name": "Sylhet, Bangladesh",
      "latitude": 24.954,
      "longitude": 91.868,
      "base_risk": 8.76,
      "rain_6h_mm": 0.0,
      "humidity_avg": 90.8,
      "soil_moisture_avg": 0.0,
      "temperature_avg": 26.3,
      "pressure_avg": 1006.4,
      "rain_mult": 0.0,
      "soil_mult": 0.8,
      "humidity_mult": 1.082,
      "raw_dynamic_score": 0.0,
      "dynamic_level": "None"
    },
    {
      "id": "nan",
      "name": "Chattogram, Bangladesh",
      "latitude": 22.316,
      "longitude": 91.763,
      "base_risk": 9.06,
      "rain_6h_mm": 0.0,
      "humidity_avg": 73.5,
      "soil_moisture_avg": 0.0,
      "temperature_avg": 29.8,
      "pressure_avg": 1008.4,
      "rain_mult": 0.0,
      "soil_mult": 0.8,
      "humidity_mult": 1.047,
      "raw_dynamic_score": 0.0,
      "dynamic_level": "None"
    },
    {
      "id": "nan",
      "name": "Cox's Bazar, Bangladesh",
      "latitude": 21.447,
      "longitude": 92.019,
      "base_risk": 9.02,
      "rain_6h_mm": 0.0,
      "humidity_avg": 83.5,
      "soil_moisture_avg": 0.0,
      "temperature_avg": 28.4,
      "pressure_avg": 1008.4,
      "rain_mult": 0.0,
      "soil_mult": 0.8,
      "humidity_mult": 1.067,
      "raw_dynamic_score": 0.0,
      "dynamic_level": "None"
    },
    {
      "id": "nan",
      "name": "Yangon, Myanmar",
      "latitude": 16.866,
      "longitude": 96.235,
      "base_risk": 9.29,
      "rain_6h_mm": 0.8,
      "humidity_avg": 94.3,
      "soil_moisture_avg": 0.0,
      "temperature_avg": 26.0,
      "pressure_avg": 1008.7,
      "rain_mult": 0.008,
      "soil_mult": 0.8,
      "humidity_mult": 1.089,
      "raw_dynamic_score": 0.065,
      "dynamic_level": "Low"
    },
    {
      "id": "nan",
      "name": "Dawei, Myanmar",
      "latitude": 14.062,
      "longitude": 98.214,
      "base_risk": 8.71,
      "rain_6h_mm": 1.6,
      "humidity_avg": 93.5,
      "soil_moisture_avg": 0.0,
      "temperature_avg": 25.6,
      "pressure_avg": 1011.0,
      "rain_mult": 0.016,
      "soil_mult": 0.8,
      "humidity_mult": 1.087,
      "raw_dynamic_score": 0.121,
      "dynamic_level": "Low"
    },
    {
      "id": "nan",
      "name": "Hue, Vietnam",
      "latitude": 16.403,
      "longitude": 107.57,
      "base_risk": 8.92,
      "rain_6h_mm": 3.6,
      "humidity_avg": 96.3,
      "soil_moisture_avg": 0.0,
      "temperature_avg": 23.6,
      "pressure_avg": 1013.4,
      "rain_mult": 0.036,
      "soil_mult": 0.8,
      "humidity_mult": 1.093,
      "raw_dynamic_score": 0.281,
      "dynamic_level": "Low"
    },
    {
      "id": "nan",
      "name": "Da Nang, Vietnam",
      "latitude": 15.994,
      "longitude": 108.163,
      "base_risk": 9.31,
      "rain_6h_mm": 2.4,
      "humidity_avg": 95.2,
      "soil_moisture_avg": 0.0,
      "temperature_avg": 23.6,
      "pressure_avg": 1014.4,
      "rain_mult": 0.024,
      "soil_mult": 0.8,
      "humidity_mult": 1.09,
      "raw_dynamic_score": 0.195,
      "dynamic_level": "Low"
    },
    {
      "id": "nan",
      "name": "Sihanoukville, Cambodia",
      "latitude": 10.665,
      "longitude": 103.482,
      "base_risk": 9.33,
      "rain_6h_mm": 1.1,
      "humidity_avg": 83.7,
      "soil_moisture_avg": 0.0,
      "temperature_avg": 27.7,
      "pressure_avg": 1011.5,
      "rain_mult": 0.011,
      "soil_mult": 0.8,
      "humidity_mult": 1.067,
      "raw_dynamic_score": 0.088,
      "dynamic_level": "Low"
    },
    {
      "id": "nan",
      "name": "Chiang Mai, Thailand",
      "latitude": 18.788,
      "longitude": 98.986,
      "base_risk": 8.74,
      "rain_6h_mm": 2.3,
      "humidity_avg": 95.3,
      "soil_moisture_avg": 0.0,
      "temperature_avg": 24.4,
      "pressure_avg": 976.6,
      "rain_mult": 0.023,
      "soil_mult": 0.8,
      "humidity_mult": 1.091,
      "raw_dynamic_score": 0.175,
      "dynamic_level": "Low"
    },
    {
      "id": "nan",
      "name": "Vientiane, Laos",
      "latitude": 17.995,
      "longitude": 102.653,
      "base_risk": 8.63,
      "rain_6h_mm": 0.1,
      "humidity_avg": 76.5,
      "soil_moisture_avg": 0.0,
      "temperature_avg": 24.2,
      "pressure_avg": 994.7,
      "rain_mult": 0.001,
      "soil_mult": 0.8,
      "humidity_mult": 1.053,
      "raw_dynamic_score": 0.007,
      "dynamic_level": "Low"
    },
    {
      "id": "nan",
      "name": "Kuala Lumpur, Malaysia",
      "latitude": 3.099,
      "longitude": 101.646,
      "base_risk": 9.06,
      "rain_6h_mm": 0.0,
      "humidity_avg": 81.5,
      "soil_moisture_avg": 0.0,
      "temperature_avg": 28.3,
      "pressure_avg": 1005.1,
      "rain_mult": 0.0,
      "soil_mult": 0.8,
      "humidity_mult": 1.063,
      "raw_dynamic_score": 0.0,
      "dynamic_level": "None"
    },
    {
      "id": "nan",
      "name": "Kota Kinabalu, Malaysia",
      "latitude": 6.04,
      "longitude": 116.053,
      "base_risk": 8.85,
      "rain_6h_mm": 0.0,
      "humidity_avg": 74.0,
      "soil_moisture_avg": 0.0,
      "temperature_avg": 29.2,
      "pressure_avg": 1011.0,
      "rain_mult": 0.0,
      "soil_mult": 0.8,
      "humidity_mult": 1.048,
      "raw_dynamic_score": 0.0,
      "dynamic_level": "None"
    },
    {
      "id": "nan",
      "name": "Singapore, Singapore",
      "latitude": 1.312,
      "longitude": 103.82,
      "base_risk": 8.72,
      "rain_6h_mm": 0.1,
      "humidity_avg": 81.0,
      "soil_moisture_avg": 0.0,
      "temperature_avg": 28.6,
      "pressure_avg": 1007.3,
      "rain_mult": 0.001,
      "soil_mult": 0.8,
      "humidity_mult": 1.062,
      "raw_dynamic_score": 0.007,
      "dynamic_level": "Low"
    },
    {
      "id": "nan",
      "name": "Jakarta, Indonesia",
      "latitude": -6.188,
      "longitude": 106.825,
      "base_risk": 9.38,
      "rain_6h_mm": 0.0,
      "humidity_avg": 85.3,
      "soil_moisture_avg": 0.0,
      "temperature_avg": 26.3,
      "pressure_avg": 1010.1,
      "rain_mult": 0.0,
      "soil_mult": 0.8,
      "humidity_mult": 1.071,
      "raw_dynamic_score": 0.0,
      "dynamic_level": "None"
    },
    {
      "id": "nan",
      "name": "Bandung, Indonesia",
      "latitude": -6.937,
      "longitude": 107.659,
      "base_risk": 8.55,
      "rain_6h_mm": 0.9,
      "humidity_avg": 91.5,
      "soil_moisture_avg": 0.0,
      "temperature_avg": 23.0,
      "pressure_avg": 938.3,
      "rain_mult": 0.009,
      "soil_mult": 0.8,
      "humidity_mult": 1.083,
      "raw_dynamic_score": 0.067,
      "dynamic_level": "Low"
    },
    {
      "id": "nan",
      "name": "Lae, Papua New Guinea",
      "latitude": -6.693,
      "longitude": 147.003,
      "base_risk": 9.06,
      "rain_6h_mm": 0.0,
      "humidity_avg": 92.5,
      "soil_moisture_avg": 0.0,
      "temperature_avg": 23.9,
      "pressure_avg": 1006.1,
      "rain_mult": 0.0,
      "soil_mult": 0.8,
      "humidity_mult": 1.085,
      "raw_dynamic_score": 0.0,
      "dynamic_level": "None"
    },
    {
      "id": "nan",
      "name": "Madang, Papua New Guinea",
      "latitude": -5.277,
      "longitude": 145.8,
      "base_risk": 8.53,
      "rain_6h_mm": 1.2,
      "humidity_avg": 97.7,
      "soil_moisture_avg": 0.0,
      "temperature_avg": 23.0,
      "pressure_avg": 1010.8,
      "rain_mult": 0.012,
      "soil_mult": 0.8,
      "humidity_mult": 1.095,
      "raw_dynamic_score": 0.09,
      "dynamic_level": "Low"
    },
    {
      "id": "nan",
      "name": "Honiara, Solomon Islands",
      "latitude": -9.393,
      "longitude": 159.91,
      "base_risk": 8.76,
      "rain_6h_mm": 0.0,
      "humidity_avg": 97.0,
      "soil_moisture_avg": 0.0,
      "temperature_avg": 23.7,
      "pressure_avg": 1010.5,
      "rain_mult": 0.0,
      "soil_mult": 0.8,
      "humidity_mult": 1.094,
      "raw_dynamic_score": 0.0,
      "dynamic_level": "None"
    },
    {
      "id": "nan",
      "name": "Suva, Fiji",
      "latitude": -18.161,
      "longitude": 178.401,
      "base_risk": 8.76,
      "rain_6h_mm": 0.1,
      "humidity_avg": 92.5,
      "soil_moisture_avg": 0.0,
      "temperature_avg": 23.4,
      "pressure_avg": 1014.1,
      "rain_mult": 0.001,
      "soil_mult": 0.8,
      "humidity_mult": 1.085,
      "raw_dynamic_score": 0.008,
      "dynamic_level": "Low"
    },
    {
      "id": "nan",
      "name": "Apia, Samoa",
      "latitude": -13.833,
      "longitude": -171.73,
      "base_risk": 9.47,
      "rain_6h_mm": 0.7,
      "humidity_avg": 81.0,
      "soil_moisture_avg": 0.0,
      "temperature_avg": 27.7,
      "pressure_avg": 1011.5,
      "rain_mult": 0.007,
      "soil_mult": 0.8,
      "humidity_mult": 1.062,
      "raw_dynamic_score": 0.056,
      "dynamic_level": "Low"
    },
    {
      "id": "nan",
      "name": "Pohnpei (Kolonia), Micronesia",
      "latitude": 6.924,
      "longitude": 158.229,
      "base_risk": 8.86,
      "rain_6h_mm": 0.0,
      "humidity_avg": 78.0,
      "soil_moisture_avg": 0.0,
      "temperature_avg": 27.0,
      "pressure_avg": 998.8,
      "rain_mult": 0.0,
      "soil_mult": 0.8,
      "humidity_mult": 1.056,
      "raw_dynamic_score": 0.0,
      "dynamic_level": "None"
    },
    {
      "id": "nan",
      "name": "Port Vila, Vanuatu",
      "latitude": -17.673,
      "longitude": 168.287,
      "base_risk": 9.34,
      "rain_6h_mm": 0.0,
      "humidity_avg": 84.2,
      "soil_moisture_avg": 0.0,
      "temperature_avg": 25.6,
      "pressure_avg": 1009.6,
      "rain_mult": 0.0,
      "soil_mult": 0.8,
      "humidity_mult": 1.068,
      "raw_dynamic_score": 0.0,
      "dynamic_level": "None"
    },
    {
      "id": "nan",
      "name": "Cairns, Australia",
      "latitude": -16.86,
      "longitude": 145.81,
      "base_risk": 9.21,
      "rain_6h_mm": 0.0,
      "humidity_avg": 96.3,
      "soil_moisture_avg": 0.0,
      "temperature_avg": 22.7,
      "pressure_avg": 1013.5,
      "rain_mult": 0.0,
      "soil_mult": 0.8,
      "humidity_mult": 1.093,
      "raw_dynamic_score": 0.0,
      "dynamic_level": "None"
    },
    {
      "id": "nan",
      "name": "Tully, Australia",
      "latitude": -17.912,
      "longitude": 145.922,
      "base_risk": 8.73,
      "rain_6h_mm": 0.0,
      "humidity_avg": 94.8,
      "soil_moisture_avg": 0.0,
      "temperature_avg": 20.4,
      "pressure_avg": 1007.3,
      "rain_mult": 0.0,
      "soil_mult": 0.8,
      "humidity_mult": 1.09,
      "raw_dynamic_score": 0.0,
      "dynamic_level": "None"
    },
    {
      "id": "nan",
      "name": "Darwin, Australia",
      "latitude": -12.463,
      "longitude": 130.825,
      "base_risk": 9.15,
      "rain_6h_mm": 0.0,
      "humidity_avg": 82.5,
      "soil_moisture_avg": 0.0,
      "temperature_avg": 29.5,
      "pressure_avg": 1010.5,
      "rain_mult": 0.0,
      "soil_mult": 0.8,
      "humidity_mult": 1.065,
      "raw_dynamic_score": 0.0,
      "dynamic_level": "None"
    },
    {
      "id": "nan",
      "name": "Hilo, Hawaii, USA",
      "latitude": 19.687,
      "longitude": -155.041,
      "base_risk": 8.62,
      "rain_6h_mm": 0.0,
      "humidity_avg": 87.2,
      "soil_moisture_avg": 0.0,
      "temperature_avg": 17.1,
      "pressure_avg": 1015.6,
      "rain_mult": 0.0,
      "soil_mult": 0.8,
      "humidity_mult": 1.074,
      "raw_dynamic_score": 0.0,
      "dynamic_level": "None"
    },
    {
      "id": "nan",
      "name": "Prince Rupert, Canada",
      "latitude": 54.255,
      "longitude": -130.3,
      "base_risk": 8.51,
      "rain_6h_mm": 7.0,
      "humidity_avg": 82.8,
      "soil_moisture_avg": 0.0,
      "temperature_avg": 7.5,
      "pressure_avg": 996.4,
      "rain_mult": 0.07,
      "soil_mult": 0.8,
      "humidity_mult": 1.066,
      "raw_dynamic_score": 0.508,
      "dynamic_level": "Low"
    },
    {
      "id": "nan",
      "name": "Tofino, Canada",
      "latitude": 49.094,
      "longitude": -125.906,
      "base_risk": 9.46,
      "rain_6h_mm": 4.4,
      "humidity_avg": 93.0,
      "soil_moisture_avg": 0.0,
      "temperature_avg": 9.2,
      "pressure_avg": 1007.5,
      "rain_mult": 0.044,
      "soil_mult": 0.8,
      "humidity_mult": 1.086,
      "raw_dynamic_score": 0.362,
      "dynamic_level": "Low"
    },
    {
      "id": "nan",
      "name": "Vancouver, Canada",
      "latitude": 49.322,
      "longitude": -123.141,
      "base_risk": 9.26,
      "rain_6h_mm": 11.1,
      "humidity_avg": 91.2,
      "soil_moisture_avg": 0.0,
      "temperature_avg": 10.2,
      "pressure_avg": 1003.7,
      "rain_mult": 0.111,
      "soil_mult": 0.8,
      "humidity_mult": 1.082,
      "raw_dynamic_score": 0.89,
      "dynamic_level": "Low"
    },
    {
      "id": "nan",
      "name": "Forks, USA",
      "latitude": 47.95,
      "longitude": -124.425,
      "base_risk": 9.04,
      "rain_6h_mm": 12.4,
      "humidity_avg": 94.2,
      "soil_moisture_avg": 0.0,
      "temperature_avg": 10.2,
      "pressure_avg": 996.7,
      "rain_mult": 0.124,
      "soil_mult": 0.8,
      "humidity_mult": 1.088,
      "raw_dynamic_score": 0.976,
      "dynamic_level": "Low"
    },
    {
      "id": "nan",
      "name": "Ketchikan, USA",
      "latitude": 55.362,
      "longitude": -131.626,
      "base_risk": 9.28,
      "rain_6h_mm": 6.0,
      "humidity_avg": 87.0,
      "soil_moisture_avg": 0.0,
      "temperature_avg": 6.0,
      "pressure_avg": 986.4,
      "rain_mult": 0.06,
      "soil_mult": 0.8,
      "humidity_mult": 1.074,
      "raw_dynamic_score": 0.478,
      "dynamic_level": "Low"
    },
    {
      "id": "nan",
      "name": "Juneau, USA",
      "latitude": 58.261,
      "longitude": -134.42,
      "base_risk": 8.57,
      "rain_6h_mm": 6.1,
      "humidity_avg": 90.0,
      "soil_moisture_avg": 0.0,
      "temperature_avg": -0.2,
      "pressure_avg": 925.8,
      "rain_mult": 0.061,
      "soil_mult": 0.8,
      "humidity_mult": 1.08,
      "raw_dynamic_score": 0.452,
      "dynamic_level": "Low"
    },
    {
      "id": "nan",
      "name": "Tapachula, Mexico",
      "latitude": 14.963,
      "longitude": -92.297,
      "base_risk": 9.46,
      "rain_6h_mm": 0.0,
      "humidity_avg": 72.3,
      "soil_moisture_avg": 0.0,
      "temperature_avg": 28.2,
      "pressure_avg": 983.5,
      "rain_mult": 0.0,
      "soil_mult": 0.8,
      "humidity_mult": 1.045,
      "raw_dynamic_score": 0.0,
      "dynamic_level": "None"
    },
    {
      "id": "nan",
      "name": "Villahermosa, Mexico",
      "latitude": 17.949,
      "longitude": -92.888,
      "base_risk": 8.61,
      "rain_6h_mm": 0.0,
      "humidity_avg": 71.0,
      "soil_moisture_avg": 0.0,
      "temperature_avg": 25.8,
      "pressure_avg": 1015.0,
      "rain_mult": 0.0,
      "soil_mult": 0.8,
      "humidity_mult": 1.042,
      "raw_dynamic_score": 0.0,
      "dynamic_level": "None"
    },
    {
      "id": "nan",
      "name": "Xalapa, Mexico",
      "latitude": 19.543,
      "longitude": -96.91,
      "base_risk": 8.59,
      "rain_6h_mm": 0.0,
      "humidity_avg": 73.5,
      "soil_moisture_avg": 0.0,
      "temperature_avg": 15.2,
      "pressure_avg": 859.9,
      "rain_mult": 0.0,
      "soil_mult": 0.8,
      "humidity_mult": 1.047,
      "raw_dynamic_score": 0.0,
      "dynamic_level": "None"
    },
    {
      "id": "nan",
      "name": "Bluefields, Nicaragua",
      "latitude": 11.986,
      "longitude": -83.784,
      "base_risk": 8.55,
      "rain_6h_mm": 0.7,
      "humidity_avg": 87.7,
      "soil_moisture_avg": 0.0,
      "temperature_avg": 25.1,
      "pressure_avg": 1012.3,
      "rain_mult": 0.007,
      "soil_mult": 0.8,
      "humidity_mult": 1.075,
      "raw_dynamic_score": 0.051,
      "dynamic_level": "Low"
    },
    {
      "id": "nan",
      "name": "La Ceiba, Honduras",
      "latitude": 15.812,
      "longitude": -86.752,
      "base_risk": 9.22,
      "rain_6h_mm": 0.0,
      "humidity_avg": 67.2,
      "soil_moisture_avg": 0.0,
      "temperature_avg": 28.3,
      "pressure_avg": 1016.0,
      "rain_mult": 0.0,
      "soil_mult": 0.8,
      "humidity_mult": 1.034,
      "raw_dynamic_score": 0.0,
      "dynamic_level": "None"
    },
    {
      "id": "nan",
      "name": "Colón, Panama",
      "latitude": 9.299,
      "longitude": -79.861,
      "base_risk": 8.88,
      "rain_6h_mm": 5.1,
      "humidity_avg": 90.3,
      "soil_moisture_avg": 0.0,
      "temperature_avg": 26.7,
      "pressure_avg": 1008.7,
      "rain_mult": 0.051,
      "soil_mult": 0.8,
      "humidity_mult": 1.081,
      "raw_dynamic_score": 0.392,
      "dynamic_level": "Low"
    },
    {
      "id": "nan",
      "name": "Panama City, Panama",
      "latitude": 8.922,
      "longitude": -79.5,
      "base_risk": 8.72,
      "rain_6h_mm": 2.8,
      "humidity_avg": 85.8,
      "soil_moisture_avg": 0.0,
      "temperature_avg": 27.5,
      "pressure_avg": 1011.4,
      "rain_mult": 0.028,
      "soil_mult": 0.8,
      "humidity_mult": 1.072,
      "raw_dynamic_score": 0.209,
      "dynamic_level": "Low"
    },
    {
      "id": "nan",
      "name": "Limón, Costa Rica",
      "latitude": 10.03,
      "longitude": -83.036,
      "base_risk": 9.16,
      "rain_6h_mm": 13.7,
      "humidity_avg": 93.2,
      "soil_moisture_avg": 0.0,
      "temperature_avg": 23.3,
      "pressure_avg": 1013.4,
      "rain_mult": 0.137,
      "soil_mult": 0.8,
      "humidity_mult": 1.086,
      "raw_dynamic_score": 1.091,
      "dynamic_level": "Low"
    },
    {
      "id": "nan",
      "name": "Puerto Barrios, Guatemala",
      "latitude": 15.733,
      "longitude": -88.64,
      "base_risk": 9.35,
      "rain_6h_mm": 1.4,
      "humidity_avg": 86.0,
      "soil_moisture_avg": 0.0,
      "temperature_avg": 23.7,
      "pressure_avg": 1016.1,
      "rain_mult": 0.014,
      "soil_mult": 0.8,
      "humidity_mult": 1.072,
      "raw_dynamic_score": 0.112,
      "dynamic_level": "Low"
    },
    {
      "id": "nan",
      "name": "San Juan, Puerto Rico",
      "latitude": 18.486,
      "longitude": -66.146,
      "base_risk": 9.05,
      "rain_6h_mm": 3.6,
      "humidity_avg": 83.8,
      "soil_moisture_avg": 0.0,
      "temperature_avg": 27.3,
      "pressure_avg": 1015.3,
      "rain_mult": 0.036,
      "soil_mult": 0.8,
      "humidity_mult": 1.068,
      "raw_dynamic_score": 0.278,
      "dynamic_level": "Low"
    },
    {
      "id": "nan",
      "name": "Santo Domingo, Dominican Republic",
      "latitude": 18.446,
      "longitude": -69.911,
      "base_risk": 8.96,
      "rain_6h_mm": 0.2,
      "humidity_avg": 73.7,
      "soil_moisture_avg": 0.0,
      "temperature_avg": 29.0,
      "pressure_avg": 1014.9,
      "rain_mult": 0.002,
      "soil_mult": 0.8,
      "humidity_mult": 1.047,
      "raw_dynamic_score": 0.015,
      "dynamic_level": "Low"
    },
    {
      "id": "nan",
      "name": "Roseau, Dominica",
      "latitude": 15.361,
      "longitude": -61.368,
      "base_risk": 8.91,
      "rain_6h_mm": 0.0,
      "humidity_avg": 61.8,
      "soil_moisture_avg": 0.0,
      "temperature_avg": 26.1,
      "pressure_avg": 949.8,
      "rain_mult": 0.0,
      "soil_mult": 0.8,
      "humidity_mult": 1.024,
      "raw_dynamic_score": 0.0,
      "dynamic_level": "None"
    },
    {
      "id": "nan",
      "name": "Port of Spain, Trinidad and Tobago",
      "latitude": 10.621,
      "longitude": -61.558,
      "base_risk": 9.05,
      "rain_6h_mm": 0.6,
      "humidity_avg": 72.5,
      "soil_moisture_avg": 0.0,
      "temperature_avg": 29.7,
      "pressure_avg": 1013.1,
      "rain_mult": 0.006,
      "soil_mult": 0.8,
      "humidity_mult": 1.045,
      "raw_dynamic_score": 0.045,
      "dynamic_level": "Low"
    },
    {
      "id": "nan",
      "name": "Georgetown, Guyana",
      "latitude": 6.821,
      "longitude": -58.115,
      "base_risk": 9.21,
      "rain_6h_mm": 0.4,
      "humidity_avg": 65.7,
      "soil_moisture_avg": 0.0,
      "temperature_avg": 30.8,
      "pressure_avg": 1012.6,
      "rain_mult": 0.004,
      "soil_mult": 0.8,
      "humidity_mult": 1.031,
      "raw_dynamic_score": 0.03,
      "dynamic_level": "Low"
    },
    {
      "id": "nan",
      "name": "Quibdó, Colombia",
      "latitude": 5.672,
      "longitude": -76.654,
      "base_risk": 9.42,
      "rain_6h_mm": 7.6,
      "humidity_avg": 88.8,
      "soil_moisture_avg": 0.0,
      "temperature_avg": 26.6,
      "pressure_avg": 1006.1,
      "rain_mult": 0.076,
      "soil_mult": 0.8,
      "humidity_mult": 1.078,
      "raw_dynamic_score": 0.617,
      "dynamic_level": "Low"
    },
    {
      "id": "nan",
      "name": "Buenaventura, Colombia",
      "latitude": 3.917,
      "longitude": -77.048,
      "base_risk": 8.69,
      "rain_6h_mm": 2.8,
      "humidity_avg": 92.2,
      "soil_moisture_avg": 0.0,
      "temperature_avg": 25.5,
      "pressure_avg": 1009.7,
      "rain_mult": 0.028,
      "soil_mult": 0.8,
      "humidity_mult": 1.084,
      "raw_dynamic_score": 0.211,
      "dynamic_level": "Low"
    },
    {
      "id": "nan",
      "name": "Medellín, Colombia",
      "latitude": 6.184,
      "longitude": -75.539,
      "base_risk": 8.66,
      "rain_6h_mm": 0.0,
      "humidity_avg": 69.5,
      "soil_moisture_avg": 0.0,
      "temperature_avg": 18.5,
      "pressure_avg": 770.6,
      "rain_mult": 0.0,
      "soil_mult": 0.8,
      "humidity_mult": 1.039,
      "raw_dynamic_score": 0.0,
      "dynamic_level": "None"
    },
    {
      "id": "nan",
      "name": "Iquitos, Peru",
      "latitude": -3.703,
      "longitude": -73.231,
      "base_risk": 9.22,
      "rain_6h_mm": 0.5,
      "humidity_avg": 72.3,
      "soil_moisture_avg": 0.0,
      "temperature_avg": 29.2,
      "pressure_avg": 1003.4,
      "rain_mult": 0.005,
      "soil_mult": 0.8,
      "humidity_mult": 1.045,
      "raw_dynamic_score": 0.039,
      "dynamic_level": "Low"
    },
    {
      "id": "nan",
      "name": "Pucallpa, Peru",
      "latitude": -8.399,
      "longitude": -74.553,
      "base_risk": 9.46,
      "rain_6h_mm": 0.1,
      "humidity_avg": 77.7,
      "soil_moisture_avg": 0.0,
      "temperature_avg": 27.1,
      "pressure_avg": 994.8,
      "rain_mult": 0.001,
      "soil_mult": 0.8,
      "humidity_mult": 1.055,
      "raw_dynamic_score": 0.008,
      "dynamic_level": "Low"
    },
    {
      "id": "nan",
      "name": "Manaus, Brazil",
      "latitude": -3.119,
      "longitude": -60.041,
      "base_risk": 9.4,
      "rain_6h_mm": 0.7,
      "humidity_avg": 68.0,
      "soil_moisture_avg": 0.0,
      "temperature_avg": 30.1,
      "pressure_avg": 1007.8,
      "rain_mult": 0.007,
      "soil_mult": 0.8,
      "humidity_mult": 1.036,
      "raw_dynamic_score": 0.055,
      "dynamic_level": "Low"
    },
    {
      "id": "nan",
      "name": "Macapá, Brazil",
      "latitude": -0.006,
      "longitude": -51.11,
      "base_risk": 8.67,
      "rain_6h_mm": 0.0,
      "humidity_avg": 52.0,
      "soil_moisture_avg": 0.0,
      "temperature_avg": 33.0,
      "pressure_avg": 1010.9,
      "rain_mult": 0.0,
      "soil_mult": 0.8,
      "humidity_mult": 1.004,
      "raw_dynamic_score": 0.0,
      "dynamic_level": "None"
    },
    {
      "id": "nan",
      "name": "São Luís, Brazil",
      "latitude": -2.469,
      "longitude": -44.282,
      "base_risk": 9.39,
      "rain_6h_mm": 0.0,
      "humidity_avg": 65.3,
      "soil_moisture_avg": 0.0,
      "temperature_avg": 29.4,
      "pressure_avg": 1011.7,
      "rain_mult": 0.0,
      "soil_mult": 0.8,
      "humidity_mult": 1.031,
      "raw_dynamic_score": 0.0,
      "dynamic_level": "None"
    },
    {
      "id": "nan",
      "name": "Santos, Brazil",
      "latitude": -23.9,
      "longitude": -46.333,
      "base_risk": 9.05,
      "rain_6h_mm": 0.0,
      "humidity_avg": 80.2,
      "soil_moisture_avg": 0.0,
      "temperature_avg": 23.4,
      "pressure_avg": 1016.4,
      "rain_mult": 0.0,
      "soil_mult": 0.8,
      "humidity_mult": 1.06,
      "raw_dynamic_score": 0.0,
      "dynamic_level": "None"
    },
    {
      "id": "nan",
      "name": "Salvador, Brazil",
      "latitude": -12.957,
      "longitude": -38.541,
      "base_risk": 9.43,
      "rain_6h_mm": 0.1,
      "humidity_avg": 69.8,
      "soil_moisture_avg": 0.0,
      "temperature_avg": 26.8,
      "pressure_avg": 1015.4,
      "rain_mult": 0.001,
      "soil_mult": 0.8,
      "humidity_mult": 1.04,
      "raw_dynamic_score": 0.008,
      "dynamic_level": "Low"
    },
    {
      "id": "nan",
      "name": "São Tomé, São Tomé and Príncipe",
      "latitude": 0.336,
      "longitude": 6.77,
      "base_risk": 9.38,
      "rain_6h_mm": 2.3,
      "humidity_avg": 82.8,
      "soil_moisture_avg": 0.0,
      "temperature_avg": 27.1,
      "pressure_avg": 1012.1,
      "rain_mult": 0.023,
      "soil_mult": 0.8,
      "humidity_mult": 1.066,
      "raw_dynamic_score": 0.184,
      "dynamic_level": "Low"
    },
    {
      "id": "nan",
      "name": "Libreville, Gabon",
      "latitude": 0.396,
      "longitude": 9.447,
      "base_risk": 9.29,
      "rain_6h_mm": 0.8,
      "humidity_avg": 84.7,
      "soil_moisture_avg": 0.0,
      "temperature_avg": 26.8,
      "pressure_avg": 1007.9,
      "rain_mult": 0.008,
      "soil_mult": 0.8,
      "humidity_mult": 1.069,
      "raw_dynamic_score": 0.064,
      "dynamic_level": "Low"
    },
    {
      "id": "nan",
      "name": "Limbe, Cameroon",
      "latitude": 3.964,
      "longitude": 9.188,
      "base_risk": 9.01,
      "rain_6h_mm": 0.3,
      "humidity_avg": 80.2,
      "soil_moisture_avg": 0.0,
      "temperature_avg": 27.8,
      "pressure_avg": 1011.3,
      "rain_mult": 0.003,
      "soil_mult": 0.8,
      "humidity_mult": 1.06,
      "raw_dynamic_score": 0.023,
      "dynamic_level": "Low"
    },
    {
      "id": "nan",
      "name": "Bata, Equatorial Guinea",
      "latitude": 1.803,
      "longitude": 9.805,
      "base_risk": 9.19,
      "rain_6h_mm": 3.3,
      "humidity_avg": 82.8,
      "soil_moisture_avg": 0.0,
      "temperature_avg": 29.2,
      "pressure_avg": 1009.2,
      "rain_mult": 0.033,
      "soil_mult": 0.8,
      "humidity_mult": 1.066,
      "raw_dynamic_score": 0.259,
      "dynamic_level": "Low"
    },
    {
      "id": "nan",
      "name": "Malabo, Equatorial Guinea",
      "latitude": 3.79,
      "longitude": 8.823,
      "base_risk": 8.6,
      "rain_6h_mm": 0.1,
      "humidity_avg": 82.5,
      "soil_moisture_avg": 0.0,
      "temperature_avg": 27.7,
      "pressure_avg": 1011.0,
      "rain_mult": 0.001,
      "soil_mult": 0.8,
      "humidity_mult": 1.065,
      "raw_dynamic_score": 0.007,
      "dynamic_level": "Low"
    },
    {
      "id": "nan",
      "name": "Freetown, Sierra Leone",
      "latitude": 8.465,
      "longitude": -13.231,
      "base_risk": 9.41,
      "rain_6h_mm": 1.9,
      "humidity_avg": 79.2,
      "soil_moisture_avg": 0.0,
      "temperature_avg": 27.7,
      "pressure_avg": 998.9,
      "rain_mult": 0.019,
      "soil_mult": 0.8,
      "humidity_mult": 1.058,
      "raw_dynamic_score": 0.151,
      "dynamic_level": "Low"
    },
    {
      "id": "nan",
      "name": "Abidjan, Côte d’Ivoire",
      "latitude": 5.365,
      "longitude": -4.044,
      "base_risk": 8.57,
      "rain_6h_mm": 1.2,
      "humidity_avg": 83.8,
      "soil_moisture_avg": 0.0,
      "temperature_avg": 27.0,
      "pressure_avg": 1007.8,
      "rain_mult": 0.012,
      "soil_mult": 0.8,
      "humidity_mult": 1.068,
      "raw_dynamic_score": 0.088,
      "dynamic_level": "Low"
    },
    {
      "id": "nan",
      "name": "Lagos, Nigeria",
      "latitude": 6.484,
      "longitude": 3.339,
      "base_risk": 9.4,
      "rain_6h_mm": 0.3,
      "humidity_avg": 73.8,
      "soil_moisture_avg": 0.0,
      "temperature_avg": 29.6,
      "pressure_avg": 1010.4,
      "rain_mult": 0.003,
      "soil_mult": 0.8,
      "humidity_mult": 1.048,
      "raw_dynamic_score": 0.024,
      "dynamic_level": "Low"
    },
    {
      "id": "nan",
      "name": "Calabar, Nigeria",
      "latitude": 5.018,
      "longitude": 8.346,
      "base_risk": 9.42,
      "rain_6h_mm": 2.4,
      "humidity_avg": 78.0,
      "soil_moisture_avg": 0.0,
      "temperature_avg": 28.8,
      "pressure_avg": 1005.8,
      "rain_mult": 0.024,
      "soil_mult": 0.8,
      "humidity_mult": 1.056,
      "raw_dynamic_score": 0.191,
      "dynamic_level": "Low"
    },
    {
      "id": "nan",
      "name": "Kisumu, Kenya",
      "latitude": -0.131,
      "longitude": 34.768,
      "base_risk": 8.56,
      "rain_6h_mm": 5.3,
      "humidity_avg": 71.3,
      "soil_moisture_avg": 0.0,
      "temperature_avg": 24.4,
      "pressure_avg": 890.1,
      "rain_mult": 0.053,
      "soil_mult": 0.8,
      "humidity_mult": 1.043,
      "raw_dynamic_score": 0.378,
      "dynamic_level": "Low"
    },
    {
      "id": "nan",
      "name": "Kampala, Uganda",
      "latitude": 0.367,
      "longitude": 32.602,
      "base_risk": 9.2,
      "rain_6h_mm": 8.9,
      "humidity_avg": 84.0,
      "soil_moisture_avg": 0.0,
      "temperature_avg": 22.2,
      "pressure_avg": 883.2,
      "rain_mult": 0.089,
      "soil_mult": 0.8,
      "humidity_mult": 1.068,
      "raw_dynamic_score": 0.7,
      "dynamic_level": "Low"
    },
    {
      "id": "nan",
      "name": "Goma, DR Congo",
      "latitude": -1.679,
      "longitude": 29.182,
      "base_risk": 9.24,
      "rain_6h_mm": 0.4,
      "humidity_avg": 77.2,
      "soil_moisture_avg": 0.0,
      "temperature_avg": 16.3,
      "pressure_avg": 857.4,
      "rain_mult": 0.004,
      "soil_mult": 0.8,
      "humidity_mult": 1.054,
      "raw_dynamic_score": 0.031,
      "dynamic_level": "Low"
    },
    {
      "id": "nan",
      "name": "Bujumbura, Burundi",
      "latitude": -3.381,
      "longitude": 29.399,
      "base_risk": 9.31,
      "rain_6h_mm": 0.2,
      "humidity_avg": 64.8,
      "soil_moisture_avg": 0.0,
      "temperature_avg": 27.3,
      "pressure_avg": 908.5,
      "rain_mult": 0.002,
      "soil_mult": 0.8,
      "humidity_mult": 1.03,
      "raw_dynamic_score": 0.015,
      "dynamic_level": "Low"
    },
    {
      "id": "nan",
      "name": "Toamasina, Madagascar",
      "latitude": -18.109,
      "longitude": 49.382,
      "base_risk": 8.54,
      "rain_6h_mm": 0.0,
      "humidity_avg": 82.8,
      "soil_moisture_avg": 0.0,
      "temperature_avg": 22.9,
      "pressure_avg": 1019.8,
      "rain_mult": 0.0,
      "soil_mult": 0.8,
      "humidity_mult": 1.066,
      "raw_dynamic_score": 0.0,
      "dynamic_level": "None"
    },
    {
      "id": "nan",
      "name": "Antalaha, Madagascar",
      "latitude": -14.96,
      "longitude": 50.28,
      "base_risk": 9.04,
      "rain_6h_mm": 0.0,
      "humidity_avg": 68.0,
      "soil_moisture_avg": 0.0,
      "temperature_avg": 25.6,
      "pressure_avg": 1008.4,
      "rain_mult": 0.0,
      "soil_mult": 0.8,
      "humidity_mult": 1.036,
      "raw_dynamic_score": 0.0,
      "dynamic_level": "None"
    },
    {
      "id": "nan",
      "name": "Moroni, Comoros",
      "latitude": -11.763,
      "longitude": 43.235,
      "base_risk": 9.24,
      "rain_6h_mm": 0.0,
      "humidity_avg": 70.2,
      "soil_moisture_avg": 0.0,
      "temperature_avg": 27.8,
      "pressure_avg": 1015.9,
      "rain_mult": 0.0,
      "soil_mult": 0.8,
      "humidity_mult": 1.04,
      "raw_dynamic_score": 0.0,
      "dynamic_level": "None"
    },
    {
      "id": "nan",
      "name": "Victoria, Seychelles",
      "latitude": -4.583,
      "longitude": 55.494,
      "base_risk": 8.82,
      "rain_6h_mm": 0.0,
      "humidity_avg": 80.5,
      "soil_moisture_avg": 0.0,
      "temperature_avg": 26.7,
      "pressure_avg": 1013.1,
      "rain_mult": 0.0,
      "soil_mult": 0.8,
      "humidity_mult": 1.061,
      "raw_dynamic_score": 0.0,
      "dynamic_level": "None"
    },
    {
      "id": "nan",
      "name": "Saint-Denis, Réunion",
      "latitude": -20.898,
      "longitude": 55.488,
      "base_risk": 9.15,
      "rain_6h_mm": 0.0,
      "humidity_avg": 71.0,
      "soil_moisture_avg": 0.0,
      "temperature_avg": 22.8,
      "pressure_avg": 1017.7,
      "rain_mult": 0.0,
      "soil_mult": 0.8,
      "humidity_mult": 1.042,
      "raw_dynamic_score": 0.0,
      "dynamic_level": "None"
    },
    {
      "id": "nan",
      "name": "Maputo, Mozambique",
      "latitude": -25.966,
      "longitude": 32.593,
      "base_risk": 9.42,
      "rain_6h_mm": 0.0,
      "humidity_avg": 60.8,
      "soil_moisture_avg": 0.0,
      "temperature_avg": 30.5,
      "pressure_avg": 1002.7,
      "rain_mult": 0.0,
      "soil_mult": 0.8,
      "humidity_mult": 1.022,
      "raw_dynamic_score": 0.0,
      "dynamic_level": "None"
    },
    {
      "id": "nan",
      "name": "Durban, South Africa",
      "latitude": -29.838,
      "longitude": 31.021,
      "base_risk": 9.24,
      "rain_6h_mm": 0.1,
      "humidity_avg": 79.2,
      "soil_moisture_avg": 0.0,
      "temperature_avg": 19.8,
      "pressure_avg": 1013.2,
      "rain_mult": 0.001,
      "soil_mult": 0.8,
      "humidity_mult": 1.058,
      "raw_dynamic_score": 0.008,
      "dynamic_level": "Low"
    },
    {
      "id": "nan",
      "name": "Bergen, Norway",
      "latitude": 60.452,
      "longitude": 5.284,
      "base_risk": 9.31,
      "rain_6h_mm": 9.4,
      "humidity_avg": 84.7,
      "soil_moisture_avg": 0.574,
      "temperature_avg": 11.3,
      "pressure_avg": 991.9,
      "rain_mult": 0.094,
      "soil_mult": 1.374,
      "humidity_mult": 1.069,
      "raw_dynamic_score": 1.286,
      "dynamic_level": "Low"
    },
    {
      "id": "nan",
      "name": "Cork, Ireland",
      "latitude": 51.958,
      "longitude": -8.515,
      "base_risk": 8.96,
      "rain_6h_mm": 0.6,
      "humidity_avg": 74.2,
      "soil_moisture_avg": 0.666,
      "temperature_avg": 9.1,
      "pressure_avg": 983.5,
      "rain_mult": 0.006,
      "soil_mult": 1.466,
      "humidity_mult": 1.048,
      "raw_dynamic_score": 0.083,
      "dynamic_level": "Low"
    },
    {
      "id": "nan",
      "name": "Glasgow, Scotland",
      "latitude": 55.824,
      "longitude": -4.232,
      "base_risk": 8.91,
      "rain_6h_mm": 0.5,
      "humidity_avg": 76.5,
      "soil_moisture_avg": 0.798,
      "temperature_avg": 9.0,
      "pressure_avg": 990.3,
      "rain_mult": 0.005,
      "soil_mult": 1.598,
      "humidity_mult": 1.053,
      "raw_dynamic_score": 0.075,
      "dynamic_level": "Low"
    },
    {
      "id": "nan",
      "name": "Brest, France",
      "latitude": 48.39,
      "longitude": -4.466,
      "base_risk": 8.9,
      "rain_6h_mm": 0.9,
      "humidity_avg": 65.2,
      "soil_moisture_avg": 0.0,
      "temperature_avg": 13.6,
      "pressure_avg": 1000.1,
      "rain_mult": 0.009,
      "soil_mult": 0.8,
      "humidity_mult": 1.03,
      "raw_dynamic_score": 0.066,
      "dynamic_level": "Low"
    },
    {
      "id": "nan",
      "name": "Keelung, Taiwan",
      "latitude": 25.108,
      "longitude": 121.7,
      "base_risk": 9.18,
      "rain_6h_mm": 3.3,
      "humidity_avg": 78.5,
      "soil_moisture_avg": 0.0,
      "temperature_avg": 21.5,
      "pressure_avg": 997.3,
      "rain_mult": 0.033,
      "soil_mult": 0.8,
      "humidity_mult": 1.057,
      "raw_dynamic_score": 0.256,
      "dynamic_level": "Low"
    },
    {
      "id": "nan",
      "name": "Taipei, Taiwan",
      "latitude": 25.074,
      "longitude": 121.604,
      "base_risk": 9.37,
      "rain_6h_mm": 0.3,
      "humidity_avg": 73.7,
      "soil_moisture_avg": 0.0,
      "temperature_avg": 21.7,
      "pressure_avg": 1015.0,
      "rain_mult": 0.003,
      "soil_mult": 0.8,
      "humidity_mult": 1.047,
      "raw_dynamic_score": 0.024,
      "dynamic_level": "Low"
    },
    {
      "id": "nan",
      "name": "Kagoshima, Japan",
      "latitude": 31.539,
      "longitude": 130.537,
      "base_risk": 9.19,
      "rain_6h_mm": 0.0,
      "humidity_avg": 63.8,
      "soil_moisture_avg": 0.0,
      "temperature_avg": 17.0,
      "pressure_avg": 1016.2,
      "rain_mult": 0.0,
      "soil_mult": 0.8,
      "humidity_mult": 1.028,
      "raw_dynamic_score": 0.0,
      "dynamic_level": "None"
    },
    {
      "id": "nan",
      "name": "Yakushima (Miyanoura), Japan",
      "latitude": 30.427,
      "longitude": 130.631,
      "base_risk": 8.55,
      "rain_6h_mm": 0.0,
      "humidity_avg": 56.5,
      "soil_moisture_avg": 0.0,
      "temperature_avg": 21.6,
      "pressure_avg": 1017.0,
      "rain_mult": 0.0,
      "soil_mult": 0.8,
      "humidity_mult": 1.013,
      "raw_dynamic_score": 0.0,
      "dynamic_level": "None"
    },
    {
      "id": "nan",
      "name": "Rize, Türkiye",
      "latitude": 41.005,
      "longitude": 40.561,
      "base_risk": 9.34,
      "rain_6h_mm": 0.0,
      "humidity_avg": 86.0,
      "soil_moisture_avg": 0.0,
      "temperature_avg": 13.8,
      "pressure_avg": 994.5,
      "rain_mult": 0.0,
      "soil_mult": 0.8,
      "humidity_mult": 1.072,
      "raw_dynamic_score": 0.0,
      "dynamic_level": "None"
    },
    {
      "id": "nan",
      "name": "Salalah, Oman",
      "latitude": 17.019,
      "longitude": 54.132,
      "base_risk": 9.24,
      "rain_6h_mm": 0.0,
      "humidity_avg": 61.3,
      "soil_moisture_avg": 0.0,
      "temperature_avg": 28.0,
      "pressure_avg": 1012.2,
      "rain_mult": 0.0,
      "soil_mult": 0.8,
      "humidity_mult": 1.023,
      "raw_dynamic_score": 0.0,
      "dynamic_level": "None"
    },
    {
      "id": "nan",
      "name": "Mawsynram, India",
      "latitude": 25.317,
      "longitude": 91.602,
      "base_risk": 9.46,
      "rain_6h_mm": 4.6,
      "humidity_avg": 93.2,
      "soil_moisture_avg": 0.0,
      "temperature_avg": 16.0,
      "pressure_avg": 840.4,
      "rain_mult": 0.046,
      "soil_mult": 0.8,
      "humidity_mult": 1.086,
      "raw_dynamic_score": 0.378,
      "dynamic_level": "Low"
    },
    {
      "id": "nan",
      "name": "Mumbai, India",
      "latitude": 19.136,
      "longitude": 72.858,
      "base_risk": 8.65,
      "rain_6h_mm": 2.4,
      "humidity_avg": 88.0,
      "soil_moisture_avg": 0.0,
      "temperature_avg": 27.0,
      "pressure_avg": 1009.2,
      "rain_mult": 0.024,
      "soil_mult": 0.8,
      "humidity_mult": 1.076,
      "raw_dynamic_score": 0.179,
      "dynamic_level": "Low"
    },
    {
      "id": "nan",
      "name": "Mangalore, India",
      "latitude": 12.974,
      "longitude": 74.816,
      "base_risk": 9.47,
      "rain_6h_mm": 0.0,
      "humidity_avg": 70.8,
      "soil_moisture_avg": 0.0,
      "temperature_avg": 28.4,
      "pressure_avg": 1010.6,
      "rain_mult": 0.0,
      "soil_mult": 0.8,
      "humidity_mult": 1.042,
      "raw_dynamic_score": 0.0,
      "dynamic_level": "None"
    },
    {
      "id": "nan",
      "name": "Thiruvananthapuram, India",
      "latitude": 8.544,
      "longitude": 76.956,
      "base_risk": 8.66,
      "rain_6h_mm": 0.0,
      "humidity_avg": 81.5,
      "soil_moisture_avg": 0.0,
      "temperature_avg": 26.7,
      "pressure_avg": 1009.1,
      "rain_mult": 0.0,
      "soil_mult": 0.8,
      "humidity_mult": 1.063,
      "raw_dynamic_score": 0.0,
      "dynamic_level": "None"
    },
    {
      "id": "nan",
      "name": "Kolkata, India",
      "latitude": 22.572,
      "longitude": 88.364,
      "base_risk": 8.98,
      "rain_6h_mm": 1.8,
      "humidity_avg": 92.5,
      "soil_moisture_avg": 0.0,
      "temperature_avg": 26.5,
      "pressure_avg": 1007.5,
      "rain_mult": 0.018,
      "soil_mult": 0.8,
      "humidity_mult": 1.085,
      "raw_dynamic_score": 0.14,
      "dynamic_level": "Low"
    },
    {
      "id": "nan",
      "name": "Sylhet, Bangladesh",
      "latitude": 24.874,
      "longitude": 91.888,
      "base_risk": 8.63,
      "rain_6h_mm": 0.0,
      "humidity_avg": 91.0,
      "soil_moisture_avg": 0.0,
      "temperature_avg": 26.0,
      "pressure_avg": 1006.8,
      "rain_mult": 0.0,
      "soil_mult": 0.8,
      "humidity_mult": 1.082,
      "raw_dynamic_score": 0.0,
      "dynamic_level": "None"
    },
    {
      "id": "nan",
      "name": "Cox's Bazar, Bangladesh",
      "latitude": 21.367,
      "longitude": 92.019,
      "base_risk": 9.25,
      "rain_6h_mm": 0.0,
      "humidity_avg": 74.7,
      "soil_moisture_avg": 0.0,
      "temperature_avg": 29.8,
      "pressure_avg": 1002.7,
      "rain_mult": 0.0,
      "soil_mult": 0.8,
      "humidity_mult": 1.049,
      "raw_dynamic_score": 0.0,
      "dynamic_level": "None"
    },
    {
      "id": "nan",
      "name": "Yangon, Myanmar",
      "latitude": 16.806,
      "longitude": 96.175,
      "base_risk": 9.25,
      "rain_6h_mm": 0.7,
      "humidity_avg": 95.0,
      "soil_moisture_avg": 0.0,
      "temperature_avg": 25.8,
      "pressure_avg": 1007.5,
      "rain_mult": 0.007,
      "soil_mult": 0.8,
      "humidity_mult": 1.09,
      "raw_dynamic_score": 0.056,
      "dynamic_level": "Low"
    },
    {
      "id": "nan",
      "name": "Dawei, Myanmar",
      "latitude": 14.122,
      "longitude": 98.194,
      "base_risk": 8.82,
      "rain_6h_mm": 5.9,
      "humidity_avg": 88.5,
      "soil_moisture_avg": 0.0,
      "temperature_avg": 27.3,
      "pressure_avg": 1011.0,
      "rain_mult": 0.059,
      "soil_mult": 0.8,
      "humidity_mult": 1.077,
      "raw_dynamic_score": 0.448,
      "dynamic_level": "Low"
    },
    {
      "id": "nan",
      "name": "Hue, Vietnam",
      "latitude": 16.463,
      "longitude": 107.63,
      "base_risk": 8.93,
      "rain_6h_mm": 6.4,
      "humidity_avg": 94.0,
      "soil_moisture_avg": 0.0,
      "temperature_avg": 24.9,
      "pressure_avg": 1013.9,
      "rain_mult": 0.064,
      "soil_mult": 0.8,
      "humidity_mult": 1.088,
      "raw_dynamic_score": 0.497,
      "dynamic_level": "Low"
    },
    {
      "id": "nan",
      "name": "Da Nang, Vietnam",
      "latitude": 16.074,
      "longitude": 108.243,
      "base_risk": 9.43,
      "rain_6h_mm": 3.8,
      "humidity_avg": 96.5,
      "soil_moisture_avg": 0.0,
      "temperature_avg": 23.1,
      "pressure_avg": 1014.1,
      "rain_mult": 0.038,
      "soil_mult": 0.8,
      "humidity_mult": 1.093,
      "raw_dynamic_score": 0.313,
      "dynamic_level": "Low"
    },
    {
      "id": "nan",
      "name": "Sihanoukville, Cambodia",
      "latitude": 10.585,
      "longitude": 103.542,
      "base_risk": 8.53,
      "rain_6h_mm": 1.1,
      "humidity_avg": 83.7,
      "soil_moisture_avg": 0.0,
      "temperature_avg": 27.7,
      "pressure_avg": 1011.5,
      "rain_mult": 0.011,
      "soil_mult": 0.8,
      "humidity_mult": 1.067,
      "raw_dynamic_score": 0.08,
      "dynamic_level": "Low"
    },
    {
      "id": "nan",
      "name": "Chiang Mai, Thailand",
      "latitude": 18.848,
      "longitude": 98.966,
      "base_risk": 9.19,
      "rain_6h_mm": 6.2,
      "humidity_avg": 97.3,
      "soil_moisture_avg": 0.0,
      "temperature_avg": 22.0,
      "pressure_avg": 976.9,
      "rain_mult": 0.062,
      "soil_mult": 0.8,
      "humidity_mult": 1.095,
      "raw_dynamic_score": 0.499,
      "dynamic_level": "Low"
    },
    {
      "id": "nan",
      "name": "Vientiane, Laos",
      "latitude": 17.935,
      "longitude": 102.593,
      "base_risk": 8.55,
      "rain_6h_mm": 0.0,
      "humidity_avg": 76.8,
      "soil_moisture_avg": 0.0,
      "temperature_avg": 24.8,
      "pressure_avg": 994.3,
      "rain_mult": 0.0,
      "soil_mult": 0.8,
      "humidity_mult": 1.054,
      "raw_dynamic_score": 0.0,
      "dynamic_level": "None"
    },
    {
      "id": "nan",
      "name": "Kuala Lumpur, Malaysia",
      "latitude": 3.159,
      "longitude": 101.646,
      "base_risk": 9.04,
      "rain_6h_mm": 0.0,
      "humidity_avg": 81.5,
      "soil_moisture_avg": 0.0,
      "temperature_avg": 28.0,
      "pressure_avg": 1000.2,
      "rain_mult": 0.0,
      "soil_mult": 0.8,
      "humidity_mult": 1.063,
      "raw_dynamic_score": 0.0,
      "dynamic_level": "None"
    },
    {
      "id": "nan",
      "name": "Kota Kinabalu, Malaysia",
      "latitude": 5.96,
      "longitude": 116.073,
      "base_risk": 9.01,
      "rain_6h_mm": 0.0,
      "humidity_avg": 91.5,
      "soil_moisture_avg": 0.0,
      "temperature_avg": 26.3,
      "pressure_avg": 1008.9,
      "rain_mult": 0.0,
      "soil_mult": 0.8,
      "humidity_mult": 1.083,
      "raw_dynamic_score": 0.0,
      "dynamic_level": "None"
    },
    {
      "id": "nan",
      "name": "Singapore, Singapore",
      "latitude": 1.392,
      "longitude": 103.84,
      "base_risk": 9.06,
      "rain_6h_mm": 0.0,
      "humidity_avg": 80.8,
      "soil_moisture_avg": 0.0,
      "temperature_avg": 27.0,
      "pressure_avg": 1008.9,
      "rain_mult": 0.0,
      "soil_mult": 0.8,
      "humidity_mult": 1.062,
      "raw_dynamic_score": 0.0,
      "dynamic_level": "None"
    },
    {
      "id": "nan",
      "name": "Jakarta, Indonesia",
      "latitude": -6.268,
      "longitude": 106.805,
      "base_risk": 8.98,
      "rain_6h_mm": 0.0,
      "humidity_avg": 85.3,
      "soil_moisture_avg": 0.0,
      "temperature_avg": 26.2,
      "pressure_avg": 1007.9,
      "rain_mult": 0.0,
      "soil_mult": 0.8,
      "humidity_mult": 1.071,
      "raw_dynamic_score": 0.0,
      "dynamic_level": "None"
    },
    {
      "id": "nan",
      "name": "Bandung, Indonesia",
      "latitude": -6.877,
      "longitude": 107.599,
      "base_risk": 9.08,
      "rain_6h_mm": 0.9,
      "humidity_avg": 91.5,
      "soil_moisture_avg": 0.0,
      "temperature_avg": 22.7,
      "pressure_avg": 922.8,
      "rain_mult": 0.009,
      "soil_mult": 0.8,
      "humidity_mult": 1.083,
      "raw_dynamic_score": 0.071,
      "dynamic_level": "Low"
    },
    {
      "id": "nan",
      "name": "Lae, Papua New Guinea",
      "latitude": -6.753,
      "longitude": 146.983,
      "base_risk": 9.49,
      "rain_6h_mm": 0.0,
      "humidity_avg": 92.5,
      "soil_moisture_avg": 0.0,
      "temperature_avg": 24.2,
      "pressure_avg": 1011.4,
      "rain_mult": 0.0,
      "soil_mult": 0.8,
      "humidity_mult": 1.085,
      "raw_dynamic_score": 0.0,
      "dynamic_level": "None"
    },
    {
      "id": "nan",
      "name": "Madang, Papua New Guinea",
      "latitude": -5.217,
      "longitude": 145.78,
      "base_risk": 9.47,
      "rain_6h_mm": 1.2,
      "humidity_avg": 97.7,
      "soil_moisture_avg": 0.0,
      "temperature_avg": 23.0,
      "pressure_avg": 1009.5,
      "rain_mult": 0.012,
      "soil_mult": 0.8,
      "humidity_mult": 1.095,
      "raw_dynamic_score": 0.1,
      "dynamic_level": "Low"
    },
    {
      "id": "nan",
      "name": "Port Moresby, Papua New Guinea",
      "latitude": -9.423,
      "longitude": 147.22,
      "base_risk": 8.81,
      "rain_6h_mm": 0.4,
      "humidity_avg": 84.0,
      "soil_moisture_avg": 0.0,
      "temperature_avg": 28.1,
      "pressure_avg": 1004.2,
      "rain_mult": 0.004,
      "soil_mult": 0.8,
      "humidity_mult": 1.068,
      "raw_dynamic_score": 0.03,
      "dynamic_level": "Low"
    },
    {
      "id": "nan",
      "name": "Honiara, Solomon Islands",
      "latitude": -9.473,
      "longitude": 159.99,
      "base_risk": 9.1,
      "rain_6h_mm": 0.0,
      "humidity_avg": 97.0,
      "soil_moisture_avg": 0.0,
      "temperature_avg": 22.2,
      "pressure_avg": 984.8,
      "rain_mult": 0.0,
      "soil_mult": 0.8,
      "humidity_mult": 1.094,
      "raw_dynamic_score": 0.0,
      "dynamic_level": "None"
    },
    {
      "id": "nan",
      "name": "Suva, Fiji",
      "latitude": -18.081,
      "longitude": 178.461,
      "base_risk": 9.27,
      "rain_6h_mm": 0.1,
      "humidity_avg": 92.5,
      "soil_moisture_avg": 0.0,
      "temperature_avg": 23.2,
      "pressure_avg": 996.2,
      "rain_mult": 0.001,
      "soil_mult": 0.8,
      "humidity_mult": 1.085,
      "raw_dynamic_score": 0.008,
      "dynamic_level": "Low"
    },
    {
      "id": "nan",
      "name": "Apia, Samoa",
      "latitude": -13.773,
      "longitude": -171.75,
      "base_risk": 8.54,
      "rain_6h_mm": 0.0,
      "humidity_avg": 91.5,
      "soil_moisture_avg": 0.0,
      "temperature_avg": 25.6,
      "pressure_avg": 1011.7,
      "rain_mult": 0.0,
      "soil_mult": 0.8,
      "humidity_mult": 1.083,
      "raw_dynamic_score": 0.0,
      "dynamic_level": "None"
    },
    {
      "id": "nan",
      "name": "Palikir, Micronesia",
      "latitude": 6.877,
      "longitude": 158.13,
      "base_risk": 8.55,
      "rain_6h_mm": 0.0,
      "humidity_avg": 74.0,
      "soil_moisture_avg": 0.0,
      "temperature_avg": 28.7,
      "pressure_avg": 1009.1,
      "rain_mult": 0.0,
      "soil_mult": 0.8,
      "humidity_mult": 1.048,
      "raw_dynamic_score": 0.0,
      "dynamic_level": "None"
    },
    {
      "id": "nan",
      "name": "Pohnpei (Kolonia), Micronesia",
      "latitude": 6.984,
      "longitude": 158.169,
      "base_risk": 9.07,
      "rain_6h_mm": 0.0,
      "humidity_avg": 75.5,
      "soil_moisture_avg": 0.0,
      "temperature_avg": 28.5,
      "pressure_avg": 1009.1,
      "rain_mult": 0.0,
      "soil_mult": 0.8,
      "humidity_mult": 1.051,
      "raw_dynamic_score": 0.0,
      "dynamic_level": "None"
    },
    {
      "id": "nan",
      "name": "Port Vila, Vanuatu",
      "latitude": -17.733,
      "longitude": 168.287,
      "base_risk": 8.75,
      "rain_6h_mm": 0.0,
      "humidity_avg": 84.2,
      "soil_moisture_avg": 0.0,
      "temperature_avg": 25.7,
      "pressure_avg": 1012.5,
      "rain_mult": 0.0,
      "soil_mult": 0.8,
      "humidity_mult": 1.068,
      "raw_dynamic_score": 0.0,
      "dynamic_level": "None"
    },
    {
      "id": "nan",
      "name": "Cairns, Australia",
      "latitude": -16.94,
      "longitude": 145.79,
      "base_risk": 9.49,
      "rain_6h_mm": 0.0,
      "humidity_avg": 96.3,
      "soil_moisture_avg": 0.0,
      "temperature_avg": 22.7,
      "pressure_avg": 1013.1,
      "rain_mult": 0.0,
      "soil_mult": 0.8,
      "humidity_mult": 1.093,
      "raw_dynamic_score": 0.0,
      "dynamic_level": "None"
    },
    {
      "id": "nan",
      "name": "Tully, Australia",
      "latitude": -17.992,
      "longitude": 145.942,
      "base_risk": 9.35,
      "rain_6h_mm": 0.0,
      "humidity_avg": 98.0,
      "soil_moisture_avg": 0.0,
      "temperature_avg": 22.2,
      "pressure_avg": 1012.5,
      "rain_mult": 0.0,
      "soil_mult": 0.8,
      "humidity_mult": 1.096,
      "raw_dynamic_score": 0.0,
      "dynamic_level": "None"
    },
    {
      "id": "nan",
      "name": "Darwin, Australia",
      "latitude": -12.523,
      "longitude": 130.805,
      "base_risk": 8.62,
      "rain_6h_mm": 0.0,
      "humidity_avg": 79.8,
      "soil_moisture_avg": 0.0,
      "temperature_avg": 29.9,
      "pressure_avg": 1010.5,
      "rain_mult": 0.0,
      "soil_mult": 0.8,
      "humidity_mult": 1.06,
      "raw_dynamic_score": 0.0,
      "dynamic_level": "None"
    },
    {
      "id": "nan",
      "name": "Hilo, Hawaii, USA",
      "latitude": 19.747,
      "longitude": -155.041,
      "base_risk": 8.71,
      "rain_6h_mm": 0.0,
      "humidity_avg": 87.2,
      "soil_moisture_avg": 0.0,
      "temperature_avg": 17.3,
      "pressure_avg": 1019.5,
      "rain_mult": 0.0,
      "soil_mult": 0.8,
      "humidity_mult": 1.074,
      "raw_dynamic_score": 0.0,
      "dynamic_level": "None"
    },
    {
      "id": "nan",
      "name": "Prince Rupert, Canada",
      "latitude": 54.315,
      "longitude": -130.32,
      "base_risk": 8.74,
      "rain_6h_mm": 6.3,
      "humidity_avg": 82.3,
      "soil_moisture_avg": 0.0,
      "temperature_avg": 7.4,
      "pressure_avg": 997.8,
      "rain_mult": 0.063,
      "soil_mult": 0.8,
      "humidity_mult": 1.065,
      "raw_dynamic_score": 0.469,
      "dynamic_level": "Low"
    },
    {
      "id": "nan",
      "name": "Tofino, Canada",
      "latitude": 49.174,
      "longitude": -125.926,
      "base_risk": 8.74,
      "rain_6h_mm": 6.1,
      "humidity_avg": 93.7,
      "soil_moisture_avg": 0.0,
      "temperature_avg": 9.4,
      "pressure_avg": 1007.4,
      "rain_mult": 0.061,
      "soil_mult": 0.8,
      "humidity_mult": 1.087,
      "raw_dynamic_score": 0.464,
      "dynamic_level": "Low"
    },
    {
      "id": "nan",
      "name": "Vancouver, Canada",
      "latitude": 49.242,
      "longitude": -123.081,
      "base_risk": 8.94,
      "rain_6h_mm": 12.4,
      "humidity_avg": 93.3,
      "soil_moisture_avg": 0.0,
      "temperature_avg": 9.6,
      "pressure_avg": 996.0,
      "rain_mult": 0.124,
      "soil_mult": 0.8,
      "humidity_mult": 1.087,
      "raw_dynamic_score": 0.964,
      "dynamic_level": "Low"
    },
    {
      "id": "nan",
      "name": "Seattle, USA",
      "latitude": 47.666,
      "longitude": -122.292,
      "base_risk": 9.28,
      "rain_6h_mm": 13.2,
      "humidity_avg": 93.2,
      "soil_moisture_avg": 0.0,
      "temperature_avg": 13.0,
      "pressure_avg": 998.8,
      "rain_mult": 0.132,
      "soil_mult": 0.8,
      "humidity_mult": 1.086,
      "raw_dynamic_score": 1.065,
      "dynamic_level": "Low"
    },
    {
      "id": "nan",
      "name": "Forks, USA",
      "latitude": 48.01,
      "longitude": -124.365,
      "base_risk": 8.96,
      "rain_6h_mm": 12.9,
      "humidity_avg": 96.2,
      "soil_moisture_avg": 0.0,
      "temperature_avg": 9.9,
      "pressure_avg": 990.2,
      "rain_mult": 0.129,
      "soil_mult": 0.8,
      "humidity_mult": 1.092,
      "raw_dynamic_score": 1.01,
      "dynamic_level": "Low"
    },