{
  "timestamp": "2025-10-31T10:40:42.115977Z",
  "source": "Open-Meteo",
  "forecast_window_hours": 6,
  "features_evaluated": 359,
  "alerts": [
    {
      "id": "106.0",
      "name": "Navacerrada",
      "latitude": 40.70623067,
      "longitude": -3.972476814,
      "base_risk": 8.91,
      "rain_6h_mm": 0.0,
      "humidity_avg": 79.5,
      "soil_moisture_avg": 0.0,
      "temperature_avg": 11.0,
      "pressure_avg": 900.8,
      "rain_mult": 0.0,
      "soil_mult": 0.8,
      "humidity_mult": 1.059,
      "raw_dynamic_score": 0.0,
      "dynamic_level": "None"
    },
    {
      "id": "272.0",
      "name": "Anchuelo (Diseminado)",
      "latitude": 40.4843423,
      "longitude": -3.348244904,
      "base_risk": 8.54,
      "rain_6h_mm": 0.0,
      "humidity_avg": 67.5,
      "soil_moisture_avg": 0.0,
      "temperature_avg": 16.0,
      "pressure_avg": 948.6,
      "rain_mult": 0.0,
      "soil_mult": 0.8,
      "humidity_mult": 1.035,
      "raw_dynamic_score": 0.0,
      "dynamic_level": "None"
    },
    {
      "id": "286.0",
      "name": "Anchuelo",
      "latitude": 40.48490594,
      "longitude": -3.349909973,
      "base_risk": 8.53,
      "rain_6h_mm": 0.0,
      "humidity_avg": 67.5,
      "soil_moisture_avg": 0.0,
      "temperature_avg": 16.0,
      "pressure_avg": 948.8,
      "rain_mult": 0.0,
      "soil_mult": 0.8,
      "humidity_mult": 1.035,
      "raw_dynamic_score": 0.0,
      "dynamic_level": "None"
    },
    {
      "id": "393.0",
      "name": "Villar del Olmo",
      "latitude": 40.46859545,
      "longitude": -3.365054696,
      "base_risk": 8.68,
      "rain_6h_mm": 0.0,
      "humidity_avg": 67.8,
      "soil_moisture_avg": 0.0,
      "temperature_avg": 15.9,
      "pressure_avg": 949.3,
      "rain_mult": 0.0,
      "soil_mult": 0.8,
      "humidity_mult": 1.036,
      "raw_dynamic_score": 0.0,
      "dynamic_level": "None"
    },
    {
      "id": "423.0",
      "name": "Villar del Olmo",
      "latitude": 40.47371244,
      "longitude": -3.362564932,
      "base_risk": 8.64,
      "rain_6h_mm": 0.0,
      "humidity_avg": 67.5,
      "soil_moisture_avg": 0.0,
      "temperature_avg": 16.0,
      "pressure_avg": 949.0,
      "rain_mult": 0.0,
      "soil_mult": 0.8,
      "humidity_mult": 1.035,
      "raw_dynamic_score": 0.0,
      "dynamic_level": "None"
    },
    {
      "id": "440.0",
      "name": "Alcalá de Henares",
      "latitude": 40.48231362,
      "longitude": -3.347813178,
      "base_risk": 8.58,
      "rain_6h_mm": 0.0,
      "humidity_avg": 67.5,
      "soil_moisture_avg": 0.0,
      "temperature_avg": 16.0,
      "pressure_avg": 949.0,
      "rain_mult": 0.0,
      "soil_mult": 0.8,
      "humidity_mult": 1.035,
      "raw_dynamic_score": 0.0,
      "dynamic_level": "None"
    },
    {
      "id": "570.0",
      "name": "Hueros, Los",
      "latitude": 40.46925965,
      "longitude": -3.414580388,
      "base_risk": 8.82,
      "rain_6h_mm": 0.0,
      "humidity_avg": 68.8,
      "soil_moisture_avg": 0.0,
      "temperature_avg": 16.0,
      "pressure_avg": 950.1,
      "rain_mult": 0.0,
      "soil_mult": 0.8,
      "humidity_mult": 1.038,
      "raw_dynamic_score": 0.0,
      "dynamic_level": "None"
    },
    {
      "id": "597.0",
      "name": "Pezuela de las Torres (Diseminado)",
      "latitude": 40.46626403,
      "longitude": -3.363127297,
      "base_risk": 8.71,
      "rain_6h_mm": 0.0,
      "humidity_avg": 67.8,
      "soil_moisture_avg": 0.0,
      "temperature_avg": 16.0,
      "pressure_avg": 949.7,
      "rain_mult": 0.0,
      "soil_mult": 0.8,
      "humidity_mult": 1.036,
      "raw_dynamic_score": 0.0,
      "dynamic_level": "None"
    },
    {
      "id": "633.0",
      "name": "Alcalá de Henares",
      "latitude": 40.48151445,
      "longitude": -3.353867683,
      "base_risk": 8.6,
      "rain_6h_mm": 0.0,
      "humidity_avg": 67.5,
      "soil_moisture_avg": 0.0,
      "temperature_avg": 16.0,
      "pressure_avg": 948.2,
      "rain_mult": 0.0,
      "soil_mult": 0.8,
      "humidity_mult": 1.035,
      "raw_dynamic_score": 0.0,
      "dynamic_level": "None"
    },
    {
      "id": "841.0",
      "name": "Mirador de Baztán, El",
      "latitude": 40.46712332,
      "longitude": -3.416427827,
      "base_risk": 8.84,
      "rain_6h_mm": 0.0,
      "humidity_avg": 67.8,
      "soil_moisture_avg": 0.0,
      "temperature_avg": 16.0,
      "pressure_avg": 950.2,
      "rain_mult": 0.0,
      "soil_mult": 0.8,
      "humidity_mult": 1.036,
      "raw_dynamic_score": 0.0,
      "dynamic_level": "None"
    },
    {
      "id": "887.0",
      "name": "Alcalá de Henares",
      "latitude": 40.4707732,
      "longitude": -3.399751404,
      "base_risk": 8.64,
      "rain_6h_mm": 0.0,
      "humidity_avg": 67.5,
      "soil_moisture_avg": 0.0,
      "temperature_avg": 16.1,
      "pressure_avg": 950.3,
      "rain_mult": 0.0,
      "soil_mult": 0.8,
      "humidity_mult": 1.035,
      "raw_dynamic_score": 0.0,
      "dynamic_level": "None"
    },
    {
      "id": "888.0",
      "name": "Alcalá de Henares (Diseminado)",
      "latitude": 40.47350409,
      "longitude": -3.398522976,
      "base_risk": 8.51,
      "rain_6h_mm": 0.0,
      "humidity_avg": 67.5,
      "soil_moisture_avg": 0.0,
      "temperature_avg": 16.0,
      "pressure_avg": 949.5,
      "rain_mult": 0.0,
      "soil_mult": 0.8,
      "humidity_mult": 1.035,
      "raw_dynamic_score": 0.0,
      "dynamic_level": "None"
    },
    {
      "id": "1202.0",
      "name": "Alcalá de Henares",
      "latitude": 40.48653191,
      "longitude": -3.356520687,
      "base_risk": 8.51,
      "rain_6h_mm": 0.0,
      "humidity_avg": 67.5,
      "soil_moisture_avg": 0.0,
      "temperature_avg": 15.9,
      "pressure_avg": 947.5,
      "rain_mult": 0.0,
      "soil_mult": 0.8,
      "humidity_mult": 1.035,
      "raw_dynamic_score": 0.0,
      "dynamic_level": "None"
    },
    {
      "id": "1400.0",
      "name": "Cabanillas de la Sierra",
      "latitude": 40.74511268,
      "longitude": -3.784492436,
      "base_risk": 8.63,
      "rain_6h_mm": 0.0,
      "humidity_avg": 81.2,
      "soil_moisture_avg": 0.0,
      "temperature_avg": 13.0,
      "pressure_avg": 913.6,
      "rain_mult": 0.0,
      "soil_mult": 0.8,
      "humidity_mult": 1.062,
      "raw_dynamic_score": 0.0,
      "dynamic_level": "None"
    },
    {
      "id": "1403.0",
      "name": "Cabanillas de la Sierra (Diseminado)",
      "latitude": 40.74638068,
      "longitude": -3.784948459,
      "base_risk": 8.55,
      "rain_6h_mm": 0.0,
      "humidity_avg": 81.2,
      "soil_moisture_avg": 0.0,
      "temperature_avg": 13.0,
      "pressure_avg": 913.7,
      "rain_mult": 0.0,
      "soil_mult": 0.8,
      "humidity_mult": 1.062,
      "raw_dynamic_score": 0.0,
      "dynamic_level": "None"
    },
    {
      "id": "1930.0",
      "name": "San Lorenzo de El Escorial",
      "latitude": 40.63345925,
      "longitude": -4.013628043,
      "base_risk": 8.68,
      "rain_6h_mm": 0.0,
      "humidity_avg": 83.2,
      "soil_moisture_avg": 0.0,
      "temperature_avg": 12.3,
      "pressure_avg": 917.0,
      "rain_mult": 0.0,
      "soil_mult": 0.8,
      "humidity_mult": 1.066,
      "raw_dynamic_score": 0.0,
      "dynamic_level": "None"
    },
    {
      "id": "2342.0",
      "name": "Pinilla del Valle (Diseminado)",
      "latitude": 40.92636788,
      "longitude": -3.816429001,
      "base_risk": 8.6,
      "rain_6h_mm": 0.1,
      "humidity_avg": 75.2,
      "soil_moisture_avg": 0.0,
      "temperature_avg": 11.6,
      "pressure_avg": 892.6,
      "rain_mult": 0.001,
      "soil_mult": 0.8,
      "humidity_mult": 1.05,
      "raw_dynamic_score": 0.007,
      "dynamic_level": "Low"
    },
    {
      "id": "2872.0",
      "name": "Fuenlabrada",
      "latitude": 40.26970406,
      "longitude": -3.744570169,
      "base_risk": 8.58,
      "rain_6h_mm": 0.0,
      "humidity_avg": 69.8,
      "soil_moisture_avg": 0.0,
      "temperature_avg": 15.5,
      "pressure_avg": 944.8,
      "rain_mult": 0.0,
      "soil_mult": 0.8,
      "humidity_mult": 1.04,
      "raw_dynamic_score": 0.0,
      "dynamic_level": "None"
    },
    {
      "id": "3264.0",
      "name": "Villamanrique de Tajo",
      "latitude": 40.06542324,
      "longitude": -3.239051792,
      "base_risk": 8.73,
      "rain_6h_mm": 0.0,
      "humidity_avg": 67.3,
      "soil_moisture_avg": 0.0,
      "temperature_avg": 16.7,
      "pressure_avg": 955.6,
      "rain_mult": 0.0,
      "soil_mult": 0.8,
      "humidity_mult": 1.035,
      "raw_dynamic_score": 0.0,
      "dynamic_level": "None"
    },
    {
      "id": "3267.0",
      "name": "Villamanrique de Tajo",
      "latitude": 40.06613293,
      "longitude": -3.240739722,
      "base_risk": 8.59,
      "rain_6h_mm": 0.0,
      "humidity_avg": 67.3,
      "soil_moisture_avg": 0.0,
      "temperature_avg": 16.7,
      "pressure_avg": 954.6,
      "rain_mult": 0.0,
      "soil_mult": 0.8,
      "humidity_mult": 1.035,
      "raw_dynamic_score": 0.0,
      "dynamic_level": "None"
    },
    {
      "id": "3855.0",
      "name": "Collado Villalba",
      "latitude": 40.6304307,
      "longitude": -4.009466412,
      "base_risk": 8.7,
      "rain_6h_mm": 0.0,
      "humidity_avg": 83.2,
      "soil_moisture_avg": 0.0,
      "temperature_avg": 12.3,
      "pressure_avg": 917.2,
      "rain_mult": 0.0,
      "soil_mult": 0.8,
      "humidity_mult": 1.066,
      "raw_dynamic_score": 0.0,
      "dynamic_level": "None"
    },
    {
      "id": "3923.0",
      "name": "Paracuellos de Jarama",
      "latitude": 40.63704358,
      "longitude": -4.013533941,
      "base_risk": 8.59,
      "rain_6h_mm": 0.0,
      "humidity_avg": 83.2,
      "soil_moisture_avg": 0.0,
      "temperature_avg": 12.3,
      "pressure_avg": 916.8,
      "rain_mult": 0.0,
      "soil_mult": 0.8,
      "humidity_mult": 1.066,
      "raw_dynamic_score": 0.0,
      "dynamic_level": "None"
    },
    {
      "id": "3998.0",
      "name": "Alalpardo",
      "latitude": 40.52902321,
      "longitude": -3.478394339,
      "base_risk": 8.55,
      "rain_6h_mm": 0.0,
      "humidity_avg": 70.8,
      "soil_moisture_avg": 0.0,
      "temperature_avg": 15.2,
      "pressure_avg": 940.7,
      "rain_mult": 0.0,
      "soil_mult": 0.8,
      "humidity_mult": 1.042,
      "raw_dynamic_score": 0.0,
      "dynamic_level": "None"
    },
    {
      "id": "4003.0",
      "name": "Sevilla la Nueva",
      "latitude": 40.52959268,
      "longitude": -3.478130434,
      "base_risk": 8.56,
      "rain_6h_mm": 0.0,
      "humidity_avg": 70.8,
      "soil_moisture_avg": 0.0,
      "temperature_avg": 15.2,
      "pressure_avg": 940.6,
      "rain_mult": 0.0,
      "soil_mult": 0.8,
      "humidity_mult": 1.042,
      "raw_dynamic_score": 0.0,
      "dynamic_level": "None"
    },
    {
      "id": "4059.0",
      "name": "Velilla de San Antonio (Diseminado)",
      "latitude": 40.36521887,
      "longitude": -3.494965112,
      "base_risk": 9.36,
      "rain_6h_mm": 0.0,
      "humidity_avg": 70.5,
      "soil_moisture_avg": 0.0,
      "temperature_avg": 16.2,
      "pressure_avg": 954.0,
      "rain_mult": 0.0,
      "soil_mult": 0.8,
      "humidity_mult": 1.041,
      "raw_dynamic_score": 0.0,
      "dynamic_level": "None"
    },
    {
      "id": "4067.0",
      "name": "Velilla de San Antonio (Diseminado)",
      "latitude": 40.36371003,
      "longitude": -3.484863858,
      "base_risk": 9.0,
      "rain_6h_mm": 0.0,
      "humidity_avg": 70.5,
      "soil_moisture_avg": 0.0,
      "temperature_avg": 16.1,
      "pressure_avg": 953.1,
      "rain_mult": 0.0,
      "soil_mult": 0.8,
      "humidity_mult": 1.041,
      "raw_dynamic_score": 0.0,
      "dynamic_level": "None"
    },
    {
      "id": "4068.0",
      "name": "Velilla de San Antonio (Diseminado)",
      "latitude": 40.36326683,
      "longitude": -3.484459945,
      "base_risk": 9.02,
      "rain_6h_mm": 0.0,
      "humidity_avg": 70.5,
      "soil_moisture_avg": 0.0,
      "temperature_avg": 16.2,
      "pressure_avg": 953.4,
      "rain_mult": 0.0,
      "soil_mult": 0.8,
      "humidity_mult": 1.041,
      "raw_dynamic_score": 0.0,
      "dynamic_level": "None"
    },
    {
      "id": "4105.0",
      "name": "Ajalvir",
      "latitude": 40.52990222,
      "longitude": -3.478534808,
      "base_risk": 8.54,
      "rain_6h_mm": 0.0,
      "humidity_avg": 70.8,
      "soil_moisture_avg": 0.0,
      "temperature_avg": 15.2,
      "pressure_avg": 940.2,
      "rain_mult": 0.0,
      "soil_mult": 0.8,
      "humidity_mult": 1.042,
      "raw_dynamic_score": 0.0,
      "dynamic_level": "None"
    },
    {
      "id": "4230.0",
      "name": "Velilla de San Antonio (Diseminado)",
      "latitude": 40.36461129,
      "longitude": -3.483144251,
      "base_risk": 8.89,
      "rain_6h_mm": 0.0,
      "humidity_avg": 70.5,
      "soil_moisture_avg": 0.0,
      "temperature_avg": 16.1,
      "pressure_avg": 952.4,
      "rain_mult": 0.0,
      "soil_mult": 0.8,
      "humidity_mult": 1.041,
      "raw_dynamic_score": 0.0,
      "dynamic_level": "None"
    },
    {
      "id": "4231.0",
      "name": "Velilla de San Antonio (Diseminado)",
      "latitude": 40.36530873,
      "longitude": -3.481920933,
      "base_risk": 8.83,
      "rain_6h_mm": 0.0,
      "humidity_avg": 70.5,
      "soil_moisture_avg": 0.0,
      "temperature_avg": 16.1,
      "pressure_avg": 952.8,
      "rain_mult": 0.0,
      "soil_mult": 0.8,
      "humidity_mult": 1.041,
      "raw_dynamic_score": 0.0,
      "dynamic_level": "None"
    },
    {
      "id": "4525.0",
      "name": "Patones de Arriba",
      "latitude": 40.85789754,
      "longitude": -3.486688637,
      "base_risk": 8.84,
      "rain_6h_mm": 0.0,
      "humidity_avg": 74.7,
      "soil_moisture_avg": 0.0,
      "temperature_avg": 13.7,
      "pressure_avg": 932.3,
      "rain_mult": 0.0,
      "soil_mult": 0.8,
      "humidity_mult": 1.049,
      "raw_dynamic_score": 0.0,
      "dynamic_level": "None"
    },
    {
      "id": "4527.0",
      "name": "Patones de Arriba (Diseminado)",
      "latitude": 40.85584319,
      "longitude": -3.481358042,
      "base_risk": 9.18,
      "rain_6h_mm": 0.0,
      "humidity_avg": 74.7,
      "soil_moisture_avg": 0.0,
      "temperature_avg": 13.9,
      "pressure_avg": 935.2,
      "rain_mult": 0.0,
      "soil_mult": 0.8,
      "humidity_mult": 1.049,
      "raw_dynamic_score": 0.0,
      "dynamic_level": "None"
    },
    {
      "id": "4562.0",
      "name": "Velilla de San Antonio (Diseminado)",
      "latitude": 40.36835633,
      "longitude": -3.490721456,
      "base_risk": 9.19,
      "rain_6h_mm": 0.0,
      "humidity_avg": 70.5,
      "soil_moisture_avg": 0.0,
      "temperature_avg": 16.2,
      "pressure_avg": 953.7,
      "rain_mult": 0.0,
      "soil_mult": 0.8,
      "humidity_mult": 1.041,
      "raw_dynamic_score": 0.0,
      "dynamic_level": "None"
    },
    {
      "id": "4566.0",
      "name": "Torres de la Alameda",
      "latitude": 40.37130693,
      "longitude": -3.491384938,
      "base_risk": 9.28,
      "rain_6h_mm": 0.0,
      "humidity_avg": 70.5,
      "soil_moisture_avg": 0.0,
      "temperature_avg": 16.2,
      "pressure_avg": 953.7,
      "rain_mult": 0.0,
      "soil_mult": 0.8,
      "humidity_mult": 1.041,
      "raw_dynamic_score": 0.0,
      "dynamic_level": "None"
    },
    {
      "id": "4900.0",
      "name": "Velilla de San Antonio",
      "latitude": 40.36690713,
      "longitude": -3.494886255,
      "base_risk": 9.35,
      "rain_6h_mm": 0.0,
      "humidity_avg": 70.5,
      "soil_moisture_avg": 0.0,
      "temperature_avg": 16.2,
      "pressure_avg": 953.6,
      "rain_mult": 0.0,
      "soil_mult": 0.8,
      "humidity_mult": 1.041,
      "raw_dynamic_score": 0.0,
      "dynamic_level": "None"
    },
    {
      "id": "5097.0",
      "name": "Velilla de San Antonio",
      "latitude": 40.36726195,
      "longitude": -3.482431171,
      "base_risk": 8.83,
      "rain_6h_mm": 0.0,
      "humidity_avg": 70.5,
      "soil_moisture_avg": 0.0,
      "temperature_avg": 16.1,
      "pressure_avg": 952.7,
      "rain_mult": 0.0,
      "soil_mult": 0.8,
      "humidity_mult": 1.041,
      "raw_dynamic_score": 0.0,
      "dynamic_level": "None"
    },
    {
      "id": "5233.0",
      "name": "Negrales - Los Llanos, Los",
      "latitude": 40.63821532,
      "longitude": -4.019676549,
      "base_risk": 8.54,
      "rain_6h_mm": 0.0,
      "humidity_avg": 83.2,
      "soil_moisture_avg": 0.0,
      "temperature_avg": 12.3,
      "pressure_avg": 916.7,
      "rain_mult": 0.0,
      "soil_mult": 0.8,
      "humidity_mult": 1.066,
      "raw_dynamic_score": 0.0,
      "dynamic_level": "None"
    },
    {
      "id": "5342.0",
      "name": "Molinos, Los (Diseminado)",
      "latitude": 40.46735812,
      "longitude": -3.368085956,
      "base_risk": 8.66,
      "rain_6h_mm": 0.0,
      "humidity_avg": 67.8,
      "soil_moisture_avg": 0.0,
      "temperature_avg": 16.0,
      "pressure_avg": 949.5,
      "rain_mult": 0.0,
      "soil_mult": 0.8,
      "humidity_mult": 1.036,
      "raw_dynamic_score": 0.0,
      "dynamic_level": "None"
    },
    {
      "id": "5637.0",
      "name": "Rozas de Madrid, Las",
      "latitude": 40.8177328,
      "longitude": -3.536314052,
      "base_risk": 8.7,
      "rain_6h_mm": 0.0,
      "humidity_avg": 76.2,
      "soil_moisture_avg": 0.0,
      "temperature_avg": 14.3,
      "pressure_avg": 934.7,
      "rain_mult": 0.0,
      "soil_mult": 0.8,
      "humidity_mult": 1.052,
      "raw_dynamic_score": 0.0,
      "dynamic_level": "None"
    },
    {
      "id": "6071.0",
      "name": "Alpedrete",
      "latitude": 40.64535319,
      "longitude": -4.021899227,
      "base_risk": 8.52,
      "rain_6h_mm": 0.0,
      "humidity_avg": 83.2,
      "soil_moisture_avg": 0.0,
      "temperature_avg": 12.3,
      "pressure_avg": 916.4,
      "rain_mult": 0.0,
      "soil_mult": 0.8,
      "humidity_mult": 1.066,
      "raw_dynamic_score": 0.0,
      "dynamic_level": "None"
    },
    {
      "id": "6217.0",
      "name": "Torrelaguna (Diseminado)",
      "latitude": 40.82209286,
      "longitude": -3.535483086,
      "base_risk": 8.54,
      "rain_6h_mm": 0.0,
      "humidity_avg": 76.2,
      "soil_moisture_avg": 0.0,
      "temperature_avg": 14.2,
      "pressure_avg": 934.5,
      "rain_mult": 0.0,
      "soil_mult": 0.8,
      "humidity_mult": 1.052,
      "raw_dynamic_score": 0.0,
      "dynamic_level": "None"
    },
    {
      "id": "6271.0",
      "name": "Cotorredondo",
      "latitude": 40.24827142,
      "longitude": -3.950183328,
      "base_risk": 8.56,
      "rain_6h_mm": 0.0,
      "humidity_avg": 71.3,
      "soil_moisture_avg": 0.0,
      "temperature_avg": 15.6,
      "pressure_avg": 952.5,
      "rain_mult": 0.0,
      "soil_mult": 0.8,
      "humidity_mult": 1.043,
      "raw_dynamic_score": 0.0,
      "dynamic_level": "None"
    },
    {
      "id": "6418.0",
      "name": "Negrales - Los Llanos, Los",
      "latitude": 40.63941197,
      "longitude": -4.018212016,
      "base_risk": 8.59,
      "rain_6h_mm": 0.1,
      "humidity_avg": 83.2,
      "soil_moisture_avg": 0.0,
      "temperature_avg": 12.3,
      "pressure_avg": 916.5,
      "rain_mult": 0.001,
      "soil_mult": 0.8,
      "humidity_mult": 1.066,
      "raw_dynamic_score": 0.007,
      "dynamic_level": "Low"
    },
    {
      "id": "6538.0",
      "name": "Aranjuez",
      "latitude": 40.03500409,
      "longitude": -3.61336658,
      "base_risk": 9.09,
      "rain_6h_mm": 0.0,
      "humidity_avg": 66.0,
      "soil_moisture_avg": 0.0,
      "temperature_avg": 17.0,
      "pressure_avg": 959.5,
      "rain_mult": 0.0,
      "soil_mult": 0.8,
      "humidity_mult": 1.032,
      "raw_dynamic_score": 0.0,
      "dynamic_level": "None"
    },
    {
      "id": "6542.0",
      "name": "Meco",
      "latitude": 40.03231106,
      "longitude": -3.62339282,
      "base_risk": 9.07,
      "rain_6h_mm": 0.0,
      "humidity_avg": 64.8,
      "soil_moisture_avg": 0.0,
      "temperature_avg": 16.8,
      "pressure_avg": 960.0,
      "rain_mult": 0.0,
      "soil_mult": 0.8,
      "humidity_mult": 1.03,
      "raw_dynamic_score": 0.0,
      "dynamic_level": "None"
    },
    {
      "id": "6973.0",
      "name": "Daganzo de Arriba",
      "latitude": 40.53820961,
      "longitude": -3.456220095,
      "base_risk": 8.74,
      "rain_6h_mm": 0.0,
      "humidity_avg": 70.7,
      "soil_moisture_avg": 0.0,
      "temperature_avg": 15.3,
      "pressure_avg": 941.5,
      "rain_mult": 0.0,
      "soil_mult": 0.8,
      "humidity_mult": 1.041,
      "raw_dynamic_score": 0.0,
      "dynamic_level": "None"
    },
    {
      "id": "6993.0",
      "name": "Aranjuez",
      "latitude": 40.02889065,
      "longitude": -3.643802317,
      "base_risk": 9.18,
      "rain_6h_mm": 0.0,
      "humidity_avg": 65.2,
      "soil_moisture_avg": 0.0,
      "temperature_avg": 17.1,
      "pressure_avg": 960.6,
      "rain_mult": 0.0,
      "soil_mult": 0.8,
      "humidity_mult": 1.03,
      "raw_dynamic_score": 0.0,
      "dynamic_level": "None"
    },
    {
      "id": "7020.0",
      "name": "Aranjuez",
      "latitude": 40.0393903,
      "longitude": -3.606112056,
      "base_risk": 9.12,
      "rain_6h_mm": 0.0,
      "humidity_avg": 64.8,
      "soil_moisture_avg": 0.0,
      "temperature_avg": 16.8,
      "pressure_avg": 959.8,
      "rain_mult": 0.0,
      "soil_mult": 0.8,
      "humidity_mult": 1.03,
      "raw_dynamic_score": 0.0,
      "dynamic_level": "None"
    },
    {
      "id": "7021.0",
      "name": "Aranjuez",
      "latitude": 40.03635157,
      "longitude": -3.608531414,
      "base_risk": 9.08,
      "rain_6h_mm": 0.0,
      "humidity_avg": 64.8,
      "soil_moisture_avg": 0.0,
      "temperature_avg": 16.8,
      "pressure_avg": 959.4,
      "rain_mult": 0.0,
      "soil_mult": 0.8,
      "humidity_mult": 1.03,
      "raw_dynamic_score": 0.0,
      "dynamic_level": "None"
    },
    {
      "id": "7022.0",
      "name": "Aranjuez",
      "latitude": 40.0361086,
      "longitude": -3.602341593,
      "base_risk": 9.01,
      "rain_6h_mm": 0.0,
      "humidity_avg": 64.8,
      "soil_moisture_avg": 0.0,
      "temperature_avg": 16.7,
      "pressure_avg": 959.0,
      "rain_mult": 0.0,
      "soil_mult": 0.8,
      "humidity_mult": 1.03,
      "raw_dynamic_score": 0.0,
      "dynamic_level": "None"
    },
    {
      "id": "7030.0",
      "name": "Miraflores de la Sierra",
      "latitude": 40.03462197,
      "longitude": -3.60681123,
      "base_risk": 9.05,
      "rain_6h_mm": 0.0,
      "humidity_avg": 64.8,
      "soil_moisture_avg": 0.0,
      "temperature_avg": 16.8,
      "pressure_avg": 959.4,
      "rain_mult": 0.0,
      "soil_mult": 0.8,
      "humidity_mult": 1.03,
      "raw_dynamic_score": 0.0,
      "dynamic_level": "None"
    },
    {
      "id": "7075.0",
      "name": "Daganzo de Arriba",
      "latitude": 40.53673748,
      "longitude": -3.456174363,
      "base_risk": 8.78,
      "rain_6h_mm": 0.0,
      "humidity_avg": 70.7,
      "soil_moisture_avg": 0.0,
      "temperature_avg": 15.3,
      "pressure_avg": 941.9,
      "rain_mult": 0.0,
      "soil_mult": 0.8,
      "humidity_mult": 1.041,
      "raw_dynamic_score": 0.0,
      "dynamic_level": "None"
    },
    {
      "id": "7084.0",
      "name": "Daganzo de Arriba",
      "latitude": 40.5429398,
      "longitude": -3.454840341,
      "base_risk": 8.53,
      "rain_6h_mm": 0.0,
      "humidity_avg": 70.7,
      "soil_moisture_avg": 0.0,
      "temperature_avg": 15.3,
      "pressure_avg": 941.0,
      "rain_mult": 0.0,
      "soil_mult": 0.8,
      "humidity_mult": 1.041,
      "raw_dynamic_score": 0.0,
      "dynamic_level": "None"
    },
    {
      "id": "7768.0",
      "name": "Aranjuez",
      "latitude": 40.03492818,
      "longitude": -3.587512804,
      "base_risk": 8.8,
      "rain_6h_mm": 0.0,
      "humidity_avg": 64.2,
      "soil_moisture_avg": 0.0,
      "temperature_avg": 16.8,
      "pressure_avg": 958.6,
      "rain_mult": 0.0,
      "soil_mult": 0.8,
      "humidity_mult": 1.028,
      "raw_dynamic_score": 0.0,
      "dynamic_level": "None"
    },
    {
      "id": "7771.0",
      "name": "Aranjuez",
      "latitude": 40.03191225,
      "longitude": -3.599697978,
      "base_risk": 8.54,
      "rain_6h_mm": 0.0,
      "humidity_avg": 64.8,
      "soil_moisture_avg": 0.0,
      "temperature_avg": 16.7,
      "pressure_avg": 958.3,
      "rain_mult": 0.0,
      "soil_mult": 0.8,
      "humidity_mult": 1.03,
      "raw_dynamic_score": 0.0,
      "dynamic_level": "None"
    },
    {
      "id": "7779.0",
      "name": "Aranjuez",
      "latitude": 40.03756623,
      "longitude": -3.60405899,
      "base_risk": 9.05,
      "rain_6h_mm": 0.0,
      "humidity_avg": 64.8,
      "soil_moisture_avg": 0.0,
      "temperature_avg": 16.8,
      "pressure_avg": 959.7,
      "rain_mult": 0.0,
      "soil_mult": 0.8,
      "humidity_mult": 1.03,
      "raw_dynamic_score": 0.0,
      "dynamic_level": "None"
    },
    {
      "id": "7861.0",
      "name": "Aranjuez",
      "latitude": 40.03587557,
      "longitude": -3.617226504,
      "base_risk": 9.08,
      "rain_6h_mm": 0.0,
      "humidity_avg": 64.8,
      "soil_moisture_avg": 0.0,
      "temperature_avg": 16.8,
      "pressure_avg": 959.7,
      "rain_mult": 0.0,
      "soil_mult": 0.8,
      "humidity_mult": 1.03,
      "raw_dynamic_score": 0.0,
      "dynamic_level": "None"
    },
    {
      "id": "7862.0",
      "name": "Berzosa, La",
      "latitude": 40.03474034,
      "longitude": -3.618327634,
      "base_risk": 9.04,
      "rain_6h_mm": 0.0,
      "humidity_avg": 64.8,
      "soil_moisture_avg": 0.0,
      "temperature_avg": 16.8,
      "pressure_avg": 959.4,
      "rain_mult": 0.0,
      "soil_mult": 0.8,
      "humidity_mult": 1.03,
      "raw_dynamic_score": 0.0,
      "dynamic_level": "None"
    },
    {
      "id": "8829.0",
      "name": "Daganzo de Arriba",
      "latitude": 40.54464703,
      "longitude": -3.45772691,
      "base_risk": 8.52,
      "rain_6h_mm": 0.0,
      "humidity_avg": 70.7,
      "soil_moisture_avg": 0.0,
      "temperature_avg": 15.2,
      "pressure_avg": 939.9,
      "rain_mult": 0.0,
      "soil_mult": 0.8,
      "humidity_mult": 1.041,
      "raw_dynamic_score": 0.0,
      "dynamic_level": "None"
    },
    {
      "id": "10740.0",
      "name": "Madrid",
      "latitude": 40.45323171,
      "longitude": -3.77033754,
      "base_risk": 8.54,
      "rain_6h_mm": 0.0,
      "humidity_avg": 68.7,
      "soil_moisture_avg": 0.0,
      "temperature_avg": 15.2,
      "pressure_avg": 945.4,
      "rain_mult": 0.0,
      "soil_mult": 0.8,
      "humidity_mult": 1.037,
      "raw_dynamic_score": 0.0,
      "dynamic_level": "None"
    },
    {
      "id": "10745.0",
      "name": "Madrid",
      "latitude": 40.45440596,
      "longitude": -3.765855206,
      "base_risk": 8.59,
      "rain_6h_mm": 0.0,
      "humidity_avg": 68.7,
      "soil_moisture_avg": 0.0,
      "temperature_avg": 15.2,
      "pressure_avg": 944.9,
      "rain_mult": 0.0,
      "soil_mult": 0.8,
      "humidity_mult": 1.037,
      "raw_dynamic_score": 0.0,
      "dynamic_level": "None"
    },
    {
      "id": "10749.0",
      "name": "Madrid",
      "latitude": 40.45326992,
      "longitude": -3.761411205,
      "base_risk": 8.52,
      "rain_6h_mm": 0.0,
      "humidity_avg": 68.7,
      "soil_moisture_avg": 0.0,
      "temperature_avg": 15.2,
      "pressure_avg": 945.7,
      "rain_mult": 0.0,
      "soil_mult": 0.8,
      "humidity_mult": 1.037,
      "raw_dynamic_score": 0.0,
      "dynamic_level": "None"
    },
    {
      "id": "13412.0",
      "name": "Cerrada, La",
      "latitude": 40.83797765,
      "longitude": -3.486190777,
      "base_risk": 8.59,
      "rain_6h_mm": 0.0,
      "humidity_avg": 76.5,
      "soil_moisture_avg": 0.0,
      "temperature_avg": 13.7,
      "pressure_avg": 936.2,
      "rain_mult": 0.0,
      "soil_mult": 0.8,
      "humidity_mult": 1.053,
      "raw_dynamic_score": 0.0,
      "dynamic_level": "None"
    },
    {
      "id": "13859.0",
      "name": "Fuenlabrada",
      "latitude": 40.54480431,
      "longitude": -3.455264648,
      "base_risk": 8.53,
      "rain_6h_mm": 0.0,
      "humidity_avg": 70.7,
      "soil_moisture_avg": 0.0,
      "temperature_avg": 15.2,
      "pressure_avg": 940.7,
      "rain_mult": 0.0,
      "soil_mult": 0.8,
      "humidity_mult": 1.041,
      "raw_dynamic_score": 0.0,
      "dynamic_level": "None"
    },
    {
      "id": "14692.0",
      "name": "Estación, La",
      "latitude": 40.63239499,
      "longitude": -4.012220327,
      "base_risk": 8.7,
      "rain_6h_mm": 0.1,
      "humidity_avg": 82.0,
      "soil_moisture_avg": 0.0,
      "temperature_avg": 12.2,
      "pressure_avg": 916.8,
      "rain_mult": 0.001,
      "soil_mult": 0.8,
      "humidity_mult": 1.064,
      "raw_dynamic_score": 0.007,
      "dynamic_level": "Low"
    },
    {
      "id": "15520.0",
      "name": "Cerceda",
      "latitude": 40.70086837,
      "longitude": -3.930601128,
      "base_risk": 8.54,
      "rain_6h_mm": 0.0,
      "humidity_avg": 78.8,
      "soil_moisture_avg": 0.0,
      "temperature_avg": 11.2,
      "pressure_avg": 909.6,
      "rain_mult": 0.0,
      "soil_mult": 0.8,
      "humidity_mult": 1.058,
      "raw_dynamic_score": 0.0,
      "dynamic_level": "None"
    },
    {
      "id": "15521.0",
      "name": "Vegas - Santa María, Las",
      "latitude": 40.70107159,
      "longitude": -3.929124771,
      "base_risk": 8.7,
      "rain_6h_mm": 0.0,
      "humidity_avg": 78.8,
      "soil_moisture_avg": 0.0,
      "temperature_avg": 11.3,
      "pressure_avg": 909.8,
      "rain_mult": 0.0,
      "soil_mult": 0.8,
      "humidity_mult": 1.058,
      "raw_dynamic_score": 0.0,
      "dynamic_level": "None"
    },
    {
      "id": "15860.0",
      "name": "Estación, La",
      "latitude": 40.63603127,
      "longitude": -4.01469132,
      "base_risk": 8.63,
      "rain_6h_mm": 0.1,
      "humidity_avg": 82.0,
      "soil_moisture_avg": 0.0,
      "temperature_avg": 12.2,
      "pressure_avg": 916.7,
      "rain_mult": 0.001,
      "soil_mult": 0.8,
      "humidity_mult": 1.064,
      "raw_dynamic_score": 0.007,
      "dynamic_level": "Low"
    },
    {
      "id": "15862.0",
      "name": "Arroyomolinos (Diseminado)",
      "latitude": 40.63714491,
      "longitude": -4.017140266,
      "base_risk": 8.61,
      "rain_6h_mm": 0.1,
      "humidity_avg": 82.0,
      "soil_moisture_avg": 0.0,
      "temperature_avg": 12.1,
      "pressure_avg": 915.8,
      "rain_mult": 0.001,
      "soil_mult": 0.8,
      "humidity_mult": 1.064,
      "raw_dynamic_score": 0.007,
      "dynamic_level": "Low"
    },
    {
      "id": "16046.0",
      "name": "Estación, La",
      "latitude": 40.63501547,
      "longitude": -4.013930415,
      "base_risk": 8.65,
      "rain_6h_mm": 0.1,
      "humidity_avg": 82.0,
      "soil_moisture_avg": 0.0,
      "temperature_avg": 12.2,
      "pressure_avg": 916.7,
      "rain_mult": 0.001,
      "soil_mult": 0.8,
      "humidity_mult": 1.064,
      "raw_dynamic_score": 0.007,
      "dynamic_level": "Low"
    },
    {
      "id": "16060.0",
      "name": "Arroyomolinos",
      "latitude": 40.63384159,
      "longitude": -4.013777071,
      "base_risk": 8.68,
      "rain_6h_mm": 0.1,
      "humidity_avg": 82.0,
      "soil_moisture_avg": 0.0,
      "temperature_avg": 12.2,
      "pressure_avg": 916.8,
      "rain_mult": 0.001,
      "soil_mult": 0.8,
      "humidity_mult": 1.064,
      "raw_dynamic_score": 0.007,
      "dynamic_level": "Low"
    },
    {
      "id": "16364.0",
      "name": "Madrid",
      "latitude": 40.13735064,
      "longitude": -3.573868547,
      "base_risk": 8.56,
      "rain_6h_mm": 0.0,
      "humidity_avg": 66.8,
      "soil_moisture_avg": 0.0,
      "temperature_avg": 16.6,
      "pressure_avg": 958.7,
      "rain_mult": 0.0,
      "soil_mult": 0.8,
      "humidity_mult": 1.034,
      "raw_dynamic_score": 0.0,
      "dynamic_level": "None"
    },
    {
      "id": "18722.0",
      "name": "Quintana",
      "latitude": 40.47001657,
      "longitude": -3.525564116,
      "base_risk": 8.55,
      "rain_6h_mm": 0.0,
      "humidity_avg": 69.2,
      "soil_moisture_avg": 0.0,
      "temperature_avg": 15.8,
      "pressure_avg": 950.9,
      "rain_mult": 0.0,
      "soil_mult": 0.8,
      "humidity_mult": 1.038,
      "raw_dynamic_score": 0.0,
      "dynamic_level": "None"
    },
    {
      "id": "18812.0",
      "name": "Quintana",
      "latitude": 40.46023339,
      "longitude": -3.528418149,
      "base_risk": 8.67,
      "rain_6h_mm": 0.0,
      "humidity_avg": 67.0,
      "soil_moisture_avg": 0.0,
      "temperature_avg": 15.9,
      "pressure_avg": 951.4,
      "rain_mult": 0.0,
      "soil_mult": 0.8,
      "humidity_mult": 1.034,
      "raw_dynamic_score": 0.0,
      "dynamic_level": "None"
    },
    {
      "id": "18813.0",
      "name": "Alcorcón",
      "latitude": 40.46031113,
      "longitude": -3.526844932,
      "base_risk": 8.6,
      "rain_6h_mm": 0.0,
      "humidity_avg": 67.0,
      "soil_moisture_avg": 0.0,
      "temperature_avg": 15.9,
      "pressure_avg": 951.3,
      "rain_mult": 0.0,
      "soil_mult": 0.8,
      "humidity_mult": 1.034,
      "raw_dynamic_score": 0.0,
      "dynamic_level": "None"
    },
    {
      "id": "21126.0",
      "name": "Torrejón de la Calzada (Diseminado)",
      "latitude": 40.27046564,
      "longitude": -3.749403704,
      "base_risk": 8.52,
      "rain_6h_mm": 0.0,
      "humidity_avg": 69.5,
      "soil_moisture_avg": 0.0,
      "temperature_avg": 15.4,
      "pressure_avg": 945.1,
      "rain_mult": 0.0,
      "soil_mult": 0.8,
      "humidity_mult": 1.039,
      "raw_dynamic_score": 0.0,
      "dynamic_level": "None"
    },
    {
      "id": "21265.0",
      "name": "Moralzarzal",
      "latitude": 40.70581613,
      "longitude": -3.979805777,
      "base_risk": 8.52,
      "rain_6h_mm": 0.0,
      "humidity_avg": 78.8,
      "soil_moisture_avg": 0.0,
      "temperature_avg": 10.6,
      "pressure_avg": 898.9,
      "rain_mult": 0.0,
      "soil_mult": 0.8,
      "humidity_mult": 1.058,
      "raw_dynamic_score": 0.0,
      "dynamic_level": "None"
    },
    {
      "id": "22122.0",
      "name": "Madrid",
      "latitude": 40.46815939,
      "longitude": -3.526159181,
      "base_risk": 8.63,
      "rain_6h_mm": 0.0,
      "humidity_avg": 67.0,
      "soil_moisture_avg": 0.0,
      "temperature_avg": 15.9,
      "pressure_avg": 951.0,
      "rain_mult": 0.0,
      "soil_mult": 0.8,
      "humidity_mult": 1.034,
      "raw_dynamic_score": 0.0,
      "dynamic_level": "None"
    },
    {
      "id": "23106.0",
      "name": "Serna, La (Diseminado)",
      "latitude": 40.0342122,
      "longitude": -3.616444956,
      "base_risk": 9.07,
      "rain_6h_mm": 0.0,
      "humidity_avg": 64.8,
      "soil_moisture_avg": 0.0,
      "temperature_avg": 16.8,
      "pressure_avg": 959.7,
      "rain_mult": 0.0,
      "soil_mult": 0.8,
      "humidity_mult": 1.03,
      "raw_dynamic_score": 0.0,
      "dynamic_level": "None"
    },
    {
      "id": "24603.0",
      "name": "Velilla de San Antonio (Diseminado)",
      "latitude": 40.35151292,
      "longitude": -3.4804869,
      "base_risk": 9.36,
      "rain_6h_mm": 0.0,
      "humidity_avg": 68.5,
      "soil_moisture_avg": 0.0,
      "temperature_avg": 16.2,
      "pressure_avg": 954.0,
      "rain_mult": 0.0,
      "soil_mult": 0.8,
      "humidity_mult": 1.037,
      "raw_dynamic_score": 0.0,
      "dynamic_level": "None"
    },
    {
      "id": "25738.0",
      "name": "Quintana",
      "latitude": 40.47422992,
      "longitude": -3.531955357,
      "base_risk": 8.53,
      "rain_6h_mm": 0.0,
      "humidity_avg": 68.3,
      "soil_moisture_avg": 0.0,
      "temperature_avg": 15.8,
      "pressure_avg": 950.9,
      "rain_mult": 0.0,
      "soil_mult": 0.8,
      "humidity_mult": 1.037,
      "raw_dynamic_score": 0.0,
      "dynamic_level": "None"
    },
    {
      "id": "25739.0",
      "name": "Fresno de Torote (Diseminado)",
      "latitude": 40.47115819,
      "longitude": -3.529394311,
      "base_risk": 8.55,
      "rain_6h_mm": 0.0,
      "humidity_avg": 69.2,
      "soil_moisture_avg": 0.0,
      "temperature_avg": 15.8,
      "pressure_avg": 951.0,
      "rain_mult": 0.0,
      "soil_mult": 0.8,
      "humidity_mult": 1.038,
      "raw_dynamic_score": 0.0,
      "dynamic_level": "None"
    },
    {
      "id": "25813.0",
      "name": "Madrid",
      "latitude": 40.47025107,
      "longitude": -3.527970462,
      "base_risk": 8.59,
      "rain_6h_mm": 0.0,
      "humidity_avg": 69.2,
      "soil_moisture_avg": 0.0,
      "temperature_avg": 15.8,
      "pressure_avg": 950.9,
      "rain_mult": 0.0,
      "soil_mult": 0.8,
      "humidity_mult": 1.038,
      "raw_dynamic_score": 0.0,
      "dynamic_level": "None"
    },
    {
      "id": "25816.0",
      "name": "San Sebastián de los Reyes (Diseminado)",
      "latitude": 40.53694887,
      "longitude": -3.554980564,
      "base_risk": 8.71,
      "rain_6h_mm": 0.0,
      "humidity_avg": 71.2,
      "soil_moisture_avg": 0.0,
      "temperature_avg": 15.3,
      "pressure_avg": 949.4,
      "rain_mult": 0.0,
      "soil_mult": 0.8,
      "humidity_mult": 1.042,
      "raw_dynamic_score": 0.0,
      "dynamic_level": "None"
    },
    {
      "id": "25994.0",
      "name": "Villanueva de Perales",
      "latitude": 40.5317529,
      "longitude": -3.55582203,
      "base_risk": 8.71,
      "rain_6h_mm": 0.0,
      "humidity_avg": 71.2,
      "soil_moisture_avg": 0.0,
      "temperature_avg": 15.3,
      "pressure_avg": 949.1,
      "rain_mult": 0.0,
      "soil_mult": 0.8,
      "humidity_mult": 1.042,
      "raw_dynamic_score": 0.0,
      "dynamic_level": "None"
    },
    {
      "id": "27010.0",
      "name": "Mejorada del Campo (Diseminado)",
      "latitude": 40.60833417,
      "longitude": -3.578205362,
      "base_risk": 8.65,
      "rain_6h_mm": 0.0,
      "humidity_avg": 72.3,
      "soil_moisture_avg": 0.0,
      "temperature_avg": 14.9,
      "pressure_avg": 946.7,
      "rain_mult": 0.0,
      "soil_mult": 0.8,
      "humidity_mult": 1.045,
      "raw_dynamic_score": 0.0,
      "dynamic_level": "None"
    },
    {
      "id": "27060.0",
      "name": "Espinillos (Diseminado)",
      "latitude": 40.47122142,
      "longitude": -3.530486695,
      "base_risk": 8.51,
      "rain_6h_mm": 0.0,
      "humidity_avg": 69.2,
      "soil_moisture_avg": 0.0,
      "temperature_avg": 15.8,
      "pressure_avg": 951.0,
      "rain_mult": 0.0,
      "soil_mult": 0.8,
      "humidity_mult": 1.038,
      "raw_dynamic_score": 0.0,
      "dynamic_level": "None"
    },
    {
      "id": "27840.0",
      "name": "Castellanas, Las (Diseminado)",
      "latitude": 40.63170987,
      "longitude": -3.396786174,
      "base_risk": 8.51,
      "rain_6h_mm": 0.0,
      "humidity_avg": 71.0,
      "soil_moisture_avg": 0.0,
      "temperature_avg": 14.9,
      "pressure_avg": 935.8,
      "rain_mult": 0.0,
      "soil_mult": 0.8,
      "humidity_mult": 1.042,
      "raw_dynamic_score": 0.0,
      "dynamic_level": "None"
    },
    {
      "id": "28318.0",
      "name": "Quintana",
      "latitude": 40.45772099,
      "longitude": -3.525674587,
      "base_risk": 8.63,
      "rain_6h_mm": 0.0,
      "humidity_avg": 67.0,
      "soil_moisture_avg": 0.0,
      "temperature_avg": 15.9,
      "pressure_avg": 951.3,
      "rain_mult": 0.0,
      "soil_mult": 0.8,
      "humidity_mult": 1.034,
      "raw_dynamic_score": 0.0,
      "dynamic_level": "None"
    },
    {
      "id": "28321.0",
      "name": "Viveros (Diseminado)",
      "latitude": 40.45063835,
      "longitude": -3.523578512,
      "base_risk": 8.59,
      "rain_6h_mm": 0.0,
      "humidity_avg": 67.0,
      "soil_moisture_avg": 0.0,
      "temperature_avg": 15.9,
      "pressure_avg": 951.1,
      "rain_mult": 0.0,
      "soil_mult": 0.8,
      "humidity_mult": 1.034,
      "raw_dynamic_score": 0.0,
      "dynamic_level": "None"
    },
    {
      "id": "32547.0",
      "name": "Bosque, El",
      "latitude": 40.38537243,
      "longitude": -3.94660677,
      "base_risk": 8.65,
      "rain_6h_mm": 0.0,
      "humidity_avg": 72.5,
      "soil_moisture_avg": 0.0,
      "temperature_avg": 15.1,
      "pressure_avg": 949.6,
      "rain_mult": 0.0,
      "soil_mult": 0.8,
      "humidity_mult": 1.045,
      "raw_dynamic_score": 0.0,
      "dynamic_level": "None"
    },
    {
      "id": "38622.0",
      "name": "Patones de Abajo",
      "latitude": 40.85681868,
      "longitude": -3.48442831,
      "base_risk": 9.04,
      "rain_6h_mm": 0.0,
      "humidity_avg": 76.5,
      "soil_moisture_avg": 0.0,
      "temperature_avg": 13.6,
      "pressure_avg": 934.0,
      "rain_mult": 0.0,
      "soil_mult": 0.8,
      "humidity_mult": 1.053,
      "raw_dynamic_score": 0.0,
      "dynamic_level": "None"
    },
    {
      "id": "38623.0",
      "name": "Patones de Abajo",
      "latitude": 40.85668067,
      "longitude": -3.483940056,
      "base_risk": 9.1,
      "rain_6h_mm": 0.0,
      "humidity_avg": 76.5,
      "soil_moisture_avg": 0.0,
      "temperature_avg": 13.6,
      "pressure_avg": 934.3,
      "rain_mult": 0.0,
      "soil_mult": 0.8,
      "humidity_mult": 1.053,
      "raw_dynamic_score": 0.0,
      "dynamic_level": "None"
    },
    {
      "id": "38626.0",
      "name": "Ribatejada",
      "latitude": 40.85685184,
      "longitude": -3.482945368,
      "base_risk": 9.11,
      "rain_6h_mm": 0.0,
      "humidity_avg": 76.5,
      "soil_moisture_avg": 0.0,
      "temperature_avg": 13.6,
      "pressure_avg": 934.5,
      "rain_mult": 0.0,
      "soil_mult": 0.8,
      "humidity_mult": 1.053,
      "raw_dynamic_score": 0.0,
      "dynamic_level": "None"
    },
    {
      "id": "38766.0",
      "name": "Alcobendas",
      "latitude": 40.85750645,
      "longitude": -3.483045136,
      "base_risk": 9.09,
      "rain_6h_mm": 0.0,
      "humidity_avg": 76.5,
      "soil_moisture_avg": 0.0,
      "temperature_avg": 13.6,
      "pressure_avg": 934.4,
      "rain_mult": 0.0,
      "soil_mult": 0.8,
      "humidity_mult": 1.053,
      "raw_dynamic_score": 0.0,
      "dynamic_level": "None"
    },
    {
      "id": "42803.0",
      "name": "Praonal, El (Diseminado)",
      "latitude": 40.29251969,
      "longitude": -3.676266649,
      "base_risk": 8.94,
      "rain_6h_mm": 0.0,
      "humidity_avg": 68.7,
      "soil_moisture_avg": 0.0,
      "temperature_avg": 15.6,
      "pressure_avg": 948.6,
      "rain_mult": 0.0,
      "soil_mult": 0.8,
      "humidity_mult": 1.037,
      "raw_dynamic_score": 0.0,
      "dynamic_level": "None"
    },
    {
      "id": "44863.0",
      "name": "Pozuelo de Alarcón (Diseminado)",
      "latitude": 40.53557096,
      "longitude": -3.380200601,
      "base_risk": 8.54,
      "rain_6h_mm": 0.0,
      "humidity_avg": 68.2,
      "soil_moisture_avg": 0.0,
      "temperature_avg": 15.5,
      "pressure_avg": 944.4,
      "rain_mult": 0.0,
      "soil_mult": 0.8,
      "humidity_mult": 1.036,
      "raw_dynamic_score": 0.0,
      "dynamic_level": "None"
    },
    {
      "id": "44929.0",
      "name": "Butarque (Diseminado)",
      "latitude": 40.35081749,
      "longitude": -3.741594759,
      "base_risk": 8.76,
      "rain_6h_mm": 0.0,
      "humidity_avg": 69.2,
      "soil_moisture_avg": 0.0,
      "temperature_avg": 15.3,
      "pressure_avg": 945.4,
      "rain_mult": 0.0,
      "soil_mult": 0.8,
      "humidity_mult": 1.038,
      "raw_dynamic_score": 0.0,
      "dynamic_level": "None"
    },
    {
      "id": "nan",
      "name": "Da Nang, Vietnam",
      "latitude": 16.0544,
      "longitude": 108.2022,
      "base_risk": 9.1,
      "rain_6h_mm": 2.9,
      "humidity_avg": 92.3,
      "soil_moisture_avg": 0.0,
      "temperature_avg": 25.6,
      "pressure_avg": 1012.3,
      "rain_mult": 0.029,
      "soil_mult": 0.8,
      "humidity_mult": 1.085,
      "raw_dynamic_score": 0.229,
      "dynamic_level": "Low"
    },
    {
      "id": "nan",
      "name": "Catarman, Philippines",
      "latitude": 12.4989,
      "longitude": 124.6377,
      "base_risk": 9.2,
      "rain_6h_mm": 0.4,
      "humidity_avg": 88.5,
      "soil_moisture_avg": 0.0,
      "temperature_avg": 27.2,
      "pressure_avg": 1010.0,
      "rain_mult": 0.004,
      "soil_mult": 0.8,
      "humidity_mult": 1.077,
      "raw_dynamic_score": 0.032,
      "dynamic_level": "Low"
    },
    {
      "id": "nan",
      "name": "Mawsynram, India",
      "latitude": 25.237,
      "longitude": 91.542,
      "base_risk": 8.99,
      "rain_6h_mm": 0.0,
      "humidity_avg": 78.7,
      "soil_moisture_avg": 0.0,
      "temperature_avg": 24.0,
      "pressure_avg": 926.1,
      "rain_mult": 0.0,
      "soil_mult": 0.8,
      "humidity_mult": 1.057,
      "raw_dynamic_score": 0.0,
      "dynamic_level": "None"
    },
    {
      "id": "nan",
      "name": "Cherrapunji, India",
      "latitude": 25.311,
      "longitude": 91.75,
      "base_risk": 9.29,
      "rain_6h_mm": 0.1,
      "humidity_avg": 92.3,
      "soil_moisture_avg": 0.0,
      "temperature_avg": 17.6,
      "pressure_avg": 849.7,
      "rain_mult": 0.001,
      "soil_mult": 0.8,
      "humidity_mult": 1.085,
      "raw_dynamic_score": 0.008,
      "dynamic_level": "Low"
    },
    {
      "id": "nan",
      "name": "Mumbai, India",
      "latitude": 19.056,
      "longitude": 72.878,
      "base_risk": 9.42,
      "rain_6h_mm": 2.9,
      "humidity_avg": 85.2,
      "soil_moisture_avg": 0.0,
      "temperature_avg": 27.4,
      "pressure_avg": 1006.6,
      "rain_mult": 0.029,
      "soil_mult": 0.8,
      "humidity_mult": 1.07,
      "raw_dynamic_score": 0.234,
      "dynamic_level": "Low"
    },
    {
      "id": "nan",
      "name": "Mangalore, India",
      "latitude": 12.914,
      "longitude": 74.876,
      "base_risk": 8.91,
      "rain_6h_mm": 0.4,
      "humidity_avg": 76.7,
      "soil_moisture_avg": 0.0,
      "temperature_avg": 28.4,
      "pressure_avg": 1006.2,
      "rain_mult": 0.004,
      "soil_mult": 0.8,
      "humidity_mult": 1.053,
      "raw_dynamic_score": 0.03,
      "dynamic_level": "Low"
    },
    {
      "id": "nan",
      "name": "Kochi, India",
      "latitude": 9.951,
      "longitude": 76.227,
      "base_risk": 9.23,
      "rain_6h_mm": 0.0,
      "humidity_avg": 77.3,
      "soil_moisture_avg": 0.0,
      "temperature_avg": 28.5,
      "pressure_avg": 1010.5,
      "rain_mult": 0.0,
      "soil_mult": 0.8,
      "humidity_mult": 1.055,
      "raw_dynamic_score": 0.0,
      "dynamic_level": "None"
    },
    {
      "id": "nan",
      "name": "Thiruvananthapuram, India",
      "latitude": 8.484,
      "longitude": 76.976,
      "base_risk": 9.12,
      "rain_6h_mm": 0.0,
      "humidity_avg": 74.0,
      "soil_moisture_avg": 0.0,
      "temperature_avg": 28.9,
      "pressure_avg": 1006.6,
      "rain_mult": 0.0,
      "soil_mult": 0.8,
      "humidity_mult": 1.048,
      "raw_dynamic_score": 0.0,
      "dynamic_level": "None"
    },
    {
      "id": "nan",
      "name": "Kolkata, India",
      "latitude": 22.632,
      "longitude": 88.344,
      "base_risk": 8.64,
      "rain_6h_mm": 0.0,
      "humidity_avg": 78.7,
      "soil_moisture_avg": 0.0,
      "temperature_avg": 28.9,
      "pressure_avg": 1006.9,
      "rain_mult": 0.0,
      "soil_mult": 0.8,
      "humidity_mult": 1.057,
      "raw_dynamic_score": 0.0,
      "dynamic_level": "None"
    },
    {
      "id": "nan",
      "name": "Sylhet, Bangladesh",
      "latitude": 24.954,
      "longitude": 91.868,
      "base_risk": 8.76,
      "rain_6h_mm": 0.0,
      "humidity_avg": 72.7,
      "soil_moisture_avg": 0.0,
      "temperature_avg": 29.4,
      "pressure_avg": 1006.4,
      "rain_mult": 0.0,
      "soil_mult": 0.8,
      "humidity_mult": 1.045,
      "raw_dynamic_score": 0.0,
      "dynamic_level": "None"
    },
    {
      "id": "nan",
      "name": "Cox's Bazar, Bangladesh",
      "latitude": 21.447,
      "longitude": 92.019,
      "base_risk": 9.02,
      "rain_6h_mm": 0.0,
      "humidity_avg": 77.3,
      "soil_moisture_avg": 0.0,
      "temperature_avg": 29.6,
      "pressure_avg": 1008.1,
      "rain_mult": 0.0,
      "soil_mult": 0.8,
      "humidity_mult": 1.055,
      "raw_dynamic_score": 0.0,
      "dynamic_level": "None"
    },
    {
      "id": "nan",
      "name": "Yangon, Myanmar",
      "latitude": 16.866,
      "longitude": 96.235,
      "base_risk": 9.29,
      "rain_6h_mm": 0.0,
      "humidity_avg": 82.8,
      "soil_moisture_avg": 0.0,
      "temperature_avg": 29.8,
      "pressure_avg": 1007.2,
      "rain_mult": 0.0,
      "soil_mult": 0.8,
      "humidity_mult": 1.066,
      "raw_dynamic_score": 0.0,
      "dynamic_level": "None"
    },
    {
      "id": "nan",
      "name": "Dawei, Myanmar",
      "latitude": 14.062,
      "longitude": 98.214,
      "base_risk": 8.71,
      "rain_6h_mm": 10.5,
      "humidity_avg": 91.8,
      "soil_moisture_avg": 0.0,
      "temperature_avg": 26.5,
      "pressure_avg": 1008.6,
      "rain_mult": 0.105,
      "soil_mult": 0.8,
      "humidity_mult": 1.084,
      "raw_dynamic_score": 0.793,
      "dynamic_level": "Low"
    },
    {
      "id": "nan",
      "name": "Ho Chi Minh City, Vietnam",
      "latitude": 10.863,
      "longitude": 106.63,
      "base_risk": 8.63,
      "rain_6h_mm": 2.4,
      "humidity_avg": 86.7,
      "soil_moisture_avg": 0.0,
      "temperature_avg": 27.6,
      "pressure_avg": 1009.7,
      "rain_mult": 0.024,
      "soil_mult": 0.8,
      "humidity_mult": 1.073,
      "raw_dynamic_score": 0.178,
      "dynamic_level": "Low"
    },
    {
      "id": "nan",
      "name": "Hue, Vietnam",
      "latitude": 16.403,
      "longitude": 107.57,
      "base_risk": 8.92,
      "rain_6h_mm": 2.9,
      "humidity_avg": 94.8,
      "soil_moisture_avg": 0.0,
      "temperature_avg": 24.8,
      "pressure_avg": 1012.3,
      "rain_mult": 0.029,
      "soil_mult": 0.8,
      "humidity_mult": 1.09,
      "raw_dynamic_score": 0.225,
      "dynamic_level": "Low"
    },
    {
      "id": "nan",
      "name": "Da Nang, Vietnam",
      "latitude": 15.994,
      "longitude": 108.163,
      "base_risk": 9.31,
      "rain_6h_mm": 4.2,
      "humidity_avg": 94.0,
      "soil_moisture_avg": 0.0,
      "temperature_avg": 24.9,
      "pressure_avg": 1013.5,
      "rain_mult": 0.042,
      "soil_mult": 0.8,
      "humidity_mult": 1.088,
      "raw_dynamic_score": 0.34,
      "dynamic_level": "Low"
    },
    {
      "id": "nan",
      "name": "Sihanoukville, Cambodia",
      "latitude": 10.665,
      "longitude": 103.482,
      "base_risk": 9.33,
      "rain_6h_mm": 2.9,
      "humidity_avg": 84.0,
      "soil_moisture_avg": 0.0,
      "temperature_avg": 27.8,
      "pressure_avg": 1009.9,
      "rain_mult": 0.029,
      "soil_mult": 0.8,
      "humidity_mult": 1.068,
      "raw_dynamic_score": 0.231,
      "dynamic_level": "Low"
    },
    {
      "id": "nan",
      "name": "Bangkok, Thailand",
      "latitude": 13.736,
      "longitude": 100.521,
      "base_risk": 9.0,
      "rain_6h_mm": 2.4,
      "humidity_avg": 85.8,
      "soil_moisture_avg": 0.0,
      "temperature_avg": 27.3,
      "pressure_avg": 1008.5,
      "rain_mult": 0.024,
      "soil_mult": 0.8,
      "humidity_mult": 1.072,
      "raw_dynamic_score": 0.185,
      "dynamic_level": "Low"
    },
    {
      "id": "nan",
      "name": "Chiang Mai, Thailand",
      "latitude": 18.788,
      "longitude": 98.986,
      "base_risk": 8.74,
      "rain_6h_mm": 3.7,
      "humidity_avg": 81.3,
      "soil_moisture_avg": 0.0,
      "temperature_avg": 27.9,
      "pressure_avg": 975.3,
      "rain_mult": 0.037,
      "soil_mult": 0.8,
      "humidity_mult": 1.063,
      "raw_dynamic_score": 0.275,
      "dynamic_level": "Low"
    },
    {
      "id": "nan",
      "name": "Kuala Lumpur, Malaysia",
      "latitude": 3.099,
      "longitude": 101.646,
      "base_risk": 9.06,
      "rain_6h_mm": 0.0,
      "humidity_avg": 61.3,
      "soil_moisture_avg": 0.0,
      "temperature_avg": 30.4,
      "pressure_avg": 1003.6,
      "rain_mult": 0.0,
      "soil_mult": 0.8,
      "humidity_mult": 1.023,
      "raw_dynamic_score": 0.0,
      "dynamic_level": "None"
    },
    {
      "id": "nan",
      "name": "Kuching, Malaysia",
      "latitude": 1.613,
      "longitude": 110.399,
      "base_risk": 9.4,
      "rain_6h_mm": 0.0,
      "humidity_avg": 83.7,
      "soil_moisture_avg": 0.0,
      "temperature_avg": 28.2,
      "pressure_avg": 1009.3,
      "rain_mult": 0.0,
      "soil_mult": 0.8,
      "humidity_mult": 1.067,
      "raw_dynamic_score": 0.0,
      "dynamic_level": "None"
    },
    {
      "id": "nan",
      "name": "Kota Kinabalu, Malaysia",
      "latitude": 6.04,
      "longitude": 116.053,
      "base_risk": 8.85,
      "rain_6h_mm": 2.7,
      "humidity_avg": 79.5,
      "soil_moisture_avg": 0.0,
      "temperature_avg": 29.6,
      "pressure_avg": 1011.3,
      "rain_mult": 0.027,
      "soil_mult": 0.8,
      "humidity_mult": 1.059,
      "raw_dynamic_score": 0.202,
      "dynamic_level": "Low"
    },
    {
      "id": "nan",
      "name": "Jakarta, Indonesia",
      "latitude": -6.188,
      "longitude": 106.825,
      "base_risk": 9.38,
      "rain_6h_mm": 10.0,
      "humidity_avg": 80.8,
      "soil_moisture_avg": 0.0,
      "temperature_avg": 28.1,
      "pressure_avg": 1009.8,
      "rain_mult": 0.1,
      "soil_mult": 0.8,
      "humidity_mult": 1.062,
      "raw_dynamic_score": 0.797,
      "dynamic_level": "Low"
    },
    {
      "id": "nan",
      "name": "Bogor, Indonesia",
      "latitude": -6.595,
      "longitude": 106.857,
      "base_risk": 8.54,
      "rain_6h_mm": 8.3,
      "humidity_avg": 86.7,
      "soil_moisture_avg": 0.0,
      "temperature_avg": 25.8,
      "pressure_avg": 983.1,
      "rain_mult": 0.083,
      "soil_mult": 0.8,
      "humidity_mult": 1.073,
      "raw_dynamic_score": 0.609,
      "dynamic_level": "Low"
    },
    {
      "id": "nan",
      "name": "Bandung, Indonesia",
      "latitude": -6.937,
      "longitude": 107.659,
      "base_risk": 8.55,
      "rain_6h_mm": 5.2,
      "humidity_avg": 88.0,
      "soil_moisture_avg": 0.0,
      "temperature_avg": 24.5,
      "pressure_avg": 938.1,
      "rain_mult": 0.052,
      "soil_mult": 0.8,
      "humidity_mult": 1.076,
      "raw_dynamic_score": 0.383,
      "dynamic_level": "Low"
    },
    {
      "id": "nan",
      "name": "Madang, Papua New Guinea",
      "latitude": -5.277,
      "longitude": 145.8,
      "base_risk": 8.53,
      "rain_6h_mm": 0.1,
      "humidity_avg": 93.8,
      "soil_moisture_avg": 0.0,
      "temperature_avg": 24.0,
      "pressure_avg": 1013.3,
      "rain_mult": 0.001,
      "soil_mult": 0.8,
      "humidity_mult": 1.088,
      "raw_dynamic_score": 0.007,
      "dynamic_level": "Low"
    },
    {
      "id": "nan",
      "name": "Port Moresby, Papua New Guinea",
      "latitude": -9.503,
      "longitude": 147.16,
      "base_risk": 9.01,
      "rain_6h_mm": 0.2,
      "humidity_avg": 79.0,
      "soil_moisture_avg": 0.0,
      "temperature_avg": 29.1,
      "pressure_avg": 1011.1,
      "rain_mult": 0.002,
      "soil_mult": 0.8,
      "humidity_mult": 1.058,
      "raw_dynamic_score": 0.015,
      "dynamic_level": "Low"
    },
    {
      "id": "nan",
      "name": "Honiara, Solomon Islands",
      "latitude": -9.393,
      "longitude": 159.91,
      "base_risk": 8.76,
      "rain_6h_mm": 0.0,
      "humidity_avg": 94.5,
      "soil_moisture_avg": 0.0,
      "temperature_avg": 25.4,
      "pressure_avg": 1013.6,
      "rain_mult": 0.0,
      "soil_mult": 0.8,
      "humidity_mult": 1.089,
      "raw_dynamic_score": 0.0,
      "dynamic_level": "None"
    },
    {
      "id": "nan",
      "name": "Apia, Samoa",
      "latitude": -13.833,
      "longitude": -171.73,
      "base_risk": 9.47,
      "rain_6h_mm": 0.0,
      "humidity_avg": 79.2,
      "soil_moisture_avg": 0.0,
      "temperature_avg": 28.4,
      "pressure_avg": 1013.2,
      "rain_mult": 0.0,
      "soil_mult": 0.8,
      "humidity_mult": 1.058,
      "raw_dynamic_score": 0.0,
      "dynamic_level": "None"
    },
    {
      "id": "nan",
      "name": "Palikir, Micronesia",
      "latitude": 6.937,
      "longitude": 158.15,
      "base_risk": 8.81,
      "rain_6h_mm": 0.0,
      "humidity_avg": 76.5,
      "soil_moisture_avg": 0.0,
      "temperature_avg": 28.1,
      "pressure_avg": 1005.9,
      "rain_mult": 0.0,
      "soil_mult": 0.8,
      "humidity_mult": 1.053,
      "raw_dynamic_score": 0.0,
      "dynamic_level": "None"
    },
    {
      "id": "nan",
      "name": "Pohnpei (Kolonia), Micronesia",
      "latitude": 6.924,
      "longitude": 158.229,
      "base_risk": 8.86,
      "rain_6h_mm": 0.0,
      "humidity_avg": 78.5,
      "soil_moisture_avg": 0.0,
      "temperature_avg": 26.9,
      "pressure_avg": 1002.2,
      "rain_mult": 0.0,
      "soil_mult": 0.8,
      "humidity_mult": 1.057,
      "raw_dynamic_score": 0.0,
      "dynamic_level": "None"
    },
    {
      "id": "nan",
      "name": "Cairns, Australia",
      "latitude": -16.86,
      "longitude": 145.81,
      "base_risk": 9.21,
      "rain_6h_mm": 0.0,
      "humidity_avg": 93.7,
      "soil_moisture_avg": 0.0,
      "temperature_avg": 26.2,
      "pressure_avg": 1015.7,
      "rain_mult": 0.0,
      "soil_mult": 0.8,
      "humidity_mult": 1.087,
      "raw_dynamic_score": 0.0,
      "dynamic_level": "None"
    },
    {
      "id": "nan",
      "name": "Innisfail, Australia",
      "latitude": -17.565,
      "longitude": 146.01,
      "base_risk": 8.63,
      "rain_6h_mm": 0.0,
      "humidity_avg": 98.7,
      "soil_moisture_avg": 0.0,
      "temperature_avg": 24.3,
      "pressure_avg": 1014.6,
      "rain_mult": 0.0,
      "soil_mult": 0.8,
      "humidity_mult": 1.097,
      "raw_dynamic_score": 0.0,
      "dynamic_level": "None"
    },
    {
      "id": "nan",
      "name": "Tully, Australia",
      "latitude": -17.912,
      "longitude": 145.922,
      "base_risk": 8.73,
      "rain_6h_mm": 0.0,
      "humidity_avg": 97.5,
      "soil_moisture_avg": 0.0,
      "temperature_avg": 23.6,
      "pressure_avg": 1009.5,
      "rain_mult": 0.0,
      "soil_mult": 0.8,
      "humidity_mult": 1.095,
      "raw_dynamic_score": 0.0,
      "dynamic_level": "None"
    },
    {
      "id": "nan",
      "name": "Hilo, Hawaii, USA",
      "latitude": 19.687,
      "longitude": -155.041,
      "base_risk": 8.62,
      "rain_6h_mm": 0.0,
      "humidity_avg": 86.8,
      "soil_moisture_avg": 0.0,
      "temperature_avg": 16.5,
      "pressure_avg": 1016.5,
      "rain_mult": 0.0,
      "soil_mult": 0.8,
      "humidity_mult": 1.074,
      "raw_dynamic_score": 0.0,
      "dynamic_level": "None"
    },
    {
      "id": "nan",
      "name": "Mount Waialeale (Kaua‘i), USA",
      "latitude": 22.104,
      "longitude": -159.458,
      "base_risk": 9.24,
      "rain_6h_mm": 0.0,
      "humidity_avg": 79.0,
      "soil_moisture_avg": 0.0,
      "temperature_avg": 21.8,
      "pressure_avg": 965.4,
      "rain_mult": 0.0,
      "soil_mult": 0.8,
      "humidity_mult": 1.058,
      "raw_dynamic_score": 0.0,
      "dynamic_level": "None"
    },
    {
      "id": "nan",
      "name": "Prince Rupert, Canada",
      "latitude": 54.255,
      "longitude": -130.3,
      "base_risk": 8.51,
      "rain_6h_mm": 18.7,
      "humidity_avg": 84.0,
      "soil_moisture_avg": 0.0,
      "temperature_avg": 10.6,
      "pressure_avg": 986.1,
      "rain_mult": 0.187,
      "soil_mult": 0.8,
      "humidity_mult": 1.068,
      "raw_dynamic_score": 1.36,
      "dynamic_level": "Low"
    },
    {
      "id": "nan",
      "name": "Tofino, Canada",
      "latitude": 49.094,
      "longitude": -125.906,
      "base_risk": 9.46,
      "rain_6h_mm": 17.7,
      "humidity_avg": 84.2,
      "soil_moisture_avg": 0.0,
      "temperature_avg": 9.6,
      "pressure_avg": 1012.3,
      "rain_mult": 0.177,
      "soil_mult": 0.8,
      "humidity_mult": 1.068,
      "raw_dynamic_score": 1.431,
      "dynamic_level": "Low"
    },
    {
      "id": "nan",
      "name": "Vancouver, Canada",
      "latitude": 49.322,
      "longitude": -123.141,
      "base_risk": 9.26,
      "rain_6h_mm": 0.0,
      "humidity_avg": 49.0,
      "soil_moisture_avg": 0.0,
      "temperature_avg": 9.8,
      "pressure_avg": 1015.1,
      "rain_mult": 0.0,
      "soil_mult": 0.8,
      "humidity_mult": 0.998,
      "raw_dynamic_score": 0.0,
      "dynamic_level": "None"
    },
    {
      "id": "nan",
      "name": "Seattle, USA",
      "latitude": 47.586,
      "longitude": -122.372,
      "base_risk": 9.43,
      "rain_6h_mm": 0.0,
      "humidity_avg": 83.7,
      "soil_moisture_avg": 0.0,
      "temperature_avg": 6.0,
      "pressure_avg": 1017.9,
      "rain_mult": 0.0,
      "soil_mult": 0.8,
      "humidity_mult": 1.067,
      "raw_dynamic_score": 0.0,
      "dynamic_level": "None"
    },
    {
      "id": "nan",
      "name": "Forks, USA",
      "latitude": 47.95,
      "longitude": -124.425,
      "base_risk": 9.04,
      "rain_6h_mm": 0.0,
      "humidity_avg": 71.0,
      "soil_moisture_avg": 0.0,
      "temperature_avg": 6.9,
      "pressure_avg": 1005.3,
      "rain_mult": 0.0,
      "soil_mult": 0.8,
      "humidity_mult": 1.042,
      "raw_dynamic_score": 0.0,
      "dynamic_level": "None"
    },
    {
      "id": "nan",
      "name": "Juneau, USA",
      "latitude": 58.261,
      "longitude": -134.42,
      "base_risk": 8.57,
      "rain_6h_mm": 9.7,
      "humidity_avg": 87.8,
      "soil_moisture_avg": 0.0,
      "temperature_avg": 1.2,
      "pressure_avg": 919.4,
      "rain_mult": 0.097,
      "soil_mult": 0.8,
      "humidity_mult": 1.076,
      "raw_dynamic_score": 0.715,
      "dynamic_level": "Low"
    },
    {
      "id": "nan",
      "name": "Sitka, USA",
      "latitude": 57.113,
      "longitude": -135.31,
      "base_risk": 8.8,
      "rain_6h_mm": 9.8,
      "humidity_avg": 78.7,
      "soil_moisture_avg": 0.0,
      "temperature_avg": 6.2,
      "pressure_avg": 928.9,
      "rain_mult": 0.098,
      "soil_mult": 0.8,
      "humidity_mult": 1.057,
      "raw_dynamic_score": 0.729,
      "dynamic_level": "Low"
    },
    {
      "id": "nan",
      "name": "Tapachula, Mexico",
      "latitude": 14.963,
      "longitude": -92.297,
      "base_risk": 9.46,
      "rain_6h_mm": 0.0,
      "humidity_avg": 88.8,
      "soil_moisture_avg": 0.0,
      "temperature_avg": 24.8,
      "pressure_avg": 983.3,
      "rain_mult": 0.0,
      "soil_mult": 0.8,
      "humidity_mult": 1.078,
      "raw_dynamic_score": 0.0,
      "dynamic_level": "None"
    },
    {
      "id": "nan",
      "name": "Villahermosa, Mexico",
      "latitude": 17.949,
      "longitude": -92.888,
      "base_risk": 8.61,
      "rain_6h_mm": 0.0,
      "humidity_avg": 88.0,
      "soil_moisture_avg": 0.0,
      "temperature_avg": 22.2,
      "pressure_avg": 1016.2,
      "rain_mult": 0.0,
      "soil_mult": 0.8,
      "humidity_mult": 1.076,
      "raw_dynamic_score": 0.0,
      "dynamic_level": "None"
    },
    {
      "id": "nan",
      "name": "Xalapa, Mexico",
      "latitude": 19.543,
      "longitude": -96.91,
      "base_risk": 8.59,
      "rain_6h_mm": 0.0,
      "humidity_avg": 74.7,
      "soil_moisture_avg": 0.0,
      "temperature_avg": 10.1,
      "pressure_avg": 857.8,
      "rain_mult": 0.0,
      "soil_mult": 0.8,
      "humidity_mult": 1.049,
      "raw_dynamic_score": 0.0,
      "dynamic_level": "None"
    },
    {
      "id": "nan",
      "name": "Bluefields, Nicaragua",
      "latitude": 11.986,
      "longitude": -83.784,
      "base_risk": 8.55,
      "rain_6h_mm": 0.0,
      "humidity_avg": 87.2,
      "soil_moisture_avg": 0.0,
      "temperature_avg": 24.5,
      "pressure_avg": 1012.4,
      "rain_mult": 0.0,
      "soil_mult": 0.8,
      "humidity_mult": 1.074,
      "raw_dynamic_score": 0.0,
      "dynamic_level": "None"
    },
    {
      "id": "nan",
      "name": "La Ceiba, Honduras",
      "latitude": 15.812,
      "longitude": -86.752,
      "base_risk": 9.22,
      "rain_6h_mm": 0.0,
      "humidity_avg": 83.0,
      "soil_moisture_avg": 0.0,
      "temperature_avg": 26.2,
      "pressure_avg": 1016.5,
      "rain_mult": 0.0,
      "soil_mult": 0.8,
      "humidity_mult": 1.066,
      "raw_dynamic_score": 0.0,
      "dynamic_level": "None"
    },
    {
      "id": "nan",
      "name": "Colón, Panama",
      "latitude": 9.299,
      "longitude": -79.861,
      "base_risk": 8.88,
      "rain_6h_mm": 14.3,
      "humidity_avg": 93.3,
      "soil_moisture_avg": 0.0,
      "temperature_avg": 25.8,
      "pressure_avg": 1009.0,
      "rain_mult": 0.143,
      "soil_mult": 0.8,
      "humidity_mult": 1.087,
      "raw_dynamic_score": 1.104,
      "dynamic_level": "Low"
    },
    {
      "id": "nan",
      "name": "Panama City, Panama",
      "latitude": 8.922,
      "longitude": -79.5,
      "base_risk": 8.72,
      "rain_6h_mm": 1.6,
      "humidity_avg": 92.5,
      "soil_moisture_avg": 0.0,
      "temperature_avg": 25.7,
      "pressure_avg": 1011.9,
      "rain_mult": 0.016,
      "soil_mult": 0.8,
      "humidity_mult": 1.085,
      "raw_dynamic_score": 0.121,
      "dynamic_level": "Low"
    },
    {
      "id": "nan",
      "name": "Bocas del Toro, Panama",
      "latitude": 9.315,
      "longitude": -82.265,
      "base_risk": 9.05,
      "rain_6h_mm": 1.3,
      "humidity_avg": 92.5,
      "soil_moisture_avg": 0.0,
      "temperature_avg": 25.5,
      "pressure_avg": 1012.7,
      "rain_mult": 0.013,
      "soil_mult": 0.8,
      "humidity_mult": 1.085,
      "raw_dynamic_score": 0.102,
      "dynamic_level": "Low"
    },
    {
      "id": "nan",
      "name": "Puerto Barrios, Guatemala",
      "latitude": 15.733,
      "longitude": -88.64,
      "base_risk": 9.35,
      "rain_6h_mm": 0.0,
      "humidity_avg": 88.3,
      "soil_moisture_avg": 0.0,
      "temperature_avg": 22.5,
      "pressure_avg": 1016.3,
      "rain_mult": 0.0,
      "soil_mult": 0.8,
      "humidity_mult": 1.077,
      "raw_dynamic_score": 0.0,
      "dynamic_level": "None"
    },
    {
      "id": "nan",
      "name": "San Juan, Puerto Rico",
      "latitude": 18.486,
      "longitude": -66.146,
      "base_risk": 9.05,
      "rain_6h_mm": 0.0,
      "humidity_avg": 77.3,
      "soil_moisture_avg": 0.0,
      "temperature_avg": 28.1,
      "pressure_avg": 1014.9,
      "rain_mult": 0.0,
      "soil_mult": 0.8,
      "humidity_mult": 1.055,
      "raw_dynamic_score": 0.0,
      "dynamic_level": "None"
    },
    {
      "id": "nan",
      "name": "Fort-de-France, Martinique",
      "latitude": 14.676,
      "longitude": -61.058,
      "base_risk": 9.04,
      "rain_6h_mm": 0.1,
      "humidity_avg": 76.3,
      "soil_moisture_avg": 0.0,
      "temperature_avg": 26.2,
      "pressure_avg": 974.1,
      "rain_mult": 0.001,
      "soil_mult": 0.8,
      "humidity_mult": 1.053,
      "raw_dynamic_score": 0.008,
      "dynamic_level": "Low"
    },
    {
      "id": "nan",
      "name": "Roseau, Dominica",
      "latitude": 15.361,
      "longitude": -61.368,
      "base_risk": 8.91,
      "rain_6h_mm": 2.4,
      "humidity_avg": 75.8,
      "soil_moisture_avg": 0.0,
      "temperature_avg": 24.8,
      "pressure_avg": 949.4,
      "rain_mult": 0.024,
      "soil_mult": 0.8,
      "humidity_mult": 1.052,
      "raw_dynamic_score": 0.18,
      "dynamic_level": "Low"
    },
    {
      "id": "nan",
      "name": "Port of Spain, Trinidad and Tobago",
      "latitude": 10.621,
      "longitude": -61.558,
      "base_risk": 9.05,
      "rain_6h_mm": 3.6,
      "humidity_avg": 82.3,
      "soil_moisture_avg": 0.0,
      "temperature_avg": 28.1,
      "pressure_avg": 1013.6,
      "rain_mult": 0.036,
      "soil_mult": 0.8,
      "humidity_mult": 1.065,
      "raw_dynamic_score": 0.277,
      "dynamic_level": "Low"
    },
    {
      "id": "nan",
      "name": "Paramaribo, Suriname",
      "latitude": 5.852,
      "longitude": -55.223,
      "base_risk": 8.96,
      "rain_6h_mm": 0.0,
      "humidity_avg": 76.2,
      "soil_moisture_avg": 0.0,
      "temperature_avg": 28.0,
      "pressure_avg": 1011.6,
      "rain_mult": 0.0,
      "soil_mult": 0.8,
      "humidity_mult": 1.052,
      "raw_dynamic_score": 0.0,
      "dynamic_level": "None"
    },
    {
      "id": "nan",
      "name": "Quibdó, Colombia",
      "latitude": 5.672,
      "longitude": -76.654,
      "base_risk": 9.42,
      "rain_6h_mm": 1.4,
      "humidity_avg": 92.5,
      "soil_moisture_avg": 0.0,
      "temperature_avg": 25.5,
      "pressure_avg": 1006.6,
      "rain_mult": 0.014,
      "soil_mult": 0.8,
      "humidity_mult": 1.085,
      "raw_dynamic_score": 0.114,
      "dynamic_level": "Low"
    },
    {
      "id": "nan",
      "name": "Buenaventura, Colombia",
      "latitude": 3.917,
      "longitude": -77.048,
      "base_risk": 8.69,
      "rain_6h_mm": 3.8,
      "humidity_avg": 91.0,
      "soil_moisture_avg": 0.0,
      "temperature_avg": 25.7,
      "pressure_avg": 1009.9,
      "rain_mult": 0.038,
      "soil_mult": 0.8,
      "humidity_mult": 1.082,
      "raw_dynamic_score": 0.286,
      "dynamic_level": "Low"
    },
    {
      "id": "nan",
      "name": "Leticia, Colombia",
      "latitude": -4.275,
      "longitude": -69.899,
      "base_risk": 8.79,
      "rain_6h_mm": 0.3,
      "humidity_avg": 92.8,
      "soil_moisture_avg": 0.0,
      "temperature_avg": 25.3,
      "pressure_avg": 1004.8,
      "rain_mult": 0.003,
      "soil_mult": 0.8,
      "humidity_mult": 1.086,
      "raw_dynamic_score": 0.023,
      "dynamic_level": "Low"
    },
    {
      "id": "nan",
      "name": "Iquitos, Peru",
      "latitude": -3.703,
      "longitude": -73.231,
      "base_risk": 9.22,
      "rain_6h_mm": 0.6,
      "humidity_avg": 90.3,
      "soil_moisture_avg": 0.0,
      "temperature_avg": 25.2,
      "pressure_avg": 1004.9,
      "rain_mult": 0.006,
      "soil_mult": 0.8,
      "humidity_mult": 1.081,
      "raw_dynamic_score": 0.048,
      "dynamic_level": "Low"
    },
    {
      "id": "nan",
      "name": "Pucallpa, Peru",
      "latitude": -8.399,
      "longitude": -74.553,
      "base_risk": 9.46,
      "rain_6h_mm": 4.4,
      "humidity_avg": 90.5,
      "soil_moisture_avg": 0.0,
      "temperature_avg": 24.2,
      "pressure_avg": 996.8,
      "rain_mult": 0.044,
      "soil_mult": 0.8,
      "humidity_mult": 1.081,
      "raw_dynamic_score": 0.36,
      "dynamic_level": "Low"
    },
    {
      "id": "nan",
      "name": "Belém, Brazil",
      "latitude": -1.435,
      "longitude": -48.543,
      "base_risk": 8.88,
      "rain_6h_mm": 0.0,
      "humidity_avg": 78.7,
      "soil_moisture_avg": 0.0,
      "temperature_avg": 27.7,
      "pressure_avg": 1011.1,
      "rain_mult": 0.0,
      "soil_mult": 0.8,
      "humidity_mult": 1.057,
      "raw_dynamic_score": 0.0,
      "dynamic_level": "None"
    },
    {
      "id": "nan",
      "name": "Macapá, Brazil",
      "latitude": -0.006,
      "longitude": -51.11,
      "base_risk": 8.67,
      "rain_6h_mm": 0.0,
      "humidity_avg": 71.3,
      "soil_moisture_avg": 0.0,
      "temperature_avg": 29.0,
      "pressure_avg": 1013.0,
      "rain_mult": 0.0,
      "soil_mult": 0.8,
      "humidity_mult": 1.043,
      "raw_dynamic_score": 0.0,
      "dynamic_level": "None"
    },
    {
      "id": "nan",
      "name": "São Luís, Brazil",
      "latitude": -2.469,
      "longitude": -44.282,
      "base_risk": 9.39,
      "rain_6h_mm": 0.0,
      "humidity_avg": 69.8,
      "soil_moisture_avg": 0.0,
      "temperature_avg": 28.7,
      "pressure_avg": 1013.1,
      "rain_mult": 0.0,
      "soil_mult": 0.8,
      "humidity_mult": 1.04,
      "raw_dynamic_score": 0.0,
      "dynamic_level": "None"
    },
    {
      "id": "nan",
      "name": "Recife, Brazil",
      "latitude": -8.087,
      "longitude": -34.857,
      "base_risk": 9.11,
      "rain_6h_mm": 0.0,
      "humidity_avg": 61.7,
      "soil_moisture_avg": 0.0,
      "temperature_avg": 28.0,
      "pressure_avg": 1015.5,
      "rain_mult": 0.0,
      "soil_mult": 0.8,
      "humidity_mult": 1.023,
      "raw_dynamic_score": 0.0,
      "dynamic_level": "None"
    },
    {
      "id": "nan",
      "name": "Salvador, Brazil",
      "latitude": -12.957,
      "longitude": -38.541,
      "base_risk": 9.43,
      "rain_6h_mm": 0.8,
      "humidity_avg": 72.7,
      "soil_moisture_avg": 0.0,
      "temperature_avg": 26.4,
      "pressure_avg": 1016.4,
      "rain_mult": 0.008,
      "soil_mult": 0.8,
      "humidity_mult": 1.045,
      "raw_dynamic_score": 0.063,
      "dynamic_level": "Low"
    },
    {
      "id": "nan",
      "name": "São Tomé, São Tomé and Príncipe",
      "latitude": 0.336,
      "longitude": 6.77,
      "base_risk": 9.38,
      "rain_6h_mm": 2.0,
      "humidity_avg": 72.8,
      "soil_moisture_avg": 0.0,
      "temperature_avg": 28.7,
      "pressure_avg": 1013.2,
      "rain_mult": 0.02,
      "soil_mult": 0.8,
      "humidity_mult": 1.046,
      "raw_dynamic_score": 0.157,
      "dynamic_level": "Low"
    },
    {
      "id": "nan",
      "name": "Douala, Cameroon",
      "latitude": 4.091,
      "longitude": 9.768,
      "base_risk": 8.77,
      "rain_6h_mm": 3.4,
      "humidity_avg": 82.2,
      "soil_moisture_avg": 0.0,
      "temperature_avg": 27.5,
      "pressure_avg": 1007.9,
      "rain_mult": 0.034,
      "soil_mult": 0.8,
      "humidity_mult": 1.064,
      "raw_dynamic_score": 0.254,
      "dynamic_level": "Low"
    },
    {
      "id": "nan",
      "name": "Limbe, Cameroon",
      "latitude": 3.964,
      "longitude": 9.188,
      "base_risk": 9.01,
      "rain_6h_mm": 3.3,
      "humidity_avg": 84.5,
      "soil_moisture_avg": 0.0,
      "temperature_avg": 27.3,
      "pressure_avg": 1012.8,
      "rain_mult": 0.033,
      "soil_mult": 0.8,
      "humidity_mult": 1.069,
      "raw_dynamic_score": 0.254,
      "dynamic_level": "Low"
    },
    {
      "id": "nan",
      "name": "Bata, Equatorial Guinea",
      "latitude": 1.803,
      "longitude": 9.805,
      "base_risk": 9.19,
      "rain_6h_mm": 7.0,
      "humidity_avg": 81.3,
      "soil_moisture_avg": 0.0,
      "temperature_avg": 29.8,
      "pressure_avg": 1010.4,
      "rain_mult": 0.07,
      "soil_mult": 0.8,
      "humidity_mult": 1.063,
      "raw_dynamic_score": 0.547,
      "dynamic_level": "Low"
    },
    {
      "id": "nan",
      "name": "Malabo, Equatorial Guinea",
      "latitude": 3.79,
      "longitude": 8.823,
      "base_risk": 8.6,
      "rain_6h_mm": 0.4,
      "humidity_avg": 83.7,
      "soil_moisture_avg": 0.0,
      "temperature_avg": 27.3,
      "pressure_avg": 1012.4,
      "rain_mult": 0.004,
      "soil_mult": 0.8,
      "humidity_mult": 1.067,
      "raw_dynamic_score": 0.029,
      "dynamic_level": "Low"
    },
    {
      "id": "nan",
      "name": "Monrovia, Liberia",
      "latitude": 6.295,
      "longitude": -10.787,
      "base_risk": 9.28,
      "rain_6h_mm": 0.1,
      "humidity_avg": 82.5,
      "soil_moisture_avg": 0.0,
      "temperature_avg": 27.2,
      "pressure_avg": 1012.0,
      "rain_mult": 0.001,
      "soil_mult": 0.8,
      "humidity_mult": 1.065,
      "raw_dynamic_score": 0.008,
      "dynamic_level": "Low"
    },
    {
      "id": "nan",
      "name": "Freetown, Sierra Leone",
      "latitude": 8.465,
      "longitude": -13.231,
      "base_risk": 9.41,
      "rain_6h_mm": 1.8,
      "humidity_avg": 80.3,
      "soil_moisture_avg": 0.0,
      "temperature_avg": 27.4,
      "pressure_avg": 1000.1,
      "rain_mult": 0.018,
      "soil_mult": 0.8,
      "humidity_mult": 1.061,
      "raw_dynamic_score": 0.144,
      "dynamic_level": "Low"
    },
    {
      "id": "nan",
      "name": "Abidjan, Côte d’Ivoire",
      "latitude": 5.365,
      "longitude": -4.044,
      "base_risk": 8.57,
      "rain_6h_mm": 1.0,
      "humidity_avg": 80.5,
      "soil_moisture_avg": 0.0,
      "temperature_avg": 27.9,
      "pressure_avg": 1008.5,
      "rain_mult": 0.01,
      "soil_mult": 0.8,
      "humidity_mult": 1.061,
      "raw_dynamic_score": 0.073,
      "dynamic_level": "Low"
    },
    {
      "id": "nan",
      "name": "Port Harcourt, Nigeria",
      "latitude": 4.875,
      "longitude": 7.009,
      "base_risk": 9.25,
      "rain_6h_mm": 1.5,
      "humidity_avg": 73.2,
      "soil_moisture_avg": 0.0,
      "temperature_avg": 29.9,
      "pressure_avg": 1010.5,
      "rain_mult": 0.015,
      "soil_mult": 0.8,
      "humidity_mult": 1.046,
      "raw_dynamic_score": 0.116,
      "dynamic_level": "Low"
    },
    {
      "id": "nan",
      "name": "Calabar, Nigeria",
      "latitude": 5.018,
      "longitude": 8.346,
      "base_risk": 9.42,
      "rain_6h_mm": 2.4,
      "humidity_avg": 78.8,
      "soil_moisture_avg": 0.0,
      "temperature_avg": 28.8,
      "pressure_avg": 1007.3,
      "rain_mult": 0.024,
      "soil_mult": 0.8,
      "humidity_mult": 1.058,
      "raw_dynamic_score": 0.191,
      "dynamic_level": "Low"
    },
    {
      "id": "nan",
      "name": "Kampala, Uganda",
      "latitude": 0.367,
      "longitude": 32.602,
      "base_risk": 9.2,
      "rain_6h_mm": 0.1,
      "humidity_avg": 74.0,
      "soil_moisture_avg": 0.0,
      "temperature_avg": 23.2,
      "pressure_avg": 883.3,
      "rain_mult": 0.001,
      "soil_mult": 0.8,
      "humidity_mult": 1.048,
      "raw_dynamic_score": 0.008,
      "dynamic_level": "Low"
    },
    {
      "id": "nan",
      "name": "Goma, DR Congo",
      "latitude": -1.679,
      "longitude": 29.182,
      "base_risk": 9.24,
      "rain_6h_mm": 4.7,
      "humidity_avg": 84.7,
      "soil_moisture_avg": 0.0,
      "temperature_avg": 16.8,
      "pressure_avg": 857.4,
      "rain_mult": 0.047,
      "soil_mult": 0.8,
      "humidity_mult": 1.069,
      "raw_dynamic_score": 0.372,
      "dynamic_level": "Low"
    },
    {
      "id": "nan",
      "name": "Bujumbura, Burundi",
      "latitude": -3.381,
      "longitude": 29.399,
      "base_risk": 9.31,
      "rain_6h_mm": 0.1,
      "humidity_avg": 71.7,
      "soil_moisture_avg": 0.0,
      "temperature_avg": 26.3,
      "pressure_avg": 908.8,
      "rain_mult": 0.001,
      "soil_mult": 0.8,
      "humidity_mult": 1.043,
      "raw_dynamic_score": 0.008,
      "dynamic_level": "Low"
    },
    {
      "id": "nan",
      "name": "Toamasina, Madagascar",
      "latitude": -18.109,
      "longitude": 49.382,
      "base_risk": 8.54,
      "rain_6h_mm": 0.0,
      "humidity_avg": 66.5,
      "soil_moisture_avg": 0.0,
      "temperature_avg": 26.2,
      "pressure_avg": 1017.7,
      "rain_mult": 0.0,
      "soil_mult": 0.8,
      "humidity_mult": 1.033,
      "raw_dynamic_score": 0.0,
      "dynamic_level": "None"
    },
    {
      "id": "nan",
      "name": "Antalaha, Madagascar",
      "latitude": -14.96,
      "longitude": 50.28,
      "base_risk": 9.04,
      "rain_6h_mm": 0.0,
      "humidity_avg": 56.2,
      "soil_moisture_avg": 0.0,
      "temperature_avg": 28.3,
      "pressure_avg": 1006.1,
      "rain_mult": 0.0,
      "soil_mult": 0.8,
      "humidity_mult": 1.012,
      "raw_dynamic_score": 0.0,
      "dynamic_level": "None"
    },
    {
      "id": "nan",
      "name": "Moroni, Comoros",
      "latitude": -11.763,
      "longitude": 43.235,
      "base_risk": 9.24,
      "rain_6h_mm": 1.3,
      "humidity_avg": 72.0,
      "soil_moisture_avg": 0.0,
      "temperature_avg": 27.8,
      "pressure_avg": 1014.8,
      "rain_mult": 0.013,
      "soil_mult": 0.8,
      "humidity_mult": 1.044,
      "raw_dynamic_score": 0.1,
      "dynamic_level": "Low"
    },
    {
      "id": "nan",
      "name": "Victoria, Seychelles",
      "latitude": -4.583,
      "longitude": 55.494,
      "base_risk": 8.82,
      "rain_6h_mm": 0.1,
      "humidity_avg": 73.7,
      "soil_moisture_avg": 0.0,
      "temperature_avg": 27.8,
      "pressure_avg": 1011.4,
      "rain_mult": 0.001,
      "soil_mult": 0.8,
      "humidity_mult": 1.047,
      "raw_dynamic_score": 0.007,
      "dynamic_level": "Low"
    },
    {
      "id": "nan",
      "name": "Saint-Denis, Réunion",
      "latitude": -20.898,
      "longitude": 55.488,
      "base_risk": 9.15,
      "rain_6h_mm": 0.1,
      "humidity_avg": 77.5,
      "soil_moisture_avg": 0.0,
      "temperature_avg": 24.3,
      "pressure_avg": 1015.2,
      "rain_mult": 0.001,
      "soil_mult": 0.8,
      "humidity_mult": 1.055,
      "raw_dynamic_score": 0.008,
      "dynamic_level": "Low"
    },
    {
      "id": "nan",
      "name": "Maputo, Mozambique",
      "latitude": -25.966,
      "longitude": 32.593,
      "base_risk": 9.42,
      "rain_6h_mm": 0.0,
      "humidity_avg": 78.3,
      "soil_moisture_avg": 0.0,
      "temperature_avg": 24.1,
      "pressure_avg": 1009.7,
      "rain_mult": 0.0,
      "soil_mult": 0.8,
      "humidity_mult": 1.057,
      "raw_dynamic_score": 0.0,
      "dynamic_level": "None"
    },
    {
      "id": "nan",
      "name": "Durban, South Africa",
      "latitude": -29.838,
      "longitude": 31.021,
      "base_risk": 9.24,
      "rain_6h_mm": 0.0,
      "humidity_avg": 48.8,
      "soil_moisture_avg": 0.0,
      "temperature_avg": 30.7,
      "pressure_avg": 1006.9,
      "rain_mult": 0.0,
      "soil_mult": 0.8,
      "humidity_mult": 0.998,
      "raw_dynamic_score": 0.0,
      "dynamic_level": "None"
    },
    {
      "id": "nan",
      "name": "Richards Bay, South Africa",
      "latitude": -28.823,
      "longitude": 32.018,
      "base_risk": 8.56,
      "rain_6h_mm": 0.0,
      "humidity_avg": 47.8,
      "soil_moisture_avg": 0.0,
      "temperature_avg": 29.5,
      "pressure_avg": 1011.8,
      "rain_mult": 0.0,
      "soil_mult": 0.8,
      "humidity_mult": 0.996,
      "raw_dynamic_score": 0.0,
      "dynamic_level": "None"
    },
    {
      "id": "nan",
      "name": "Bergen, Norway",
      "latitude": 60.452,
      "longitude": 5.284,
      "base_risk": 9.31,
      "rain_6h_mm": 0.1,
      "humidity_avg": 49.5,
      "soil_moisture_avg": 0.474,
      "temperature_avg": 8.5,
      "pressure_avg": 1005.7,
      "rain_mult": 0.001,
      "soil_mult": 1.274,
      "humidity_mult": 0.999,
      "raw_dynamic_score": 0.012,
      "dynamic_level": "Low"
    },
    {
      "id": "nan",
      "name": "Cork, Ireland",
      "latitude": 51.958,
      "longitude": -8.515,
      "base_risk": 8.96,
      "rain_6h_mm": 0.3,
      "humidity_avg": 87.2,
      "soil_moisture_avg": 0.706,
      "temperature_avg": 11.8,
      "pressure_avg": 971.6,
      "rain_mult": 0.003,
      "soil_mult": 1.506,
      "humidity_mult": 1.074,
      "raw_dynamic_score": 0.044,
      "dynamic_level": "Low"
    },
    {
      "id": "nan",
      "name": "Glasgow, Scotland",
      "latitude": 55.824,
      "longitude": -4.232,
      "base_risk": 8.91,
      "rain_6h_mm": 1.0,
      "humidity_avg": 80.3,
      "soil_moisture_avg": 0.793,
      "temperature_avg": 13.0,
      "pressure_avg": 985.7,
      "rain_mult": 0.01,
      "soil_mult": 1.593,
      "humidity_mult": 1.061,
      "raw_dynamic_score": 0.151,
      "dynamic_level": "Low"
    },
    {
      "id": "nan",
      "name": "Bilbao, Spain",
      "latitude": 43.283,
      "longitude": -2.935,
      "base_risk": 9.49,
      "rain_6h_mm": 0.0,
      "humidity_avg": 43.2,
      "soil_moisture_avg": 0.0,
      "temperature_avg": 21.7,
      "pressure_avg": 995.7,
      "rain_mult": 0.0,
      "soil_mult": 0.8,
      "humidity_mult": 0.986,
      "raw_dynamic_score": 0.0,
      "dynamic_level": "None"
    },
    {
      "id": "nan",
      "name": "Brest, France",
      "latitude": 48.39,
      "longitude": -4.466,
      "base_risk": 8.9,
      "rain_6h_mm": 0.6,
      "humidity_avg": 83.8,
      "soil_moisture_avg": 0.0,
      "temperature_avg": 16.1,
      "pressure_avg": 992.4,
      "rain_mult": 0.006,
      "soil_mult": 0.8,
      "humidity_mult": 1.068,
      "raw_dynamic_score": 0.046,
      "dynamic_level": "Low"
    },
    {
      "id": "nan",
      "name": "Keelung, Taiwan",
      "latitude": 25.108,
      "longitude": 121.7,
      "base_risk": 9.18,
      "rain_6h_mm": 1.2,
      "humidity_avg": 83.3,
      "soil_moisture_avg": 0.0,
      "temperature_avg": 21.5,
      "pressure_avg": 996.6,
      "rain_mult": 0.012,
      "soil_mult": 0.8,
      "humidity_mult": 1.067,
      "raw_dynamic_score": 0.094,
      "dynamic_level": "Low"
    },
    {
      "id": "nan",
      "name": "Taipei, Taiwan",
      "latitude": 25.074,
      "longitude": 121.604,
      "base_risk": 9.37,
      "rain_6h_mm": 0.5,
      "humidity_avg": 80.2,
      "soil_moisture_avg": 0.0,
      "temperature_avg": 21.8,
      "pressure_avg": 1014.9,
      "rain_mult": 0.005,
      "soil_mult": 0.8,
      "humidity_mult": 1.06,
      "raw_dynamic_score": 0.04,
      "dynamic_level": "Low"
    },
    {
      "id": "nan",
      "name": "Kagoshima, Japan",
      "latitude": 31.539,
      "longitude": 130.537,
      "base_risk": 9.19,
      "rain_6h_mm": 0.0,
      "humidity_avg": 83.2,
      "soil_moisture_avg": 0.0,
      "temperature_avg": 17.8,
      "pressure_avg": 1011.8,
      "rain_mult": 0.0,
      "soil_mult": 0.8,
      "humidity_mult": 1.066,
      "raw_dynamic_score": 0.0,
      "dynamic_level": "None"
    },
    {
      "id": "nan",
      "name": "Kōchi, Japan",
      "latitude": 33.499,
      "longitude": 133.531,
      "base_risk": 8.53,
      "rain_6h_mm": 0.0,
      "humidity_avg": 81.0,
      "soil_moisture_avg": 0.0,
      "temperature_avg": 13.2,
      "pressure_avg": 1005.0,
      "rain_mult": 0.0,
      "soil_mult": 0.8,
      "humidity_mult": 1.062,
      "raw_dynamic_score": 0.0,
      "dynamic_level": "None"
    },
    {
      "id": "nan",
      "name": "Yakushima (Miyanoura), Japan",
      "latitude": 30.427,
      "longitude": 130.631,
      "base_risk": 8.55,
      "rain_6h_mm": 0.0,
      "humidity_avg": 71.5,
      "soil_moisture_avg": 0.0,
      "temperature_avg": 22.2,
      "pressure_avg": 1012.0,
      "rain_mult": 0.0,
      "soil_mult": 0.8,
      "humidity_mult": 1.043,
      "raw_dynamic_score": 0.0,
      "dynamic_level": "None"
    },
    {
      "id": "nan",
      "name": "Salalah, Oman",
      "latitude": 17.019,
      "longitude": 54.132,
      "base_risk": 9.24,
      "rain_6h_mm": 0.0,
      "humidity_avg": 37.8,
      "soil_moisture_avg": 0.0,
      "temperature_avg": 32.0,
      "pressure_avg": 1009.7,
      "rain_mult": 0.0,
      "soil_mult": 0.8,
      "humidity_mult": 0.976,
      "raw_dynamic_score": 0.0,
      "dynamic_level": "None"
    },
    {
      "id": "nan",
      "name": "Mawsynram, India",
      "latitude": 25.317,
      "longitude": 91.602,
      "base_risk": 9.46,
      "rain_6h_mm": 0.0,
      "humidity_avg": 90.7,
      "soil_moisture_avg": 0.0,
      "temperature_avg": 16.8,
      "pressure_avg": 841.4,
      "rain_mult": 0.0,
      "soil_mult": 0.8,
      "humidity_mult": 1.081,
      "raw_dynamic_score": 0.0,
      "dynamic_level": "None"
    },
    {
      "id": "nan",
      "name": "Cherrapunji, India",
      "latitude": 25.231,
      "longitude": 91.73,
      "base_risk": 9.05,
      "rain_6h_mm": 0.0,
      "humidity_avg": 78.0,
      "soil_moisture_avg": 0.0,
      "temperature_avg": 25.3,
      "pressure_avg": 889.5,
      "rain_mult": 0.0,
      "soil_mult": 0.8,
      "humidity_mult": 1.056,
      "raw_dynamic_score": 0.0,
      "dynamic_level": "None"
    },
    {
      "id": "nan",
      "name": "Mumbai, India",
      "latitude": 19.136,
      "longitude": 72.858,
      "base_risk": 8.65,
      "rain_6h_mm": 2.3,
      "humidity_avg": 85.5,
      "soil_moisture_avg": 0.0,
      "temperature_avg": 27.3,
      "pressure_avg": 1005.6,
      "rain_mult": 0.023,
      "soil_mult": 0.8,
      "humidity_mult": 1.071,
      "raw_dynamic_score": 0.17,
      "dynamic_level": "Low"
    },
    {
      "id": "nan",
      "name": "Mangalore, India",
      "latitude": 12.974,
      "longitude": 74.816,
      "base_risk": 9.47,
      "rain_6h_mm": 0.5,
      "humidity_avg": 79.5,
      "soil_moisture_avg": 0.0,
      "temperature_avg": 28.2,
      "pressure_avg": 1008.4,
      "rain_mult": 0.005,
      "soil_mult": 0.8,
      "humidity_mult": 1.059,
      "raw_dynamic_score": 0.04,
      "dynamic_level": "Low"
    },
    {
      "id": "nan",
      "name": "Kochi, India",
      "latitude": 9.891,
      "longitude": 76.227,
      "base_risk": 8.9,
      "rain_6h_mm": 0.0,
      "humidity_avg": 76.8,
      "soil_moisture_avg": 0.0,
      "temperature_avg": 28.6,
      "pressure_avg": 1010.6,
      "rain_mult": 0.0,
      "soil_mult": 0.8,
      "humidity_mult": 1.054,
      "raw_dynamic_score": 0.0,
      "dynamic_level": "None"
    },
    {
      "id": "nan",
      "name": "Thiruvananthapuram, India",
      "latitude": 8.544,
      "longitude": 76.956,
      "base_risk": 8.66,
      "rain_6h_mm": 0.0,
      "humidity_avg": 77.0,
      "soil_moisture_avg": 0.0,
      "temperature_avg": 28.4,
      "pressure_avg": 1006.7,
      "rain_mult": 0.0,
      "soil_mult": 0.8,
      "humidity_mult": 1.054,
      "raw_dynamic_score": 0.0,
      "dynamic_level": "None"
    },
    {
      "id": "nan",
      "name": "Kolkata, India",
      "latitude": 22.572,
      "longitude": 88.364,
      "base_risk": 8.98,
      "rain_6h_mm": 0.0,
      "humidity_avg": 77.2,
      "soil_moisture_avg": 0.0,
      "temperature_avg": 28.9,
      "pressure_avg": 1006.2,
      "rain_mult": 0.0,
      "soil_mult": 0.8,
      "humidity_mult": 1.054,
      "raw_dynamic_score": 0.0,
      "dynamic_level": "None"
    },
    {
      "id": "nan",
      "name": "Chattogram, Bangladesh",
      "latitude": 22.396,
      "longitude": 91.743,
      "base_risk": 9.25,
      "rain_6h_mm": 0.0,
      "humidity_avg": 75.2,
      "soil_moisture_avg": 0.0,
      "temperature_avg": 30.0,
      "pressure_avg": 1008.3,
      "rain_mult": 0.0,
      "soil_mult": 0.8,
      "humidity_mult": 1.05,
      "raw_dynamic_score": 0.0,
      "dynamic_level": "None"
    },
    {
      "id": "nan",
      "name": "Cox's Bazar, Bangladesh",
      "latitude": 21.367,
      "longitude": 92.019,
      "base_risk": 9.25,
      "rain_6h_mm": 0.0,
      "humidity_avg": 75.3,
      "soil_moisture_avg": 0.0,
      "temperature_avg": 30.2,
      "pressure_avg": 1002.5,
      "rain_mult": 0.0,
      "soil_mult": 0.8,
      "humidity_mult": 1.051,
      "raw_dynamic_score": 0.0,
      "dynamic_level": "None"
    },
    {
      "id": "nan",
      "name": "Yangon, Myanmar",
      "latitude": 16.806,
      "longitude": 96.175,
      "base_risk": 9.25,
      "rain_6h_mm": 0.0,
      "humidity_avg": 93.5,
      "soil_moisture_avg": 0.0,
      "temperature_avg": 27.5,
      "pressure_avg": 1006.8,
      "rain_mult": 0.0,
      "soil_mult": 0.8,
      "humidity_mult": 1.087,
      "raw_dynamic_score": 0.0,
      "dynamic_level": "None"
    },
    {
      "id": "nan",
      "name": "Ho Chi Minh City, Vietnam",
      "latitude": 10.803,
      "longitude": 106.61,
      "base_risk": 8.8,
      "rain_6h_mm": 1.5,
      "humidity_avg": 91.7,
      "soil_moisture_avg": 0.0,
      "temperature_avg": 26.4,
      "pressure_avg": 1010.3,
      "rain_mult": 0.015,
      "soil_mult": 0.8,
      "humidity_mult": 1.083,
      "raw_dynamic_score": 0.114,
      "dynamic_level": "Low"
    },
    {
      "id": "nan",
      "name": "Hue, Vietnam",
      "latitude": 16.463,
      "longitude": 107.63,
      "base_risk": 8.93,
      "rain_6h_mm": 4.6,
      "humidity_avg": 93.7,
      "soil_moisture_avg": 0.0,
      "temperature_avg": 25.7,
      "pressure_avg": 1013.0,
      "rain_mult": 0.046,
      "soil_mult": 0.8,
      "humidity_mult": 1.087,
      "raw_dynamic_score": 0.357,
      "dynamic_level": "Low"
    },
    {
      "id": "nan",
      "name": "Da Nang, Vietnam",
      "latitude": 16.074,
      "longitude": 108.243,
      "base_risk": 9.43,
      "rain_6h_mm": 2.2,
      "humidity_avg": 96.2,
      "soil_moisture_avg": 0.0,
      "temperature_avg": 23.9,
      "pressure_avg": 1013.6,
      "rain_mult": 0.022,
      "soil_mult": 0.8,
      "humidity_mult": 1.092,
      "raw_dynamic_score": 0.181,
      "dynamic_level": "Low"
    },
    {
      "id": "nan",
      "name": "Bangkok, Thailand",
      "latitude": 13.816,
      "longitude": 100.501,
      "base_risk": 8.78,
      "rain_6h_mm": 7.6,
      "humidity_avg": 90.3,
      "soil_moisture_avg": 0.0,
      "temperature_avg": 27.0,
      "pressure_avg": 1009.6,
      "rain_mult": 0.076,
      "soil_mult": 0.8,
      "humidity_mult": 1.081,
      "raw_dynamic_score": 0.577,
      "dynamic_level": "Low"
    },
    {
      "id": "nan",
      "name": "Chiang Mai, Thailand",
      "latitude": 18.848,
      "longitude": 98.966,
      "base_risk": 9.19,
      "rain_6h_mm": 6.2,
      "humidity_avg": 89.3,
      "soil_moisture_avg": 0.0,
      "temperature_avg": 23.6,
      "pressure_avg": 976.3,
      "rain_mult": 0.062,
      "soil_mult": 0.8,
      "humidity_mult": 1.079,
      "raw_dynamic_score": 0.492,
      "dynamic_level": "Low"
    },
    {
      "id": "nan",
      "name": "Vientiane, Laos",
      "latitude": 17.935,
      "longitude": 102.593,
      "base_risk": 8.55,
      "rain_6h_mm": 1.3,
      "humidity_avg": 77.5,
      "soil_moisture_avg": 0.0,
      "temperature_avg": 27.2,
      "pressure_avg": 992.6,
      "rain_mult": 0.013,
      "soil_mult": 0.8,
      "humidity_mult": 1.055,
      "raw_dynamic_score": 0.094,
      "dynamic_level": "Low"
    },
    {
      "id": "nan",
      "name": "Kuala Lumpur, Malaysia",
      "latitude": 3.159,
      "longitude": 101.646,
      "base_risk": 9.04,
      "rain_6h_mm": 0.0,
      "humidity_avg": 66.7,
      "soil_moisture_avg": 0.0,
      "temperature_avg": 29.4,
      "pressure_avg": 999.3,
      "rain_mult": 0.0,
      "soil_mult": 0.8,
      "humidity_mult": 1.033,
      "raw_dynamic_score": 0.0,
      "dynamic_level": "None"
    },
    {
      "id": "nan",
      "name": "Kuching, Malaysia",
      "latitude": 1.553,
      "longitude": 110.379,
      "base_risk": 8.89,
      "rain_6h_mm": 0.1,
      "humidity_avg": 86.7,
      "soil_moisture_avg": 0.0,
      "temperature_avg": 27.5,
      "pressure_avg": 1011.0,
      "rain_mult": 0.001,
      "soil_mult": 0.8,
      "humidity_mult": 1.073,
      "raw_dynamic_score": 0.008,
      "dynamic_level": "Low"
    },
    {
      "id": "nan",
      "name": "Singapore, Singapore",
      "latitude": 1.392,
      "longitude": 103.84,
      "base_risk": 9.06,
      "rain_6h_mm": 0.0,
      "humidity_avg": 71.5,
      "soil_moisture_avg": 0.0,
      "temperature_avg": 29.7,
      "pressure_avg": 1008.1,
      "rain_mult": 0.0,
      "soil_mult": 0.8,
      "humidity_mult": 1.043,
      "raw_dynamic_score": 0.0,
      "dynamic_level": "None"
    },
    {
      "id": "nan",
      "name": "Jakarta, Indonesia",
      "latitude": -6.268,
      "longitude": 106.805,
      "base_risk": 8.98,
      "rain_6h_mm": 8.4,
      "humidity_avg": 82.5,
      "soil_moisture_avg": 0.0,
      "temperature_avg": 27.3,
      "pressure_avg": 1008.2,
      "rain_mult": 0.084,
      "soil_mult": 0.8,
      "humidity_mult": 1.065,
      "raw_dynamic_score": 0.643,
      "dynamic_level": "Low"
    },
    {
      "id": "nan",
      "name": "Bogor, Indonesia",
      "latitude": -6.655,
      "longitude": 106.857,
      "base_risk": 9.02,
      "rain_6h_mm": 2.7,
      "humidity_avg": 90.0,
      "soil_moisture_avg": 0.0,
      "temperature_avg": 23.8,
      "pressure_avg": 960.5,
      "rain_mult": 0.027,
      "soil_mult": 0.8,
      "humidity_mult": 1.08,
      "raw_dynamic_score": 0.21,
      "dynamic_level": "Low"
    },
    {
      "id": "nan",
      "name": "Bandung, Indonesia",
      "latitude": -6.877,
      "longitude": 107.599,
      "base_risk": 9.08,
      "rain_6h_mm": 3.9,
      "humidity_avg": 90.0,
      "soil_moisture_avg": 0.0,
      "temperature_avg": 23.6,
      "pressure_avg": 923.1,
      "rain_mult": 0.039,
      "soil_mult": 0.8,
      "humidity_mult": 1.08,
      "raw_dynamic_score": 0.306,
      "dynamic_level": "Low"
    },
    {
      "id": "nan",
      "name": "Lae, Papua New Guinea",
      "latitude": -6.753,
      "longitude": 146.983,
      "base_risk": 9.49,
      "rain_6h_mm": 5.3,
      "humidity_avg": 93.0,
      "soil_moisture_avg": 0.0,
      "temperature_avg": 24.9,
      "pressure_avg": 1014.0,
      "rain_mult": 0.053,
      "soil_mult": 0.8,
      "humidity_mult": 1.086,
      "raw_dynamic_score": 0.437,
      "dynamic_level": "Low"
    },
    {
      "id": "nan",
      "name": "Madang, Papua New Guinea",
      "latitude": -5.217,
      "longitude": 145.78,
      "base_risk": 9.47,
      "rain_6h_mm": 0.1,
      "humidity_avg": 94.5,
      "soil_moisture_avg": 0.0,
      "temperature_avg": 23.8,
      "pressure_avg": 1012.0,
      "rain_mult": 0.001,
      "soil_mult": 0.8,
      "humidity_mult": 1.089,
      "raw_dynamic_score": 0.008,
      "dynamic_level": "Low"
    },
    {
      "id": "nan",
      "name": "Port Moresby, Papua New Guinea",
      "latitude": -9.423,
      "longitude": 147.22,
      "base_risk": 8.81,
      "rain_6h_mm": 0.8,
      "humidity_avg": 80.0,
      "soil_moisture_avg": 0.0,
      "temperature_avg": 28.6,
      "pressure_avg": 1007.0,
      "rain_mult": 0.008,
      "soil_mult": 0.8,
      "humidity_mult": 1.06,
      "raw_dynamic_score": 0.06,
      "dynamic_level": "Low"
    },
    {
      "id": "nan",
      "name": "Suva, Fiji",
      "latitude": -18.081,
      "longitude": 178.461,
      "base_risk": 9.27,
      "rain_6h_mm": 0.3,
      "humidity_avg": 90.3,
      "soil_moisture_avg": 0.0,
      "temperature_avg": 23.1,
      "pressure_avg": 998.8,
      "rain_mult": 0.003,
      "soil_mult": 0.8,
      "humidity_mult": 1.081,
      "raw_dynamic_score": 0.024,
      "dynamic_level": "Low"
    },
    {
      "id": "nan",
      "name": "Apia, Samoa",
      "latitude": -13.773,
      "longitude": -171.75,
      "base_risk": 8.54,
      "rain_6h_mm": 0.0,
      "humidity_avg": 91.0,
      "soil_moisture_avg": 0.0,
      "temperature_avg": 25.8,
      "pressure_avg": 1013.4,
      "rain_mult": 0.0,
      "soil_mult": 0.8,
      "humidity_mult": 1.082,
      "raw_dynamic_score": 0.0,
      "dynamic_level": "None"
    },
    {
      "id": "nan",
      "name": "Palikir, Micronesia",
      "latitude": 6.877,
      "longitude": 158.13,
      "base_risk": 8.55,
      "rain_6h_mm": 0.0,
      "humidity_avg": 76.5,
      "soil_moisture_avg": 0.0,
      "temperature_avg": 28.4,
      "pressure_avg": 1012.5,
      "rain_mult": 0.0,
      "soil_mult": 0.8,
      "humidity_mult": 1.053,
      "raw_dynamic_score": 0.0,
      "dynamic_level": "None"
    },
    {
      "id": "nan",
      "name": "Port Vila, Vanuatu",
      "latitude": -17.733,
      "longitude": 168.287,
      "base_risk": 8.75,
      "rain_6h_mm": 0.0,
      "humidity_avg": 85.2,
      "soil_moisture_avg": 0.0,
      "temperature_avg": 27.0,
      "pressure_avg": 1015.5,
      "rain_mult": 0.0,
      "soil_mult": 0.8,
      "humidity_mult": 1.07,
      "raw_dynamic_score": 0.0,
      "dynamic_level": "None"
    },
    {
      "id": "nan",
      "name": "Cairns, Australia",
      "latitude": -16.94,
      "longitude": 145.79,
      "base_risk": 9.49,
      "rain_6h_mm": 0.0,
      "humidity_avg": 93.7,
      "soil_moisture_avg": 0.0,
      "temperature_avg": 26.2,
      "pressure_avg": 1015.4,
      "rain_mult": 0.0,
      "soil_mult": 0.8,
      "humidity_mult": 1.087,
      "raw_dynamic_score": 0.0,
      "dynamic_level": "None"
    },