{
  "timestamp": "2025-11-08T20:16:22.447537Z",
  "source": "Open-Meteo",
  "forecast_window_hours": 6,
  "features_evaluated": 1002,
  "alerts": [
    {
      "id": "1",
      "country": "Afghanistan",
      "name": "Herat",
      "latitude": 34.3482,
      "longitude": 62.1997,
      "base_risk": 9.5,
      "rain_6h_mm": 0.0,
      "humidity_avg": 36.7,
      "soil_moisture_avg": 0.0,
      "rain_mult": 0.0,
      "soil_mult": 0.95,
      "humidity_mult": 1.018,
      "raw_dynamic_score": 0.0,
      "dynamic_level": "None"
    },
    {
      "id": "2",
      "country": "Afghanistan",
      "name": "Kabul",
      "latitude": 34.5289,
      "longitude": 69.1725,
      "base_risk": 9.13,
      "rain_6h_mm": 0.0,
      "humidity_avg": 18.3,
      "soil_moisture_avg": 0.0,
      "rain_mult": 0.0,
      "soil_mult": 0.95,
      "humidity_mult": 1.009,
      "raw_dynamic_score": 0.0,
      "dynamic_level": "None"
    },
    {
      "id": "3",
      "country": "Afghanistan",
      "name": "Kandahar",
      "latitude": 31.6133,
      "longitude": 65.7101,
      "base_risk": 9.39,
      "rain_6h_mm": 0.0,
      "humidity_avg": 32.0,
      "soil_moisture_avg": 0.0,
      "rain_mult": 0.0,
      "soil_mult": 0.95,
      "humidity_mult": 1.016,
      "raw_dynamic_score": 0.0,
      "dynamic_level": "None"
    },
    {
      "id": "4",
      "country": "Afghanistan",
      "name": "Mazar-e Sharif",
      "latitude": 36.709,
      "longitude": 67.1109,
      "base_risk": 9.23,
      "rain_6h_mm": 0.0,
      "humidity_avg": 71.0,
      "soil_moisture_avg": 0.0,
      "rain_mult": 0.0,
      "soil_mult": 0.95,
      "humidity_mult": 1.036,
      "raw_dynamic_score": 0.0,
      "dynamic_level": "None"
    },
    {
      "id": "5",
      "country": "Albania",
      "name": "Tiranë (Tirana)",
      "latitude": 41.3275,
      "longitude": 19.8189,
      "base_risk": 9.32,
      "rain_6h_mm": 0.1,
      "humidity_avg": 85.7,
      "soil_moisture_avg": 0.0,
      "rain_mult": 0.001,
      "soil_mult": 0.95,
      "humidity_mult": 1.043,
      "raw_dynamic_score": 0.009,
      "dynamic_level": "Low"
    },
    {
      "id": "10",
      "country": "Algeria",
      "name": "El Djelfa",
      "latitude": 34.6728,
      "longitude": 3.263,
      "base_risk": 9.18,
      "rain_6h_mm": 0.3,
      "humidity_avg": 77.7,
      "soil_moisture_avg": 0.0,
      "rain_mult": 0.003,
      "soil_mult": 0.95,
      "humidity_mult": 1.039,
      "raw_dynamic_score": 0.027,
      "dynamic_level": "Low"
    },
    {
      "id": "11",
      "country": "Algeria",
      "name": "Qacentina",
      "latitude": 36.3549,
      "longitude": 6.6073,
      "base_risk": 9.09,
      "rain_6h_mm": 4.7,
      "humidity_avg": 75.2,
      "soil_moisture_avg": 0.0,
      "rain_mult": 0.047,
      "soil_mult": 0.95,
      "humidity_mult": 1.038,
      "raw_dynamic_score": 0.421,
      "dynamic_level": "Low"
    },
    {
      "id": "12",
      "country": "Algeria",
      "name": "Sétif",
      "latitude": 36.1911,
      "longitude": 5.4137,
      "base_risk": 9.3,
      "rain_6h_mm": 2.7,
      "humidity_avg": 88.8,
      "soil_moisture_avg": 0.0,
      "rain_mult": 0.027,
      "soil_mult": 0.95,
      "humidity_mult": 1.044,
      "raw_dynamic_score": 0.249,
      "dynamic_level": "Low"
    },
    {
      "id": "13",
      "country": "Algeria",
      "name": "Wahran (Oran)",
      "latitude": 35.6911,
      "longitude": -0.6417,
      "base_risk": 9.15,
      "rain_6h_mm": 0.0,
      "humidity_avg": 82.2,
      "soil_moisture_avg": 0.0,
      "rain_mult": 0.0,
      "soil_mult": 0.95,
      "humidity_mult": 1.041,
      "raw_dynamic_score": 0.0,
      "dynamic_level": "None"
    },
    {
      "id": "14",
      "country": "Angola",
      "name": "Benguela",
      "latitude": -12.576,
      "longitude": 13.405,
      "base_risk": 9.33,
      "rain_6h_mm": 0.0,
      "humidity_avg": 77.2,
      "soil_moisture_avg": 0.0,
      "rain_mult": 0.0,
      "soil_mult": 0.95,
      "humidity_mult": 1.039,
      "raw_dynamic_score": 0.0,
      "dynamic_level": "None"
    },
    {
      "id": "15",
      "country": "Angola",
      "name": "Cabinda",
      "latitude": -5.55,
      "longitude": 12.2,
      "base_risk": 9.14,
      "rain_6h_mm": 0.0,
      "humidity_avg": 87.2,
      "soil_moisture_avg": 0.0,
      "rain_mult": 0.0,
      "soil_mult": 0.95,
      "humidity_mult": 1.044,
      "raw_dynamic_score": 0.0,
      "dynamic_level": "None"
    },
    {
      "id": "20",
      "country": "Angola",
      "name": "Lubango",
      "latitude": -14.9172,
      "longitude": 13.4925,
      "base_risk": 9.15,
      "rain_6h_mm": 0.0,
      "humidity_avg": 91.5,
      "soil_moisture_avg": 0.0,
      "rain_mult": 0.0,
      "soil_mult": 0.95,
      "humidity_mult": 1.046,
      "raw_dynamic_score": 0.0,
      "dynamic_level": "None"
    },
    {
      "id": "21",
      "country": "Angola",
      "name": "Malanje",
      "latitude": -9.54,
      "longitude": 16.341,
      "base_risk": 9.23,
      "rain_6h_mm": 0.4,
      "humidity_avg": 89.2,
      "soil_moisture_avg": 0.0,
      "rain_mult": 0.004,
      "soil_mult": 0.95,
      "humidity_mult": 1.045,
      "raw_dynamic_score": 0.037,
      "dynamic_level": "Low"
    },
    {
      "id": "22",
      "country": "Angola",
      "name": "Uige",
      "latitude": -7.1069,
      "longitude": 15.4406,
      "base_risk": 9.45,
      "rain_6h_mm": 0.1,
      "humidity_avg": 88.7,
      "soil_moisture_avg": 0.0,
      "rain_mult": 0.001,
      "soil_mult": 0.95,
      "humidity_mult": 1.044,
      "raw_dynamic_score": 0.009,
      "dynamic_level": "Low"
    },
    {
      "id": "23",
      "country": "Argentina",
      "name": "Bahia Blanca",
      "latitude": -38.7196,
      "longitude": -62.2724,
      "base_risk": 9.12,
      "rain_6h_mm": 0.0,
      "humidity_avg": 60.8,
      "soil_moisture_avg": 0.0,
      "rain_mult": 0.0,
      "soil_mult": 0.95,
      "humidity_mult": 1.03,
      "raw_dynamic_score": 0.0,
      "dynamic_level": "None"
    },
    {
      "id": "24",
      "country": "Argentina",
      "name": "Buenos Aires",
      "latitude": -34.6051,
      "longitude": -58.4004,
      "base_risk": 9.05,
      "rain_6h_mm": 0.0,
      "humidity_avg": 51.2,
      "soil_moisture_avg": 0.0,
      "rain_mult": 0.0,
      "soil_mult": 0.95,
      "humidity_mult": 1.026,
      "raw_dynamic_score": 0.0,
      "dynamic_level": "None"
    },
    {
      "id": "30",
      "country": "Argentina",
      "name": "Neuquén-Plottier-Cipolletti",
      "latitude": -38.9514,
      "longitude": -68.0648,
      "base_risk": 9.33,
      "rain_6h_mm": 0.0,
      "humidity_avg": 39.5,
      "soil_moisture_avg": 0.0,
      "rain_mult": 0.0,
      "soil_mult": 0.95,
      "humidity_mult": 1.02,
      "raw_dynamic_score": 0.0,
      "dynamic_level": "None"
    },
    {
      "id": "31",
      "country": "Argentina",
      "name": "Posadas",
      "latitude": -27.3671,
      "longitude": -55.8961,
      "base_risk": 9.29,
      "rain_6h_mm": 0.0,
      "humidity_avg": 62.8,
      "soil_moisture_avg": 0.0,
      "rain_mult": 0.0,
      "soil_mult": 0.95,
      "humidity_mult": 1.031,
      "raw_dynamic_score": 0.0,
      "dynamic_level": "None"
    },
    {
      "id": "32",
      "country": "Argentina",
      "name": "Resistencia",
      "latitude": -27.4606,
      "longitude": -58.9839,
      "base_risk": 9.42,
      "rain_6h_mm": 0.0,
      "humidity_avg": 62.3,
      "soil_moisture_avg": 0.0,
      "rain_mult": 0.0,
      "soil_mult": 0.95,
      "humidity_mult": 1.031,
      "raw_dynamic_score": 0.0,
      "dynamic_level": "None"
    },
    {
      "id": "33",
      "country": "Argentina",
      "name": "Rosario",
      "latitude": -32.9468,
      "longitude": -60.6393,
      "base_risk": 9.16,
      "rain_6h_mm": 0.0,
      "humidity_avg": 52.8,
      "soil_moisture_avg": 0.0,
      "rain_mult": 0.0,
      "soil_mult": 0.95,
      "humidity_mult": 1.026,
      "raw_dynamic_score": 0.0,
      "dynamic_level": "None"
    },
    {
      "id": "34",
      "country": "Argentina",
      "name": "Salta",
      "latitude": -24.7859,
      "longitude": -65.4117,
      "base_risk": 9.39,
      "rain_6h_mm": 0.0,
      "humidity_avg": 40.8,
      "soil_moisture_avg": 0.0,
      "rain_mult": 0.0,
      "soil_mult": 0.95,
      "humidity_mult": 1.02,
      "raw_dynamic_score": 0.0,
      "dynamic_level": "None"
    },
    {
      "id": "40",
      "country": "Armenia",
      "name": "Yerevan",
      "latitude": 40.182,
      "longitude": 44.5146,
      "base_risk": 8.77,
      "rain_6h_mm": 0.0,
      "humidity_avg": 52.5,
      "soil_moisture_avg": 0.0,
      "rain_mult": 0.0,
      "soil_mult": 0.95,
      "humidity_mult": 1.026,
      "raw_dynamic_score": 0.0,
      "dynamic_level": "None"
    },
    {
      "id": "41",
      "country": "Australia",
      "name": "Adelaide",
      "latitude": -34.9287,
      "longitude": 138.5986,
      "base_risk": 9.32,
      "rain_6h_mm": 0.5,
      "humidity_avg": 71.3,
      "soil_moisture_avg": 0.0,
      "rain_mult": 0.005,
      "soil_mult": 0.95,
      "humidity_mult": 1.036,
      "raw_dynamic_score": 0.046,
      "dynamic_level": "Low"
    },
    {
      "id": "42",
      "country": "Australia",
      "name": "Brisbane",
      "latitude": -27.4679,
      "longitude": 153.0281,
      "base_risk": 8.99,
      "rain_6h_mm": 0.0,
      "humidity_avg": 87.3,
      "soil_moisture_avg": 0.0,
      "rain_mult": 0.0,
      "soil_mult": 0.95,
      "humidity_mult": 1.044,
      "raw_dynamic_score": 0.0,
      "dynamic_level": "None"
    },
    {
      "id": "43",
      "country": "Australia",
      "name": "Canberra",
      "latitude": -35.2835,
      "longitude": 149.1281,
      "base_risk": 8.88,
      "rain_6h_mm": 0.0,
      "humidity_avg": 83.0,
      "soil_moisture_avg": 0.0,
      "rain_mult": 0.0,
      "soil_mult": 0.95,
      "humidity_mult": 1.042,
      "raw_dynamic_score": 0.0,
      "dynamic_level": "None"
    },
    {
      "id": "44",
      "country": "Australia",
      "name": "Central Coast",
      "latitude": -33.42,
      "longitude": 151.3958,
      "base_risk": 9.28,
      "rain_6h_mm": 0.0,
      "humidity_avg": 50.5,
      "soil_moisture_avg": 0.0,
      "rain_mult": 0.0,
      "soil_mult": 0.95,
      "humidity_mult": 1.025,
      "raw_dynamic_score": 0.0,
      "dynamic_level": "None"
    },
    {
      "id": "49",
      "country": "Australia",
      "name": "Sunshine Coast",
      "latitude": -26.6601,
      "longitude": 153.0995,
      "base_risk": 9.39,
      "rain_6h_mm": 0.0,
      "humidity_avg": 82.3,
      "soil_moisture_avg": 0.0,
      "rain_mult": 0.0,
      "soil_mult": 0.95,
      "humidity_mult": 1.041,
      "raw_dynamic_score": 0.0,
      "dynamic_level": "None"
    },
    {
      "id": "50",
      "country": "Australia",
      "name": "Sydney",
      "latitude": -33.8679,
      "longitude": 151.2073,
      "base_risk": 9.19,
      "rain_6h_mm": 0.0,
      "humidity_avg": 55.2,
      "soil_moisture_avg": 0.0,
      "rain_mult": 0.0,
      "soil_mult": 0.95,
      "humidity_mult": 1.028,
      "raw_dynamic_score": 0.0,
      "dynamic_level": "None"
    },
    {
      "id": "51",
      "country": "Australia",
      "name": "Wollongong",
      "latitude": -34.424,
      "longitude": 150.8935,
      "base_risk": 9.37,
      "rain_6h_mm": 0.0,
      "humidity_avg": 63.7,
      "soil_moisture_avg": 0.0,
      "rain_mult": 0.0,
      "soil_mult": 0.95,
      "humidity_mult": 1.032,
      "raw_dynamic_score": 0.0,
      "dynamic_level": "None"
    },
    {
      "id": "52",
      "country": "Austria",
      "name": "Wien (Vienna)",
      "latitude": 48.2064,
      "longitude": 16.3707,
      "base_risk": 8.75,
      "rain_6h_mm": 0.3,
      "humidity_avg": 86.8,
      "soil_moisture_avg": 0.0,
      "rain_mult": 0.003,
      "soil_mult": 0.95,
      "humidity_mult": 1.043,
      "raw_dynamic_score": 0.026,
      "dynamic_level": "Low"
    },
    {
      "id": "53",
      "country": "Azerbaijan",
      "name": "Baku",
      "latitude": 40.3777,
      "longitude": 49.892,
      "base_risk": 8.82,
      "rain_6h_mm": 0.0,
      "humidity_avg": 93.2,
      "soil_moisture_avg": 0.0,
      "rain_mult": 0.0,
      "soil_mult": 0.95,
      "humidity_mult": 1.047,
      "raw_dynamic_score": 0.0,
      "dynamic_level": "None"
    },
    {
      "id": "58",
      "country": "Bangladesh",
      "name": "Bogra",
      "latitude": 24.85,
      "longitude": 89.3667,
      "base_risk": 9.17,
      "rain_6h_mm": 0.0,
      "humidity_avg": 85.3,
      "soil_moisture_avg": 0.0,
      "rain_mult": 0.0,
      "soil_mult": 0.95,
      "humidity_mult": 1.043,
      "raw_dynamic_score": 0.0,
      "dynamic_level": "None"
    },
    {
      "id": "59",
      "country": "Bangladesh",
      "name": "Chittagong",
      "latitude": 22.3331,
      "longitude": 91.8364,
      "base_risk": 9.36,
      "rain_6h_mm": 0.0,
      "humidity_avg": 80.7,
      "soil_moisture_avg": 0.0,
      "rain_mult": 0.0,
      "soil_mult": 0.95,
      "humidity_mult": 1.04,
      "raw_dynamic_score": 0.0,
      "dynamic_level": "None"
    },
    {
      "id": "60",
      "country": "Bangladesh",
      "name": "Comilla",
      "latitude": 23.4578,
      "longitude": 91.2044,
      "base_risk": 9.5,
      "rain_6h_mm": 0.0,
      "humidity_avg": 90.3,
      "soil_moisture_avg": 0.0,
      "rain_mult": 0.0,
      "soil_mult": 0.95,
      "humidity_mult": 1.045,
      "raw_dynamic_score": 0.0,
      "dynamic_level": "None"
    },
    {
      "id": "61",
      "country": "Bangladesh",
      "name": "Dhaka",
      "latitude": 23.7104,
      "longitude": 90.4074,
      "base_risk": 9.43,
      "rain_6h_mm": 0.0,
      "humidity_avg": 89.5,
      "soil_moisture_avg": 0.0,
      "rain_mult": 0.0,
      "soil_mult": 0.95,
      "humidity_mult": 1.045,
      "raw_dynamic_score": 0.0,
      "dynamic_level": "None"
    },
    {
      "id": "62",
      "country": "Bangladesh",
      "name": "Khulna",
      "latitude": 22.8098,
      "longitude": 89.5644,
      "base_risk": 9.5,
      "rain_6h_mm": 0.0,
      "humidity_avg": 83.5,
      "soil_moisture_avg": 0.0,
      "rain_mult": 0.0,
      "soil_mult": 0.95,
      "humidity_mult": 1.042,
      "raw_dynamic_score": 0.0,
      "dynamic_level": "None"
    },
    {
      "id": "67",
      "country": "Bangladesh",
      "name": "Sylhet",
      "latitude": 24.8967,
      "longitude": 91.8717,
      "base_risk": 9.35,
      "rain_6h_mm": 0.0,
      "humidity_avg": 93.7,
      "soil_moisture_avg": 0.0,
      "rain_mult": 0.0,
      "soil_mult": 0.95,
      "humidity_mult": 1.047,
      "raw_dynamic_score": 0.0,
      "dynamic_level": "None"
    },
    {
      "id": "68",
      "country": "Belarus",
      "name": "Brest",
      "latitude": 52.0976,
      "longitude": 23.6878,
      "base_risk": 9.37,
      "rain_6h_mm": 0.0,
      "humidity_avg": 85.8,
      "soil_moisture_avg": 0.402,
      "rain_mult": 0.0,
      "soil_mult": 1.292,
      "humidity_mult": 1.043,
      "raw_dynamic_score": 0.0,
      "dynamic_level": "None"
    },
    {
      "id": "69",
      "country": "Belarus",
      "name": "Gomel",
      "latitude": 52.4345,
      "longitude": 30.9754,
      "base_risk": 9.21,
      "rain_6h_mm": 0.0,
      "humidity_avg": 85.8,
      "soil_moisture_avg": 0.0,
      "rain_mult": 0.0,
      "soil_mult": 0.95,
      "humidity_mult": 1.043,
      "raw_dynamic_score": 0.0,
      "dynamic_level": "None"
    },
    {
      "id": "70",
      "country": "Belarus",
      "name": "Grodno",
      "latitude": 53.6884,
      "longitude": 23.8258,
      "base_risk": 9.14,
      "rain_6h_mm": 0.0,
      "humidity_avg": 94.0,
      "soil_moisture_avg": 0.607,
      "rain_mult": 0.0,
      "soil_mult": 1.466,
      "humidity_mult": 1.047,
      "raw_dynamic_score": 0.0,
      "dynamic_level": "None"
    },
    {
      "id": "71",
      "country": "Belarus",
      "name": "Minsk",
      "latitude": 53.9,
      "longitude": 27.5667,
      "base_risk": 8.74,
      "rain_6h_mm": 0.0,
      "humidity_avg": 89.8,
      "soil_moisture_avg": 0.489,
      "rain_mult": 0.0,
      "soil_mult": 1.366,
      "humidity_mult": 1.045,
      "raw_dynamic_score": 0.0,
      "dynamic_level": "None"
    },
    {
      "id": "76",
      "country": "Belgium",
      "name": "Charleroi",
      "latitude": 50.4114,
      "longitude": 4.4445,
      "base_risk": 9.22,
      "rain_6h_mm": 0.4,
      "humidity_avg": 91.3,
      "soil_moisture_avg": 0.514,
      "rain_mult": 0.004,
      "soil_mult": 1.387,
      "humidity_mult": 1.046,
      "raw_dynamic_score": 0.053,
      "dynamic_level": "Low"
    },
    {
      "id": "77",
      "country": "Belgium",
      "name": "Gent",
      "latitude": 51.05,
      "longitude": 3.7167,
      "base_risk": 8.99,
      "rain_6h_mm": 0.0,
      "humidity_avg": 88.0,
      "soil_moisture_avg": 0.322,
      "rain_mult": 0.0,
      "soil_mult": 1.223,
      "humidity_mult": 1.044,
      "raw_dynamic_score": 0.0,
      "dynamic_level": "None"
    },
    {
      "id": "78",
      "country": "Belgium",
      "name": "Liège",
      "latitude": 50.6337,
      "longitude": 5.5675,
      "base_risk": 9.43,
      "rain_6h_mm": 0.5,
      "humidity_avg": 88.8,
      "soil_moisture_avg": 0.461,
      "rain_mult": 0.005,
      "soil_mult": 1.342,
      "humidity_mult": 1.044,
      "raw_dynamic_score": 0.066,
      "dynamic_level": "Low"
    },
    {
      "id": "79",
      "country": "Benin",
      "name": "Abomey-Calavi",
      "latitude": 6.4485,
      "longitude": 2.3557,
      "base_risk": 9.06,
      "rain_6h_mm": 0.0,
      "humidity_avg": 88.0,
      "soil_moisture_avg": 0.0,
      "rain_mult": 0.0,
      "soil_mult": 0.95,
      "humidity_mult": 1.044,
      "raw_dynamic_score": 0.0,
      "dynamic_level": "None"
    },
    {
      "id": "80",
      "country": "Benin",
      "name": "Cotonou",
      "latitude": 6.3654,
      "longitude": 2.4183,
      "base_risk": 9.5,
      "rain_6h_mm": 0.0,
      "humidity_avg": 85.5,
      "soil_moisture_avg": 0.0,
      "rain_mult": 0.0,
      "soil_mult": 0.95,
      "humidity_mult": 1.043,
      "raw_dynamic_score": 0.0,
      "dynamic_level": "None"
    },
    {
      "id": "85",
      "country": "Bolivia (Plurinational State of)",
      "name": "Oruro",
      "latitude": -17.9833,
      "longitude": -67.15,
      "base_risk": 8.94,
      "rain_6h_mm": 0.0,
      "humidity_avg": 18.7,
      "soil_moisture_avg": 0.0,
      "rain_mult": 0.0,
      "soil_mult": 0.95,
      "humidity_mult": 1.009,
      "raw_dynamic_score": 0.0,
      "dynamic_level": "None"
    },
    {
      "id": "86",
      "country": "Bolivia (Plurinational State of)",
      "name": "Santa Cruz",
      "latitude": -17.7989,
      "longitude": -63.1698,
      "base_risk": 8.87,
      "rain_6h_mm": 0.0,
      "humidity_avg": 55.5,
      "soil_moisture_avg": 0.0,
      "rain_mult": 0.0,
      "soil_mult": 0.95,
      "humidity_mult": 1.028,
      "raw_dynamic_score": 0.0,
      "dynamic_level": "None"
    },
    {
      "id": "87",
      "country": "Bosnia and Herzegovina",
      "name": "Sarajevo",
      "latitude": 43.8486,
      "longitude": 18.3564,
      "base_risk": 9.35,
      "rain_6h_mm": 0.0,
      "humidity_avg": 90.8,
      "soil_moisture_avg": 0.0,
      "rain_mult": 0.0,
      "soil_mult": 0.95,
      "humidity_mult": 1.045,
      "raw_dynamic_score": 0.0,
      "dynamic_level": "None"
    },
    {
      "id": "88",
      "country": "Brazil",
      "name": "Anápolis",
      "latitude": -16.3267,
      "longitude": -48.9528,
      "base_risk": 9.37,
      "rain_6h_mm": 3.0,
      "humidity_avg": 68.0,
      "soil_moisture_avg": 0.0,
      "rain_mult": 0.03,
      "soil_mult": 0.95,
      "humidity_mult": 1.034,
      "raw_dynamic_score": 0.276,
      "dynamic_level": "Low"
    },
    {
      "id": "89",
      "country": "Brazil",
      "name": "Aracaju",
      "latitude": -10.9111,
      "longitude": -37.0717,
      "base_risk": 9.4,
      "rain_6h_mm": 0.0,
      "humidity_avg": 66.0,
      "soil_moisture_avg": 0.0,
      "rain_mult": 0.0,
      "soil_mult": 0.95,
      "humidity_mult": 1.033,
      "raw_dynamic_score": 0.0,
      "dynamic_level": "None"
    },
    {
      "id": "94",
      "country": "Brazil",
      "name": "Blumenau",
      "latitude": -26.9194,
      "longitude": -49.0661,
      "base_risk": 9.15,
      "rain_6h_mm": 0.0,
      "humidity_avg": 54.8,
      "soil_moisture_avg": 0.0,
      "rain_mult": 0.0,
      "soil_mult": 0.95,
      "humidity_mult": 1.027,
      "raw_dynamic_score": 0.0,
      "dynamic_level": "None"
    },
    {
      "id": "96",
      "country": "Brazil",
      "name": "Brasília",
      "latitude": -15.7797,
      "longitude": -47.9297,
      "base_risk": 9.06,
      "rain_6h_mm": 1.6,
      "humidity_avg": 69.2,
      "soil_moisture_avg": 0.0,
      "rain_mult": 0.016,
      "soil_mult": 0.95,
      "humidity_mult": 1.035,
      "raw_dynamic_score": 0.142,
      "dynamic_level": "Low"
    },
    {
      "id": "97",
      "country": "Brazil",
      "name": "Campina Grande",
      "latitude": -7.2306,
      "longitude": -35.8811,
      "base_risk": 9.5,
      "rain_6h_mm": 0.0,
      "humidity_avg": 46.5,
      "soil_moisture_avg": 0.0,
      "rain_mult": 0.0,
      "soil_mult": 0.95,
      "humidity_mult": 1.023,
      "raw_dynamic_score": 0.0,
      "dynamic_level": "None"
    },
    {
      "id": "98",
      "country": "Brazil",
      "name": "Campinas",
      "latitude": -22.9109,
      "longitude": -47.0656,
      "base_risk": 9.41,
      "rain_6h_mm": 0.3,
      "humidity_avg": 69.2,
      "soil_moisture_avg": 0.0,
      "rain_mult": 0.003,
      "soil_mult": 0.95,
      "humidity_mult": 1.035,
      "raw_dynamic_score": 0.028,
      "dynamic_level": "Low"
    },
    {
      "id": "99",
      "country": "Brazil",
      "name": "Campo Grande",
      "latitude": -20.4567,
      "longitude": -54.6185,
      "base_risk": 9.07,
      "rain_6h_mm": 0.0,
      "humidity_avg": 60.8,
      "soil_moisture_avg": 0.0,
      "rain_mult": 0.0,
      "soil_mult": 0.95,
      "humidity_mult": 1.03,
      "raw_dynamic_score": 0.0,
      "dynamic_level": "None"
    },
    {
      "id": "100",
      "country": "Brazil",
      "name": "Campos dos Goytacazes",
      "latitude": -21.7664,
      "longitude": -41.3196,
      "base_risk": 9.41,
      "rain_6h_mm": 0.0,
      "humidity_avg": 69.2,
      "soil_moisture_avg": 0.0,
      "rain_mult": 0.0,
      "soil_mult": 0.95,
      "humidity_mult": 1.035,
      "raw_dynamic_score": 0.0,
      "dynamic_level": "None"
    },
    {
      "id": "103",
      "country": "Brazil",
      "name": "Caxias Do Sul",
      "latitude": -29.1681,
      "longitude": -51.1794,
      "base_risk": 8.82,
      "rain_6h_mm": 0.0,
      "humidity_avg": 85.7,
      "soil_moisture_avg": 0.0,
      "rain_mult": 0.0,
      "soil_mult": 0.95,
      "humidity_mult": 1.043,
      "raw_dynamic_score": 0.0,
      "dynamic_level": "None"
    },
    {
      "id": "106",
      "country": "Brazil",
      "name": "Feira De Santana",
      "latitude": -12.2667,
      "longitude": -38.9667,
      "base_risk": 9.34,
      "rain_6h_mm": 0.0,
      "humidity_avg": 49.2,
      "soil_moisture_avg": 0.0,
      "rain_mult": 0.0,
      "soil_mult": 0.95,
      "humidity_mult": 1.025,
      "raw_dynamic_score": 0.0,
      "dynamic_level": "None"
    },
    {
      "id": "108",
      "country": "Brazil",
      "name": "Fortaleza",
      "latitude": -3.7412,
      "longitude": -38.5436,
      "base_risk": 9.05,
      "rain_6h_mm": 0.0,
      "humidity_avg": 61.5,
      "soil_moisture_avg": 0.0,
      "rain_mult": 0.0,
      "soil_mult": 0.95,
      "humidity_mult": 1.031,
      "raw_dynamic_score": 0.0,
      "dynamic_level": "None"
    },
    {
      "id": "110",
      "country": "Brazil",
      "name": "Goiânia",
      "latitude": -16.6786,
      "longitude": -49.2539,
      "base_risk": 9.02,
      "rain_6h_mm": 2.9,
      "humidity_avg": 59.2,
      "soil_moisture_avg": 0.0,
      "rain_mult": 0.029,
      "soil_mult": 0.95,
      "humidity_mult": 1.03,
      "raw_dynamic_score": 0.256,
      "dynamic_level": "Low"
    },
    {
      "id": "112",
      "country": "Brazil",
      "name": "Grande Vitória",
      "latitude": -20.3054,
      "longitude": -40.3079,
      "base_risk": 9.5,
      "rain_6h_mm": 0.0,
      "humidity_avg": 68.7,
      "soil_moisture_avg": 0.0,
      "rain_mult": 0.0,
      "soil_mult": 0.95,
      "humidity_mult": 1.034,
      "raw_dynamic_score": 0.0,
      "dynamic_level": "None"
    },
    {
      "id": "113",
      "country": "Brazil",
      "name": "João Pessoa",
      "latitude": -7.115,
      "longitude": -34.8631,
      "base_risk": 9.3,
      "rain_6h_mm": 0.0,
      "humidity_avg": 68.7,
      "soil_moisture_avg": 0.0,
      "rain_mult": 0.0,
      "soil_mult": 0.95,
      "humidity_mult": 1.034,
      "raw_dynamic_score": 0.0,
      "dynamic_level": "None"
    },
    {
      "id": "114",
      "country": "Brazil",
      "name": "Joinville",
      "latitude": -26.3044,
      "longitude": -48.8456,
      "base_risk": 9.02,
      "rain_6h_mm": 0.0,
      "humidity_avg": 54.3,
      "soil_moisture_avg": 0.0,
      "rain_mult": 0.0,
      "soil_mult": 0.95,
      "humidity_mult": 1.027,
      "raw_dynamic_score": 0.0,
      "dynamic_level": "None"
    },
    {
      "id": "115",
      "country": "Brazil",
      "name": "Juazeiro Do Norte",
      "latitude": -7.2131,
      "longitude": -39.3153,
      "base_risk": 9.29,
      "rain_6h_mm": 0.0,
      "humidity_avg": 32.7,
      "soil_moisture_avg": 0.0,
      "rain_mult": 0.0,
      "soil_mult": 0.95,
      "humidity_mult": 1.016,
      "raw_dynamic_score": 0.0,
      "dynamic_level": "None"
    },
    {
      "id": "119",
      "country": "Brazil",
      "name": "Macapá",
      "latitude": 0.0389,
      "longitude": -51.0664,
      "base_risk": 9.04,
      "rain_6h_mm": 0.0,
      "humidity_avg": 52.5,
      "soil_moisture_avg": 0.0,
      "rain_mult": 0.0,
      "soil_mult": 0.95,
      "humidity_mult": 1.026,
      "raw_dynamic_score": 0.0,
      "dynamic_level": "None"
    },
    {
      "id": "120",
      "country": "Brazil",
      "name": "Maceió",
      "latitude": -9.6658,
      "longitude": -35.7353,
      "base_risk": 9.5,
      "rain_6h_mm": 0.0,
      "humidity_avg": 67.0,
      "soil_moisture_avg": 0.0,
      "rain_mult": 0.0,
      "soil_mult": 0.95,
      "humidity_mult": 1.034,
      "raw_dynamic_score": 0.0,
      "dynamic_level": "None"
    },
    {
      "id": "121",
      "country": "Brazil",
      "name": "Manaus",
      "latitude": -3.1019,
      "longitude": -60.025,
      "base_risk": 9.01,
      "rain_6h_mm": 0.0,
      "humidity_avg": 47.8,
      "soil_moisture_avg": 0.0,
      "rain_mult": 0.0,
      "soil_mult": 0.95,
      "humidity_mult": 1.024,
      "raw_dynamic_score": 0.0,
      "dynamic_level": "None"
    },
    {
      "id": "122",
      "country": "Brazil",
      "name": "Maringá",
      "latitude": -23.4253,
      "longitude": -51.9386,
      "base_risk": 9.32,
      "rain_6h_mm": 0.0,
      "humidity_avg": 51.5,
      "soil_moisture_avg": 0.0,
      "rain_mult": 0.0,
      "soil_mult": 0.95,
      "humidity_mult": 1.026,
      "raw_dynamic_score": 0.0,
      "dynamic_level": "None"
    },
    {
      "id": "123",
      "country": "Brazil",
      "name": "Montes Claros",
      "latitude": -16.735,
      "longitude": -43.8617,
      "base_risk": 9.5,
      "rain_6h_mm": 1.1,
      "humidity_avg": 69.5,
      "soil_moisture_avg": 0.0,
      "rain_mult": 0.011,
      "soil_mult": 0.95,
      "humidity_mult": 1.035,
      "raw_dynamic_score": 0.103,
      "dynamic_level": "Low"
    },
    {
      "id": "128",
      "country": "Brazil",
      "name": "Ponta Grossa",
      "latitude": -25.095,
      "longitude": -50.1619,
      "base_risk": 9.39,
      "rain_6h_mm": 0.0,
      "humidity_avg": 54.0,
      "soil_moisture_avg": 0.0,
      "rain_mult": 0.0,
      "soil_mult": 0.95,
      "humidity_mult": 1.027,
      "raw_dynamic_score": 0.0,
      "dynamic_level": "None"
    },
    {
      "id": "129",
      "country": "Brazil",
      "name": "Pôrto Alegre",
      "latitude": -30.0331,
      "longitude": -51.23,
      "base_risk": 9.11,
      "rain_6h_mm": 0.2,
      "humidity_avg": 80.7,
      "soil_moisture_avg": 0.0,
      "rain_mult": 0.002,
      "soil_mult": 0.95,
      "humidity_mult": 1.04,
      "raw_dynamic_score": 0.018,
      "dynamic_level": "Low"
    },
    {
      "id": "130",
      "country": "Brazil",
      "name": "Pôrto Velho",
      "latitude": -8.7619,
      "longitude": -63.9039,
      "base_risk": 8.9,
      "rain_6h_mm": 0.8,
      "humidity_avg": 59.5,
      "soil_moisture_avg": 0.0,
      "rain_mult": 0.008,
      "soil_mult": 0.95,
      "humidity_mult": 1.03,
      "raw_dynamic_score": 0.07,
      "dynamic_level": "Low"
    },
    {
      "id": "131",
      "country": "Brazil",
      "name": "Recife",
      "latitude": -8.0539,
      "longitude": -34.8811,
      "base_risk": 9.18,
      "rain_6h_mm": 0.0,
      "humidity_avg": 65.8,
      "soil_moisture_avg": 0.0,
      "rain_mult": 0.0,
      "soil_mult": 0.95,
      "humidity_mult": 1.033,
      "raw_dynamic_score": 0.0,
      "dynamic_level": "None"
    },
    {
      "id": "132",
      "country": "Brazil",
      "name": "Ribeirão  Preto",
      "latitude": -21.1775,
      "longitude": -47.8103,
      "base_risk": 9.07,
      "rain_6h_mm": 4.1,
      "humidity_avg": 72.5,
      "soil_moisture_avg": 0.0,
      "rain_mult": 0.041,
      "soil_mult": 0.95,
      "humidity_mult": 1.036,
      "raw_dynamic_score": 0.366,
      "dynamic_level": "Low"
    },
    {
      "id": "133",
      "country": "Brazil",
      "name": "Rio Branco",
      "latitude": -9.9747,
      "longitude": -67.81,
      "base_risk": 8.92,
      "rain_6h_mm": 0.4,
      "humidity_avg": 56.8,
      "soil_moisture_avg": 0.0,
      "rain_mult": 0.004,
      "soil_mult": 0.95,
      "humidity_mult": 1.028,
      "raw_dynamic_score": 0.035,
      "dynamic_level": "Low"
    },
    {
      "id": "135",
      "country": "Brazil",
      "name": "Salvador",
      "latitude": -12.9711,
      "longitude": -38.5108,
      "base_risk": 9.07,
      "rain_6h_mm": 0.0,
      "humidity_avg": 68.3,
      "soil_moisture_avg": 0.0,
      "rain_mult": 0.0,
      "soil_mult": 0.95,
      "humidity_mult": 1.034,
      "raw_dynamic_score": 0.0,
      "dynamic_level": "None"
    },
    {
      "id": "137",
      "country": "Brazil",
      "name": "São José dos Campos",
      "latitude": -23.1794,
      "longitude": -45.8869,
      "base_risk": 9.27,
      "rain_6h_mm": 0.2,
      "humidity_avg": 78.2,
      "soil_moisture_avg": 0.0,
      "rain_mult": 0.002,
      "soil_mult": 0.95,
      "humidity_mult": 1.039,
      "raw_dynamic_score": 0.018,
      "dynamic_level": "Low"
    },
    {
      "id": "138",
      "country": "Brazil",
      "name": "São Paulo",
      "latitude": -23.5475,
      "longitude": -46.6361,
      "base_risk": 9.5,
      "rain_6h_mm": 0.5,
      "humidity_avg": 74.2,
      "soil_moisture_avg": 0.0,
      "rain_mult": 0.005,
      "soil_mult": 0.95,
      "humidity_mult": 1.037,
      "raw_dynamic_score": 0.047,
      "dynamic_level": "Low"
    },
    {
      "id": "139",
      "country": "Brazil",
      "name": "Sorocaba",
      "latitude": -23.5017,
      "longitude": -47.4581,
      "base_risk": 9.22,
      "rain_6h_mm": 0.1,
      "humidity_avg": 62.3,
      "soil_moisture_avg": 0.0,
      "rain_mult": 0.001,
      "soil_mult": 0.95,
      "humidity_mult": 1.031,
      "raw_dynamic_score": 0.009,
      "dynamic_level": "Low"
    },
    {
      "id": "143",
      "country": "Brazil",
      "name": "Uberlândia",
      "latitude": -18.9186,
      "longitude": -48.2772,
      "base_risk": 9.5,
      "rain_6h_mm": 7.3,
      "humidity_avg": 71.5,
      "soil_moisture_avg": 0.0,
      "rain_mult": 0.073,
      "soil_mult": 0.95,
      "humidity_mult": 1.036,
      "raw_dynamic_score": 0.682,
      "dynamic_level": "Low"
    },
    {
      "id": "144",
      "country": "Brazil",
      "name": "Vale do Aço",
      "latitude": -19.9405,
      "longitude": -43.9354,
      "base_risk": 9.42,
      "rain_6h_mm": 2.0,
      "humidity_avg": 84.2,
      "soil_moisture_avg": 0.0,
      "rain_mult": 0.02,
      "soil_mult": 0.95,
      "humidity_mult": 1.042,
      "raw_dynamic_score": 0.187,
      "dynamic_level": "Low"
    },
    {
      "id": "148",
      "country": "Bulgaria",
      "name": "Sofia",
      "latitude": 42.6975,
      "longitude": 23.3242,
      "base_risk": 9.33,
      "rain_6h_mm": 0.0,
      "humidity_avg": 92.3,
      "soil_moisture_avg": 0.0,
      "rain_mult": 0.0,
      "soil_mult": 0.95,
      "humidity_mult": 1.046,
      "raw_dynamic_score": 0.0,
      "dynamic_level": "None"
    },
    {
      "id": "149",
      "country": "Bulgaria",
      "name": "Varna",
      "latitude": 43.2167,
      "longitude": 27.9167,
      "base_risk": 9.44,
      "rain_6h_mm": 0.0,
      "humidity_avg": 93.3,
      "soil_moisture_avg": 0.0,
      "rain_mult": 0.0,
      "soil_mult": 0.95,
      "humidity_mult": 1.047,
      "raw_dynamic_score": 0.0,
      "dynamic_level": "None"
    },
    {
      "id": "150",
      "country": "Burkina Faso",
      "name": "Bobo-Dioulasso",
      "latitude": 11.1772,
      "longitude": -4.2979,
      "base_risk": 9.23,
      "rain_6h_mm": 0.0,
      "humidity_avg": 73.3,
      "soil_moisture_avg": 0.0,
      "rain_mult": 0.0,
      "soil_mult": 0.95,
      "humidity_mult": 1.037,
      "raw_dynamic_score": 0.0,
      "dynamic_level": "None"
    },
    {
      "id": "151",
      "country": "Burkina Faso",
      "name": "Ouagadougou",
      "latitude": 12.3642,
      "longitude": -1.5383,
      "base_risk": 9.5,
      "rain_6h_mm": 2.2,
      "humidity_avg": 73.8,
      "soil_moisture_avg": 0.0,
      "rain_mult": 0.022,
      "soil_mult": 0.95,
      "humidity_mult": 1.037,
      "raw_dynamic_score": 0.206,
      "dynamic_level": "Low"
    },
    {
      "id": "152",
      "country": "Burundi",
      "name": "Bujumbura",
      "latitude": -3.3822,
      "longitude": 29.3644,
      "base_risk": 9.39,
      "rain_6h_mm": 0.0,
      "humidity_avg": 89.7,
      "soil_moisture_avg": 0.0,
      "rain_mult": 0.0,
      "soil_mult": 0.95,
      "humidity_mult": 1.045,
      "raw_dynamic_score": 0.0,
      "dynamic_level": "None"
    },
    {
      "id": "156",
      "country": "Cameroon",
      "name": "Douala",
      "latitude": 4.0483,
      "longitude": 9.7043,
      "base_risk": 9.5,
      "rain_6h_mm": 0.0,
      "humidity_avg": 88.2,
      "soil_moisture_avg": 0.0,
      "rain_mult": 0.0,
      "soil_mult": 0.95,
      "humidity_mult": 1.044,
      "raw_dynamic_score": 0.0,
      "dynamic_level": "None"
    },
    {
      "id": "157",
      "country": "Cameroon",
      "name": "Garoua",
      "latitude": 9.3,
      "longitude": 13.4,
      "base_risk": 9.09,
      "rain_6h_mm": 0.0,
      "humidity_avg": 55.7,
      "soil_moisture_avg": 0.0,
      "rain_mult": 0.0,
      "soil_mult": 0.95,
      "humidity_mult": 1.028,
      "raw_dynamic_score": 0.0,
      "dynamic_level": "None"
    },
    {
      "id": "158",
      "country": "Cameroon",
      "name": "Loum",
      "latitude": 4.7182,
      "longitude": 9.7351,
      "base_risk": 9.16,
      "rain_6h_mm": 3.5,
      "humidity_avg": 94.2,
      "soil_moisture_avg": 0.0,
      "rain_mult": 0.035,
      "soil_mult": 0.95,
      "humidity_mult": 1.047,
      "raw_dynamic_score": 0.319,
      "dynamic_level": "Low"
    },
    {
      "id": "159",
      "country": "Cameroon",
      "name": "Mbouda",
      "latitude": 5.6258,
      "longitude": 10.2552,
      "base_risk": 9.33,
      "rain_6h_mm": 0.0,
      "humidity_avg": 84.3,
      "soil_moisture_avg": 0.0,
      "rain_mult": 0.0,
      "soil_mult": 0.95,
      "humidity_mult": 1.042,
      "raw_dynamic_score": 0.0,
      "dynamic_level": "None"
    },
    {
      "id": "165",
      "country": "Canada",
      "name": "Kitchener-Cambrigde-Waterloo",
      "latitude": 43.4254,
      "longitude": -80.5112,
      "base_risk": 8.96,
      "rain_6h_mm": 0.0,
      "humidity_avg": 68.8,
      "soil_moisture_avg": 0.0,
      "rain_mult": 0.0,
      "soil_mult": 0.95,
      "humidity_mult": 1.034,
      "raw_dynamic_score": 0.0,
      "dynamic_level": "None"
    },
    {
      "id": "166",
      "country": "Canada",
      "name": "London",
      "latitude": 42.9834,
      "longitude": -81.233,
      "base_risk": 9.01,
      "rain_6h_mm": 0.0,
      "humidity_avg": 69.2,
      "soil_moisture_avg": 0.0,
      "rain_mult": 0.0,
      "soil_mult": 0.95,
      "humidity_mult": 1.035,
      "raw_dynamic_score": 0.0,
      "dynamic_level": "None"
    },
    {
      "id": "167",
      "country": "Canada",
      "name": "Montréal",
      "latitude": 45.5088,
      "longitude": -73.5878,
      "base_risk": 9.19,
      "rain_6h_mm": 0.0,
      "humidity_avg": 76.5,
      "soil_moisture_avg": 0.0,
      "rain_mult": 0.0,
      "soil_mult": 0.95,
      "humidity_mult": 1.038,
      "raw_dynamic_score": 0.0,
      "dynamic_level": "None"
    },
    {
      "id": "168",
      "country": "Canada",
      "name": "Oshawa",
      "latitude": 43.9001,
      "longitude": -78.8496,
      "base_risk": 9.17,
      "rain_6h_mm": 0.0,
      "humidity_avg": 64.8,
      "soil_moisture_avg": 0.0,
      "rain_mult": 0.0,
      "soil_mult": 0.95,
      "humidity_mult": 1.032,
      "raw_dynamic_score": 0.0,
      "dynamic_level": "None"
    },
    {
      "id": "169",
      "country": "Canada",
      "name": "Ottawa-Gatineau",
      "latitude": 45.4166,
      "longitude": -75.698,
      "base_risk": 9.43,
      "rain_6h_mm": 0.0,
      "humidity_avg": 76.2,
      "soil_moisture_avg": 0.0,
      "rain_mult": 0.0,
      "soil_mult": 0.95,
      "humidity_mult": 1.038,
      "raw_dynamic_score": 0.0,
      "dynamic_level": "None"
    },
    {
      "id": "173",
      "country": "Canada",
      "name": "Toronto",
      "latitude": 43.7001,
      "longitude": -79.4163,
      "base_risk": 8.92,
      "rain_6h_mm": 0.0,
      "humidity_avg": 62.8,
      "soil_moisture_avg": 0.0,
      "rain_mult": 0.0,
      "soil_mult": 0.95,
      "humidity_mult": 1.031,
      "raw_dynamic_score": 0.0,
      "dynamic_level": "None"
    },
    {
      "id": "174",
      "country": "Canada",
      "name": "Vancouver",
      "latitude": 49.2497,
      "longitude": -123.1193,
      "base_risk": 9.1,
      "rain_6h_mm": 0.0,
      "humidity_avg": 78.8,
      "soil_moisture_avg": 0.0,
      "rain_mult": 0.0,
      "soil_mult": 0.95,
      "humidity_mult": 1.039,
      "raw_dynamic_score": 0.0,
      "dynamic_level": "None"
    },
    {
      "id": "175",
      "country": "Canada",
      "name": "Victoria",
      "latitude": 48.4329,
      "longitude": -123.3693,
      "base_risk": 9.05,
      "rain_6h_mm": 0.0,
      "humidity_avg": 76.0,
      "soil_moisture_avg": 0.0,
      "rain_mult": 0.0,
      "soil_mult": 0.95,
      "humidity_mult": 1.038,
      "raw_dynamic_score": 0.0,
      "dynamic_level": "None"
    },
    {
      "id": "176",
      "country": "Canada",
      "name": "Windsor",
      "latitude": 42.2811,
      "longitude": -83.0079,
      "base_risk": 9.01,
      "rain_6h_mm": 0.0,
      "humidity_avg": 56.8,
      "soil_moisture_avg": 0.0,
      "rain_mult": 0.0,
      "soil_mult": 0.95,
      "humidity_mult": 1.028,
      "raw_dynamic_score": 0.0,
      "dynamic_level": "None"
    },
    {
      "id": "182",
      "country": "Chile",
      "name": "La Serena-Coquimbo",
      "latitude": -29.9045,
      "longitude": -71.2489,
      "base_risk": 8.62,
      "rain_6h_mm": 0.0,
      "humidity_avg": 80.8,
      "soil_moisture_avg": 0.0,
      "rain_mult": 0.0,
      "soil_mult": 0.95,
      "humidity_mult": 1.04,
      "raw_dynamic_score": 0.0,
      "dynamic_level": "None"
    },
    {
      "id": "183",
      "country": "Chile",
      "name": "Santiago",
      "latitude": -33.4569,
      "longitude": -70.6483,
      "base_risk": 8.97,
      "rain_6h_mm": 0.0,
      "humidity_avg": 49.3,
      "soil_moisture_avg": 0.0,
      "rain_mult": 0.0,
      "soil_mult": 0.95,
      "humidity_mult": 1.025,
      "raw_dynamic_score": 0.0,
      "dynamic_level": "None"
    },
    {
      "id": "184",
      "country": "Chile",
      "name": "Temuco",
      "latitude": -38.7333,
      "longitude": -72.6,
      "base_risk": 9.22,
      "rain_6h_mm": 0.3,
      "humidity_avg": 65.5,
      "soil_moisture_avg": 0.0,
      "rain_mult": 0.003,
      "soil_mult": 0.95,
      "humidity_mult": 1.033,
      "raw_dynamic_score": 0.027,
      "dynamic_level": "Low"
    },
    {
      "id": "185",
      "country": "Chile",
      "name": "Valparaíso",
      "latitude": -33.0393,
      "longitude": -71.6273,
      "base_risk": 9.37,
      "rain_6h_mm": 0.0,
      "humidity_avg": 82.3,
      "soil_moisture_avg": 0.0,
      "rain_mult": 0.0,
      "soil_mult": 0.95,
      "humidity_mult": 1.041,
      "raw_dynamic_score": 0.0,
      "dynamic_level": "None"
    },
    {
      "id": "186",
      "country": "China",
      "name": "Akesu",
      "latitude": 41.1695,
      "longitude": 80.2626,
      "base_risk": 8.89,
      "rain_6h_mm": 0.0,
      "humidity_avg": 64.2,
      "soil_moisture_avg": 0.0,
      "rain_mult": 0.0,
      "soil_mult": 0.95,
      "humidity_mult": 1.032,
      "raw_dynamic_score": 0.0,
      "dynamic_level": "None"
    },
    {
      "id": "189",
      "country": "China",
      "name": "Anning",
      "latitude": 24.9211,
      "longitude": 102.4784,
      "base_risk": 8.75,
      "rain_6h_mm": 15.5,
      "humidity_avg": 98.2,
      "soil_moisture_avg": 0.0,
      "rain_mult": 0.155,
      "soil_mult": 0.95,
      "humidity_mult": 1.049,
      "raw_dynamic_score": 1.352,
      "dynamic_level": "Low"
    },
    {
      "id": "194",
      "country": "China",
      "name": "Anyang",
      "latitude": 36.0944,
      "longitude": 114.3503,
      "base_risk": 9.44,
      "rain_6h_mm": 0.0,
      "humidity_avg": 86.0,
      "soil_moisture_avg": 0.0,
      "rain_mult": 0.0,
      "soil_mult": 0.95,
      "humidity_mult": 1.043,
      "raw_dynamic_score": 0.0,
      "dynamic_level": "None"
    },
    {
      "id": "195",
      "country": "China",
      "name": "Baicheng",
      "latitude": 45.6183,
      "longitude": 122.8418,
      "base_risk": 9.33,
      "rain_6h_mm": 0.0,
      "humidity_avg": 69.3,
      "soil_moisture_avg": 0.0,
      "rain_mult": 0.0,
      "soil_mult": 0.95,
      "humidity_mult": 1.035,
      "raw_dynamic_score": 0.0,
      "dynamic_level": "None"
    },
    {
      "id": "196",
      "country": "China",
      "name": "Baishan",
      "latitude": 41.9373,
      "longitude": 126.4229,
      "base_risk": 9.41,
      "rain_6h_mm": 0.0,
      "humidity_avg": 97.3,
      "soil_moisture_avg": 0.0,
      "rain_mult": 0.0,
      "soil_mult": 0.95,
      "humidity_mult": 1.049,
      "raw_dynamic_score": 0.0,
      "dynamic_level": "None"
    },
    {
      "id": "197",
      "country": "China",
      "name": "Baiyin",
      "latitude": 36.5487,
      "longitude": 104.1831,
      "base_risk": 9.14,
      "rain_6h_mm": 0.0,
      "humidity_avg": 71.7,
      "soil_moisture_avg": 0.0,
      "rain_mult": 0.0,
      "soil_mult": 0.95,
      "humidity_mult": 1.036,
      "raw_dynamic_score": 0.0,
      "dynamic_level": "None"
    },
    {
      "id": "203",
      "country": "China",
      "name": "Beihai",
      "latitude": 21.4785,
      "longitude": 109.12,
      "base_risk": 9.5,
      "rain_6h_mm": 0.0,
      "humidity_avg": 93.0,
      "soil_moisture_avg": 0.0,
      "rain_mult": 0.0,
      "soil_mult": 0.95,
      "humidity_mult": 1.046,
      "raw_dynamic_score": 0.0,
      "dynamic_level": "None"
    },
    {
      "id": "204",
      "country": "China",
      "name": "Beijing",
      "latitude": 39.9075,
      "longitude": 116.3972,
      "base_risk": 8.96,
      "rain_6h_mm": 0.0,
      "humidity_avg": 60.3,
      "soil_moisture_avg": 0.0,
      "rain_mult": 0.0,
      "soil_mult": 0.95,
      "humidity_mult": 1.03,
      "raw_dynamic_score": 0.0,
      "dynamic_level": "None"
    },
    {
      "id": "205",
      "country": "China",
      "name": "Bengbu",
      "latitude": 32.9408,
      "longitude": 117.3608,
      "base_risk": 9.19,
      "rain_6h_mm": 0.0,
      "humidity_avg": 94.8,
      "soil_moisture_avg": 0.0,
      "rain_mult": 0.0,
      "soil_mult": 0.95,
      "humidity_mult": 1.047,
      "raw_dynamic_score": 0.0,
      "dynamic_level": "None"
    },
    {
      "id": "206",
      "country": "China",
      "name": "Benxi",
      "latitude": 41.2886,
      "longitude": 123.765,
      "base_risk": 8.95,
      "rain_6h_mm": 0.0,
      "humidity_avg": 93.2,
      "soil_moisture_avg": 0.0,
      "rain_mult": 0.0,
      "soil_mult": 0.95,
      "humidity_mult": 1.047,
      "raw_dynamic_score": 0.0,
      "dynamic_level": "None"
    },
    {
      "id": "207",
      "country": "China",
      "name": "Bijie",
      "latitude": 27.307,
      "longitude": 105.2837,
      "base_risk": 9.1,
      "rain_6h_mm": 19.0,
      "humidity_avg": 94.2,
      "soil_moisture_avg": 0.0,
      "rain_mult": 0.19,
      "soil_mult": 0.95,
      "humidity_mult": 1.047,
      "raw_dynamic_score": 1.72,
      "dynamic_level": "Low"
    },
    {
      "id": "213",
      "country": "China",
      "name": "Changchun",
      "latitude": 43.8825,
      "longitude": 125.294,
      "base_risk": 9.45,
      "rain_6h_mm": 0.2,
      "humidity_avg": 90.2,
      "soil_moisture_avg": 0.0,
      "rain_mult": 0.002,
      "soil_mult": 0.95,
      "humidity_mult": 1.045,
      "raw_dynamic_score": 0.019,
      "dynamic_level": "Low"
    },
    {
      "id": "214",
      "country": "China",
      "name": "Changde",
      "latitude": 29.0464,
      "longitude": 111.6783,
      "base_risk": 9.11,
      "rain_6h_mm": 12.4,
      "humidity_avg": 94.8,
      "soil_moisture_avg": 0.0,
      "rain_mult": 0.124,
      "soil_mult": 0.95,
      "humidity_mult": 1.047,
      "raw_dynamic_score": 1.124,
      "dynamic_level": "Low"
    },
    {
      "id": "215",
      "country": "China",
      "name": "Changge",
      "latitude": 34.2224,
      "longitude": 113.7736,
      "base_risk": 9.5,
      "rain_6h_mm": 0.0,
      "humidity_avg": 89.7,
      "soil_moisture_avg": 0.0,
      "rain_mult": 0.0,
      "soil_mult": 0.95,
      "humidity_mult": 1.045,
      "raw_dynamic_score": 0.0,
      "dynamic_level": "None"
    },
    {
      "id": "216",
      "country": "China",
      "name": "Changji",
      "latitude": 44.0117,
      "longitude": 87.3038,
      "base_risk": 9.32,
      "rain_6h_mm": 0.0,
      "humidity_avg": 80.2,
      "soil_moisture_avg": 0.0,
      "rain_mult": 0.0,
      "soil_mult": 0.95,
      "humidity_mult": 1.04,
      "raw_dynamic_score": 0.0,
      "dynamic_level": "None"
    },
    {
      "id": "217",
      "country": "China",
      "name": "Changning",
      "latitude": 26.4078,
      "longitude": 112.3957,
      "base_risk": 9.45,
      "rain_6h_mm": 0.0,
      "humidity_avg": 90.0,
      "soil_moisture_avg": 0.0,
      "rain_mult": 0.0,
      "soil_mult": 0.95,
      "humidity_mult": 1.045,
      "raw_dynamic_score": 0.0,
      "dynamic_level": "None"
    },
    {
      "id": "223",
      "country": "China",
      "name": "Chaohu",
      "latitude": 31.6,
      "longitude": 117.8667,
      "base_risk": 8.88,
      "rain_6h_mm": 0.0,
      "humidity_avg": 89.7,
      "soil_moisture_avg": 0.0,
      "rain_mult": 0.0,
      "soil_mult": 0.95,
      "humidity_mult": 1.045,
      "raw_dynamic_score": 0.0,
      "dynamic_level": "None"
    },
    {
      "id": "224",
      "country": "China",
      "name": "Chaoyang",
      "latitude": 41.5773,
      "longitude": 120.4511,
      "base_risk": 9.05,
      "rain_6h_mm": 0.0,
      "humidity_avg": 41.5,
      "soil_moisture_avg": 0.0,
      "rain_mult": 0.0,
      "soil_mult": 0.95,
      "humidity_mult": 1.021,
      "raw_dynamic_score": 0.0,
      "dynamic_level": "None"
    },
    {
      "id": "225",
      "country": "China",
      "name": "Chaozhou",
      "latitude": 23.6651,
      "longitude": 116.6379,
      "base_risk": 9.41,
      "rain_6h_mm": 0.0,
      "humidity_avg": 90.8,
      "soil_moisture_avg": 0.0,
      "rain_mult": 0.0,
      "soil_mult": 0.95,
      "humidity_mult": 1.045,
      "raw_dynamic_score": 0.0,
      "dynamic_level": "None"
    },
    {
      "id": "226",
      "country": "China",
      "name": "Chengde",
      "latitude": 40.9672,
      "longitude": 117.9322,
      "base_risk": 9.08,
      "rain_6h_mm": 0.0,
      "humidity_avg": 45.3,
      "soil_moisture_avg": 0.0,
      "rain_mult": 0.0,
      "soil_mult": 0.95,
      "humidity_mult": 1.023,
      "raw_dynamic_score": 0.0,
      "dynamic_level": "None"
    },
    {
      "id": "227",
      "country": "China",
      "name": "Chengdu",
      "latitude": 30.6667,
      "longitude": 104.0667,
      "base_risk": 9.37,
      "rain_6h_mm": 0.0,
      "humidity_avg": 80.3,
      "soil_moisture_avg": 0.0,
      "rain_mult": 0.0,
      "soil_mult": 0.95,
      "humidity_mult": 1.04,
      "raw_dynamic_score": 0.0,
      "dynamic_level": "None"
    },
    {
      "id": "230",
      "country": "China",
      "name": "Chizhou",
      "latitude": 30.6578,
      "longitude": 117.4831,
      "base_risk": 9.07,
      "rain_6h_mm": 0.0,
      "humidity_avg": 93.0,
      "soil_moisture_avg": 0.0,
      "rain_mult": 0.0,
      "soil_mult": 0.95,
      "humidity_mult": 1.046,
      "raw_dynamic_score": 0.0,
      "dynamic_level": "None"
    },
    {
      "id": "234",
      "country": "China",
      "name": "Cixi",
      "latitude": 30.1761,
      "longitude": 121.2524,
      "base_risk": 9.31,
      "rain_6h_mm": 0.5,
      "humidity_avg": 92.8,
      "soil_moisture_avg": 0.0,
      "rain_mult": 0.005,
      "soil_mult": 0.95,
      "humidity_mult": 1.046,
      "raw_dynamic_score": 0.046,
      "dynamic_level": "Low"
    },
    {
      "id": "235",
      "country": "China",
      "name": "Dali",
      "latitude": 25.59,
      "longitude": 100.2235,
      "base_risk": 9.37,
      "rain_6h_mm": 0.0,
      "humidity_avg": 92.2,
      "soil_moisture_avg": 0.0,
      "rain_mult": 0.0,
      "soil_mult": 0.95,
      "humidity_mult": 1.046,
      "raw_dynamic_score": 0.0,
      "dynamic_level": "None"
    },
    {
      "id": "236",
      "country": "China",
      "name": "Dalian",
      "latitude": 38.9138,
      "longitude": 121.6023,
      "base_risk": 9.38,
      "rain_6h_mm": 0.0,
      "humidity_avg": 90.3,
      "soil_moisture_avg": 0.0,
      "rain_mult": 0.0,
      "soil_mult": 0.95,
      "humidity_mult": 1.045,
      "raw_dynamic_score": 0.0,
      "dynamic_level": "None"
    },
    {
      "id": "237",
      "country": "China",
      "name": "Dandong",
      "latitude": 40.1198,
      "longitude": 124.3739,
      "base_risk": 9.13,
      "rain_6h_mm": 0.0,
      "humidity_avg": 99.3,
      "soil_moisture_avg": 0.0,
      "rain_mult": 0.0,
      "soil_mult": 0.95,
      "humidity_mult": 1.05,
      "raw_dynamic_score": 0.0,
      "dynamic_level": "None"
    },
    {
      "id": "238",
      "country": "China",
      "name": "Danyang",
      "latitude": 32.0008,
      "longitude": 119.5745,
      "base_risk": 9.3,
      "rain_6h_mm": 0.0,
      "humidity_avg": 91.2,
      "soil_moisture_avg": 0.0,
      "rain_mult": 0.0,
      "soil_mult": 0.95,
      "humidity_mult": 1.046,
      "raw_dynamic_score": 0.0,
      "dynamic_level": "None"
    },
    {
      "id": "240",
      "country": "China",
      "name": "Daqing",
      "latitude": 46.5833,
      "longitude": 125.0,
      "base_risk": 9.32,
      "rain_6h_mm": 0.0,
      "humidity_avg": 75.7,
      "soil_moisture_avg": 0.0,
      "rain_mult": 0.0,
      "soil_mult": 0.95,
      "humidity_mult": 1.038,
      "raw_dynamic_score": 0.0,
      "dynamic_level": "None"
    },
    {
      "id": "244",
      "country": "China",
      "name": "Dazhou",
      "latitude": 31.2159,
      "longitude": 107.5009,
      "base_risk": 8.61,
      "rain_6h_mm": 1.2,
      "humidity_avg": 90.3,
      "soil_moisture_avg": 0.0,
      "rain_mult": 0.012,
      "soil_mult": 0.95,
      "humidity_mult": 1.045,
      "raw_dynamic_score": 0.103,
      "dynamic_level": "Low"
    },
    {
      "id": "245",
      "country": "China",
      "name": "Dengfeng",
      "latitude": 34.4553,
      "longitude": 113.0281,
      "base_risk": 9.43,
      "rain_6h_mm": 0.0,
      "humidity_avg": 75.8,
      "soil_moisture_avg": 0.0,
      "rain_mult": 0.0,
      "soil_mult": 0.95,
      "humidity_mult": 1.038,
      "raw_dynamic_score": 0.0,
      "dynamic_level": "None"
    },
    {
      "id": "246",
      "country": "China",
      "name": "Dengzhou",
      "latitude": 32.6822,
      "longitude": 112.0819,
      "base_risk": 8.84,
      "rain_6h_mm": 0.0,
      "humidity_avg": 92.5,
      "soil_moisture_avg": 0.0,
      "rain_mult": 0.0,
      "soil_mult": 0.95,
      "humidity_mult": 1.046,
      "raw_dynamic_score": 0.0,
      "dynamic_level": "None"
    },
    {
      "id": "247",
      "country": "China",
      "name": "Deyang",
      "latitude": 31.1302,
      "longitude": 104.382,
      "base_risk": 8.94,
      "rain_6h_mm": 0.0,
      "humidity_avg": 88.5,
      "soil_moisture_avg": 0.0,
      "rain_mult": 0.0,
      "soil_mult": 0.95,
      "humidity_mult": 1.044,
      "raw_dynamic_score": 0.0,
      "dynamic_level": "None"
    },
    {
      "id": "251",
      "country": "China",
      "name": "Dongguan",
      "latitude": 23.0212,
      "longitude": 113.7414,
      "base_risk": 9.42,
      "rain_6h_mm": 0.0,
      "humidity_avg": 82.3,
      "soil_moisture_avg": 0.0,
      "rain_mult": 0.0,
      "soil_mult": 0.95,
      "humidity_mult": 1.041,
      "raw_dynamic_score": 0.0,
      "dynamic_level": "None"
    },
    {
      "id": "254",
      "country": "China",
      "name": "Dongying",
      "latitude": 37.4533,
      "longitude": 118.5785,
      "base_risk": 8.79,
      "rain_6h_mm": 0.0,
      "humidity_avg": 97.8,
      "soil_moisture_avg": 0.0,
      "rain_mult": 0.0,
      "soil_mult": 0.95,
      "humidity_mult": 1.049,
      "raw_dynamic_score": 0.0,
      "dynamic_level": "None"
    },
    {
      "id": "255",
      "country": "China",
      "name": "Dujiangyan",
      "latitude": 30.9966,
      "longitude": 103.6281,
      "base_risk": 8.88,
      "rain_6h_mm": 1.8,
      "humidity_avg": 87.8,
      "soil_moisture_avg": 0.0,
      "rain_mult": 0.018,
      "soil_mult": 0.95,
      "humidity_mult": 1.044,
      "raw_dynamic_score": 0.159,
      "dynamic_level": "Low"
    },
    {
      "id": "256",
      "country": "China",
      "name": "Emeishan",
      "latitude": 29.6007,
      "longitude": 103.4856,
      "base_risk": 9.4,
      "rain_6h_mm": 0.0,
      "humidity_avg": 79.2,
      "soil_moisture_avg": 0.0,
      "rain_mult": 0.0,
      "soil_mult": 0.95,
      "humidity_mult": 1.04,
      "raw_dynamic_score": 0.0,
      "dynamic_level": "None"
    },
    {
      "id": "257",
      "country": "China",
      "name": "Enping",
      "latitude": 22.1853,
      "longitude": 112.3048,
      "base_risk": 8.94,
      "rain_6h_mm": 0.0,
      "humidity_avg": 95.3,
      "soil_moisture_avg": 0.0,
      "rain_mult": 0.0,
      "soil_mult": 0.95,
      "humidity_mult": 1.048,
      "raw_dynamic_score": 0.0,
      "dynamic_level": "None"
    },
    {
      "id": "258",
      "country": "China",
      "name": "Enshi",
      "latitude": 30.2902,
      "longitude": 109.4785,
      "base_risk": 9.13,
      "rain_6h_mm": 7.1,
      "humidity_avg": 96.2,
      "soil_moisture_avg": 0.0,
      "rain_mult": 0.071,
      "soil_mult": 0.95,
      "humidity_mult": 1.048,
      "raw_dynamic_score": 0.645,
      "dynamic_level": "Low"
    },
    {
      "id": "259",
      "country": "China",
      "name": "Erduosi (Ordoss)",
      "latitude": 39.5917,
      "longitude": 109.7666,
      "base_risk": 8.74,
      "rain_6h_mm": 0.0,
      "humidity_avg": 63.0,
      "soil_moisture_avg": 0.0,
      "rain_mult": 0.0,
      "soil_mult": 0.95,
      "humidity_mult": 1.032,
      "raw_dynamic_score": 0.0,
      "dynamic_level": "None"
    },
    {
      "id": "260",
      "country": "China",
      "name": "Ezhou",
      "latitude": 30.4001,
      "longitude": 114.8846,
      "base_risk": 8.94,
      "rain_6h_mm": 0.3,
      "humidity_avg": 89.5,
      "soil_moisture_avg": 0.0,
      "rain_mult": 0.003,
      "soil_mult": 0.95,
      "humidity_mult": 1.045,
      "raw_dynamic_score": 0.027,
      "dynamic_level": "Low"
    },
    {
      "id": "263",
      "country": "China",
      "name": "Fengcheng",
      "latitude": 28.1787,
      "longitude": 115.7758,
      "base_risk": 9.5,
      "rain_6h_mm": 0.0,
      "humidity_avg": 86.2,
      "soil_moisture_avg": 0.0,
      "rain_mult": 0.0,
      "soil_mult": 0.95,
      "humidity_mult": 1.043,
      "raw_dynamic_score": 0.0,
      "dynamic_level": "None"
    },
    {
      "id": "264",
      "country": "China",
      "name": "Foshan",
      "latitude": 23.0228,
      "longitude": 113.12,
      "base_risk": 9.09,
      "rain_6h_mm": 0.0,
      "humidity_avg": 84.8,
      "soil_moisture_avg": 0.0,
      "rain_mult": 0.0,
      "soil_mult": 0.95,
      "humidity_mult": 1.042,
      "raw_dynamic_score": 0.0,
      "dynamic_level": "None"
    },
    {
      "id": "267",
      "country": "China",
      "name": "Fuqing",
      "latitude": 25.725,
      "longitude": 119.3794,
      "base_risk": 9.43,
      "rain_6h_mm": 0.0,
      "humidity_avg": 74.7,
      "soil_moisture_avg": 0.0,
      "rain_mult": 0.0,
      "soil_mult": 0.95,
      "humidity_mult": 1.037,
      "raw_dynamic_score": 0.0,
      "dynamic_level": "None"
    },
    {
      "id": "268",
      "country": "China",
      "name": "Fushun, Liaoning",
      "latitude": 41.8807,
      "longitude": 123.9467,
      "base_risk": 9.47,
      "rain_6h_mm": 0.0,
      "humidity_avg": 98.5,
      "soil_moisture_avg": 0.0,
      "rain_mult": 0.0,
      "soil_mult": 0.95,
      "humidity_mult": 1.049,
      "raw_dynamic_score": 0.0,
      "dynamic_level": "None"
    },
    {
      "id": "272",
      "country": "China",
      "name": "Fuzhou, Jiangxi",
      "latitude": 27.9812,
      "longitude": 116.3557,
      "base_risk": 9.36,
      "rain_6h_mm": 0.0,
      "humidity_avg": 88.8,
      "soil_moisture_avg": 0.0,
      "rain_mult": 0.0,
      "soil_mult": 0.95,
      "humidity_mult": 1.044,
      "raw_dynamic_score": 0.0,
      "dynamic_level": "None"
    },
    {
      "id": "273",
      "country": "China",
      "name": "Ganzhou",
      "latitude": 25.85,
      "longitude": 114.9333,
      "base_risk": 8.63,
      "rain_6h_mm": 0.0,
      "humidity_avg": 85.0,
      "soil_moisture_avg": 0.0,
      "rain_mult": 0.0,
      "soil_mult": 0.95,
      "humidity_mult": 1.042,
      "raw_dynamic_score": 0.0,
      "dynamic_level": "None"
    },
    {
      "id": "274",
      "country": "China",
      "name": "Gaoan",
      "latitude": 28.4271,
      "longitude": 115.3722,
      "base_risk": 9.0,
      "rain_6h_mm": 0.3,
      "humidity_avg": 88.8,
      "soil_moisture_avg": 0.0,
      "rain_mult": 0.003,
      "soil_mult": 0.95,
      "humidity_mult": 1.044,
      "raw_dynamic_score": 0.027,
      "dynamic_level": "Low"
    },
    {
      "id": "275",
      "country": "China",
      "name": "Gaomi",
      "latitude": 36.3833,
      "longitude": 119.7528,
      "base_risk": 9.13,
      "rain_6h_mm": 0.0,
      "humidity_avg": 96.7,
      "soil_moisture_avg": 0.0,
      "rain_mult": 0.0,
      "soil_mult": 0.95,
      "humidity_mult": 1.048,
      "raw_dynamic_score": 0.0,
      "dynamic_level": "None"
    },
    {
      "id": "276",
      "country": "China",
      "name": "Gaoping",
      "latitude": 35.7977,
      "longitude": 112.923,
      "base_risk": 9.41,
      "rain_6h_mm": 0.0,
      "humidity_avg": 86.2,
      "soil_moisture_avg": 0.0,
      "rain_mult": 0.0,
      "soil_mult": 0.95,
      "humidity_mult": 1.043,
      "raw_dynamic_score": 0.0,
      "dynamic_level": "None"
    },
    {
      "id": "279",
      "country": "China",
      "name": "Gongyi",
      "latitude": 34.76,
      "longitude": 112.9714,
      "base_risk": 9.2,
      "rain_6h_mm": 0.0,
      "humidity_avg": 73.8,
      "soil_moisture_avg": 0.0,
      "rain_mult": 0.0,
      "soil_mult": 0.95,
      "humidity_mult": 1.037,
      "raw_dynamic_score": 0.0,
      "dynamic_level": "None"
    },
    {
      "id": "280",
      "country": "China",
      "name": "Gongzhuling",
      "latitude": 43.5008,
      "longitude": 124.8198,
      "base_risk": 9.1,
      "rain_6h_mm": 0.0,
      "humidity_avg": 87.0,
      "soil_moisture_avg": 0.0,
      "rain_mult": 0.0,
      "soil_mult": 0.95,
      "humidity_mult": 1.044,
      "raw_dynamic_score": 0.0,
      "dynamic_level": "None"
    },
    {
      "id": "283",
      "country": "China",
      "name": "Guangzhou, Guangdong",
      "latitude": 23.1255,
      "longitude": 113.2574,
      "base_risk": 9.5,
      "rain_6h_mm": 0.0,
      "humidity_avg": 84.8,
      "soil_moisture_avg": 0.0,
      "rain_mult": 0.0,
      "soil_mult": 0.95,
      "humidity_mult": 1.042,
      "raw_dynamic_score": 0.0,
      "dynamic_level": "None"
    },
    {
      "id": "284",
      "country": "China",
      "name": "Guigang",
      "latitude": 23.0964,
      "longitude": 109.6092,
      "base_risk": 9.29,
      "rain_6h_mm": 0.0,
      "humidity_avg": 87.0,
      "soil_moisture_avg": 0.0,
      "rain_mult": 0.0,
      "soil_mult": 0.95,
      "humidity_mult": 1.044,
      "raw_dynamic_score": 0.0,
      "dynamic_level": "None"
    },
    {
      "id": "285",
      "country": "China",
      "name": "Guilin",
      "latitude": 25.2819,
      "longitude": 110.2864,
      "base_risk": 9.5,
      "rain_6h_mm": 0.0,
      "humidity_avg": 84.5,
      "soil_moisture_avg": 0.0,
      "rain_mult": 0.0,
      "soil_mult": 0.95,
      "humidity_mult": 1.042,
      "raw_dynamic_score": 0.0,
      "dynamic_level": "None"
    },
    {
      "id": "291",
      "country": "China",
      "name": "Hailin",
      "latitude": 44.5769,
      "longitude": 129.3896,
      "base_risk": 8.59,
      "rain_6h_mm": 0.0,
      "humidity_avg": 95.5,
      "soil_moisture_avg": 0.0,
      "rain_mult": 0.0,
      "soil_mult": 0.95,
      "humidity_mult": 1.048,
      "raw_dynamic_score": 0.0,
      "dynamic_level": "None"
    },
    {
      "id": "292",
      "country": "China",
      "name": "Haimen",
      "latitude": 31.8952,
      "longitude": 121.1684,
      "base_risk": 9.39,
      "rain_6h_mm": 0.0,
      "humidity_avg": 89.8,
      "soil_moisture_avg": 0.0,
      "rain_mult": 0.0,
      "soil_mult": 0.95,
      "humidity_mult": 1.045,
      "raw_dynamic_score": 0.0,
      "dynamic_level": "None"
    },
    {
      "id": "293",
      "country": "China",
      "name": "Haining",
      "latitude": 30.5273,
      "longitude": 120.6897,
      "base_risk": 9.13,
      "rain_6h_mm": 0.1,
      "humidity_avg": 92.7,
      "soil_moisture_avg": 0.0,
      "rain_mult": 0.001,
      "soil_mult": 0.95,
      "humidity_mult": 1.046,
      "raw_dynamic_score": 0.009,
      "dynamic_level": "Low"
    },
    {
      "id": "294",
      "country": "China",
      "name": "Haiyang",
      "latitude": 36.7823,
      "longitude": 121.1703,
      "base_risk": 8.9,
      "rain_6h_mm": 0.0,
      "humidity_avg": 90.8,
      "soil_moisture_avg": 0.0,
      "rain_mult": 0.0,
      "soil_mult": 0.95,
      "humidity_mult": 1.045,
      "raw_dynamic_score": 0.0,
      "dynamic_level": "None"
    },
    {
      "id": "295",
      "country": "China",
      "name": "Hami",
      "latitude": 42.8259,
      "longitude": 93.5169,
      "base_risk": 9.0,
      "rain_6h_mm": 0.0,
      "humidity_avg": 85.0,
      "soil_moisture_avg": 0.0,
      "rain_mult": 0.0,
      "soil_mult": 0.95,
      "humidity_mult": 1.042,
      "raw_dynamic_score": 0.0,
      "dynamic_level": "None"
    },
    {
      "id": "299",
      "country": "China",
      "name": "Hanzhong",
      "latitude": 33.0728,
      "longitude": 107.0303,
      "base_risk": 9.06,
      "rain_6h_mm": 0.4,
      "humidity_avg": 93.7,
      "soil_moisture_avg": 0.0,
      "rain_mult": 0.004,
      "soil_mult": 0.95,
      "humidity_mult": 1.047,
      "raw_dynamic_score": 0.036,
      "dynamic_level": "Low"
    },
    {
      "id": "300",
      "country": "China",
      "name": "Hebi",
      "latitude": 35.747,
      "longitude": 114.2956,
      "base_risk": 9.38,
      "rain_6h_mm": 0.0,
      "humidity_avg": 85.3,
      "soil_moisture_avg": 0.0,
      "rain_mult": 0.0,
      "soil_mult": 0.95,
      "humidity_mult": 1.043,
      "raw_dynamic_score": 0.0,
      "dynamic_level": "None"
    },
    {
      "id": "301",
      "country": "China",
      "name": "Hechi",
      "latitude": 24.6977,
      "longitude": 108.0808,
      "base_risk": 8.68,
      "rain_6h_mm": 0.0,
      "humidity_avg": 93.0,
      "soil_moisture_avg": 0.0,
      "rain_mult": 0.0,
      "soil_mult": 0.95,
      "humidity_mult": 1.046,
      "raw_dynamic_score": 0.0,
      "dynamic_level": "None"
    },
    {
      "id": "305",
      "country": "China",
      "name": "Hengshui",
      "latitude": 37.7411,
      "longitude": 115.6781,
      "base_risk": 9.14,
      "rain_6h_mm": 0.0,
      "humidity_avg": 88.3,
      "soil_moisture_avg": 0.0,
      "rain_mult": 0.0,
      "soil_mult": 0.95,
      "humidity_mult": 1.044,
      "raw_dynamic_score": 0.0,
      "dynamic_level": "None"
    },
    {
      "id": "306",
      "country": "China",
      "name": "Hengyang",
      "latitude": 26.8841,
      "longitude": 112.6251,
      "base_risk": 8.99,
      "rain_6h_mm": 0.0,
      "humidity_avg": 91.2,
      "soil_moisture_avg": 0.0,
      "rain_mult": 0.0,
      "soil_mult": 0.95,
      "humidity_mult": 1.046,
      "raw_dynamic_score": 0.0,
      "dynamic_level": "None"
    },
    {
      "id": "310",
      "country": "China",
      "name": "Hezhou",
      "latitude": 24.4152,
      "longitude": 111.554,
      "base_risk": 9.29,
      "rain_6h_mm": 0.0,
      "humidity_avg": 87.8,
      "soil_moisture_avg": 0.0,
      "rain_mult": 0.0,
      "soil_mult": 0.95,
      "humidity_mult": 1.044,
      "raw_dynamic_score": 0.0,
      "dynamic_level": "None"
    },
    {
      "id": "311",
      "country": "China",
      "name": "Hohhot",
      "latitude": 40.8106,
      "longitude": 111.6522,
      "base_risk": 8.99,
      "rain_6h_mm": 0.0,
      "humidity_avg": 71.5,
      "soil_moisture_avg": 0.0,
      "rain_mult": 0.0,
      "soil_mult": 0.95,
      "humidity_mult": 1.036,
      "raw_dynamic_score": 0.0,
      "dynamic_level": "None"
    },
    {
      "id": "312",
      "country": "China",
      "name": "Huai'an",
      "latitude": 33.607,
      "longitude": 119.0148,
      "base_risk": 9.47,
      "rain_6h_mm": 0.0,
      "humidity_avg": 96.3,
      "soil_moisture_avg": 0.0,
      "rain_mult": 0.0,
      "soil_mult": 0.95,
      "humidity_mult": 1.048,
      "raw_dynamic_score": 0.0,
      "dynamic_level": "None"
    },
    {
      "id": "313",
      "country": "China",
      "name": "Huaibei",
      "latitude": 33.9549,
      "longitude": 116.7929,
      "base_risk": 9.23,
      "rain_6h_mm": 0.0,
      "humidity_avg": 98.8,
      "soil_moisture_avg": 0.0,
      "rain_mult": 0.0,
      "soil_mult": 0.95,
      "humidity_mult": 1.049,
      "raw_dynamic_score": 0.0,
      "dynamic_level": "None"
    },
    {
      "id": "314",
      "country": "China",
      "name": "Huaihua",
      "latitude": 27.5494,
      "longitude": 109.9592,
      "base_risk": 9.44,
      "rain_6h_mm": 6.3,
      "humidity_avg": 89.2,
      "soil_moisture_avg": 0.0,
      "rain_mult": 0.063,
      "soil_mult": 0.95,
      "humidity_mult": 1.045,
      "raw_dynamic_score": 0.59,
      "dynamic_level": "Low"
    },
    {
      "id": "315",
      "country": "China",
      "name": "Huainan",
      "latitude": 32.6264,
      "longitude": 116.9969,
      "base_risk": 9.11,
      "rain_6h_mm": 0.0,
      "humidity_avg": 94.5,
      "soil_moisture_avg": 0.0,
      "rain_mult": 0.0,
      "soil_mult": 0.95,
      "humidity_mult": 1.047,
      "raw_dynamic_score": 0.0,
      "dynamic_level": "None"
    },
    {
      "id": "320",
      "country": "China",
      "name": "Huizhou",
      "latitude": 23.0833,
      "longitude": 114.4,
      "base_risk": 9.06,
      "rain_6h_mm": 0.0,
      "humidity_avg": 93.3,
      "soil_moisture_avg": 0.0,
      "rain_mult": 0.0,
      "soil_mult": 0.95,
      "humidity_mult": 1.047,
      "raw_dynamic_score": 0.0,
      "dynamic_level": "None"
    },
    {
      "id": "321",
      "country": "China",
      "name": "Huludao",
      "latitude": 40.7524,
      "longitude": 120.8355,
      "base_risk": 9.31,
      "rain_6h_mm": 0.0,
      "humidity_avg": 74.3,
      "soil_moisture_avg": 0.0,
      "rain_mult": 0.0,
      "soil_mult": 0.95,
      "humidity_mult": 1.037,
      "raw_dynamic_score": 0.0,
      "dynamic_level": "None"
    },
    {
      "id": "322",
      "country": "China",
      "name": "Huzhou",
      "latitude": 30.8703,
      "longitude": 120.0933,
      "base_risk": 9.07,
      "rain_6h_mm": 0.0,
      "humidity_avg": 91.5,
      "soil_moisture_avg": 0.0,
      "rain_mult": 0.0,
      "soil_mult": 0.95,
      "humidity_mult": 1.046,
      "raw_dynamic_score": 0.0,
      "dynamic_level": "None"
    },
    {
      "id": "323",
      "country": "China",
      "name": "Jiamusi",
      "latitude": 46.7979,
      "longitude": 130.3302,
      "base_risk": 9.05,
      "rain_6h_mm": 0.0,
      "humidity_avg": 93.3,
      "soil_moisture_avg": 0.0,
      "rain_mult": 0.0,
      "soil_mult": 0.95,
      "humidity_mult": 1.047,
      "raw_dynamic_score": 0.0,
      "dynamic_level": "None"
    },
    {
      "id": "328",
      "country": "China",
      "name": "Jiaozhou",
      "latitude": 36.2839,
      "longitude": 120.0033,
      "base_risk": 9.02,
      "rain_6h_mm": 0.0,
      "humidity_avg": 98.3,
      "soil_moisture_avg": 0.0,
      "rain_mult": 0.0,
      "soil_mult": 0.95,
      "humidity_mult": 1.049,
      "raw_dynamic_score": 0.0,
      "dynamic_level": "None"
    },
    {
      "id": "329",
      "country": "China",
      "name": "Jiaozuo",
      "latitude": 35.2397,
      "longitude": 113.2331,
      "base_risk": 8.72,
      "rain_6h_mm": 0.0,
      "humidity_avg": 52.8,
      "soil_moisture_avg": 0.0,
      "rain_mult": 0.0,
      "soil_mult": 0.95,
      "humidity_mult": 1.026,
      "raw_dynamic_score": 0.0,
      "dynamic_level": "None"
    },
    {
      "id": "330",
      "country": "China",
      "name": "Jiaxing",
      "latitude": 30.7665,
      "longitude": 120.7482,
      "base_risk": 8.97,
      "rain_6h_mm": 0.0,
      "humidity_avg": 92.5,
      "soil_moisture_avg": 0.0,
      "rain_mult": 0.0,
      "soil_mult": 0.95,
      "humidity_mult": 1.046,
      "raw_dynamic_score": 0.0,
      "dynamic_level": "None"
    },
    {
      "id": "331",
      "country": "China",
      "name": "Jiayuguan",
      "latitude": 39.808,
      "longitude": 98.2761,
      "base_risk": 9.29,
      "rain_6h_mm": 0.0,
      "humidity_avg": 51.0,
      "soil_moisture_avg": 0.0,
      "rain_mult": 0.0,
      "soil_mult": 0.95,
      "humidity_mult": 1.026,
      "raw_dynamic_score": 0.0,
      "dynamic_level": "None"
    },
    {
      "id": "333",
      "country": "China",
      "name": "Jilin",
      "latitude": 43.8508,
      "longitude": 126.5603,
      "base_risk": 9.16,
      "rain_6h_mm": 0.1,
      "humidity_avg": 84.8,
      "soil_moisture_avg": 0.0,
      "rain_mult": 0.001,
      "soil_mult": 0.95,
      "humidity_mult": 1.042,
      "raw_dynamic_score": 0.009,
      "dynamic_level": "Low"
    },
    {
      "id": "337",
      "country": "China",
      "name": "Jingjiang",
      "latitude": 32.012,
      "longitude": 120.2627,
      "base_risk": 9.47,
      "rain_6h_mm": 0.0,
      "humidity_avg": 90.7,
      "soil_moisture_avg": 0.0,
      "rain_mult": 0.0,
      "soil_mult": 0.95,
      "humidity_mult": 1.045,
      "raw_dynamic_score": 0.0,
      "dynamic_level": "None"
    },
    {
      "id": "338",
      "country": "China",
      "name": "Jingmen",
      "latitude": 31.0417,
      "longitude": 112.2003,
      "base_risk": 9.46,
      "rain_6h_mm": 0.2,
      "humidity_avg": 82.0,
      "soil_moisture_avg": 0.0,
      "rain_mult": 0.002,
      "soil_mult": 0.95,
      "humidity_mult": 1.041,
      "raw_dynamic_score": 0.019,
      "dynamic_level": "Low"
    },
    {
      "id": "339",
      "country": "China",
      "name": "Jingzhou, Hubei",
      "latitude": 30.3276,
      "longitude": 112.2484,
      "base_risk": 9.25,
      "rain_6h_mm": 4.7,
      "humidity_avg": 91.7,
      "soil_moisture_avg": 0.0,
      "rain_mult": 0.047,
      "soil_mult": 0.95,
      "humidity_mult": 1.046,
      "raw_dynamic_score": 0.432,
      "dynamic_level": "Low"
    },
    {
      "id": "340",
      "country": "China",
      "name": "Jinhua",
      "latitude": 29.0807,
      "longitude": 119.6464,
      "base_risk": 9.33,
      "rain_6h_mm": 0.4,
      "humidity_avg": 88.3,
      "soil_moisture_avg": 0.0,
      "rain_mult": 0.004,
      "soil_mult": 0.95,
      "humidity_mult": 1.044,
      "raw_dynamic_score": 0.037,
      "dynamic_level": "Low"
    },
    {
      "id": "341",
      "country": "China",
      "name": "Jining, Shandong",
      "latitude": 35.4146,
      "longitude": 116.5847,
      "base_risk": 8.9,
      "rain_6h_mm": 0.0,
      "humidity_avg": 99.5,
      "soil_moisture_avg": 0.0,
      "rain_mult": 0.0,
      "soil_mult": 0.95,
      "humidity_mult": 1.05,
      "raw_dynamic_score": 0.0,
      "dynamic_level": "None"
    },
    {
      "id": "347",
      "country": "China",
      "name": "Jixi, Heilongjiang",
      "latitude": 45.2958,
      "longitude": 130.9701,
      "base_risk": 8.96,
      "rain_6h_mm": 0.0,
      "humidity_avg": 83.2,
      "soil_moisture_avg": 0.0,
      "rain_mult": 0.0,
      "soil_mult": 0.95,
      "humidity_mult": 1.042,
      "raw_dynamic_score": 0.0,
      "dynamic_level": "None"
    },
    {
      "id": "348",
      "country": "China",
      "name": "Jiyuan",
      "latitude": 35.0926,
      "longitude": 112.5833,
      "base_risk": 9.41,
      "rain_6h_mm": 0.0,
      "humidity_avg": 86.0,
      "soil_moisture_avg": 0.0,
      "rain_mult": 0.0,
      "soil_mult": 0.95,
      "humidity_mult": 1.043,
      "raw_dynamic_score": 0.0,
      "dynamic_level": "None"
    },
    {
      "id": "349",
      "country": "China",
      "name": "Jurong",
      "latitude": 31.9498,
      "longitude": 119.1609,
      "base_risk": 8.84,
      "rain_6h_mm": 0.0,
      "humidity_avg": 92.2,
      "soil_moisture_avg": 0.0,
      "rain_mult": 0.0,
      "soil_mult": 0.95,
      "humidity_mult": 1.046,
      "raw_dynamic_score": 0.0,
      "dynamic_level": "None"
    },
    {
      "id": "350",
      "country": "China",
      "name": "Kaifeng",
      "latitude": 34.7911,
      "longitude": 114.3483,
      "base_risk": 9.35,
      "rain_6h_mm": 0.0,
      "humidity_avg": 90.0,
      "soil_moisture_avg": 0.0,
      "rain_mult": 0.0,
      "soil_mult": 0.95,
      "humidity_mult": 1.045,
      "raw_dynamic_score": 0.0,
      "dynamic_level": "None"
    },
    {
      "id": "351",
      "country": "China",
      "name": "Kaili",
      "latitude": 26.5834,
      "longitude": 107.9719,
      "base_risk": 9.49,
      "rain_6h_mm": 9.9,
      "humidity_avg": 91.0,
      "soil_moisture_avg": 0.0,
      "rain_mult": 0.099,
      "soil_mult": 0.95,
      "humidity_mult": 1.046,
      "raw_dynamic_score": 0.933,
      "dynamic_level": "Low"
    },
    {
      "id": "352",
      "country": "China",
      "name": "Kaiping",
      "latitude": 22.3724,
      "longitude": 112.7026,
      "base_risk": 9.24,
      "rain_6h_mm": 0.0,
      "humidity_avg": 96.0,
      "soil_moisture_avg": 0.0,
      "rain_mult": 0.0,
      "soil_mult": 0.95,
      "humidity_mult": 1.048,
      "raw_dynamic_score": 0.0,
      "dynamic_level": "None"
    },
    {
      "id": "357",
      "country": "China",
      "name": "Laibin",
      "latitude": 23.738,
      "longitude": 109.2268,
      "base_risk": 9.27,
      "rain_6h_mm": 0.0,
      "humidity_avg": 83.2,
      "soil_moisture_avg": 0.0,
      "rain_mult": 0.0,
      "soil_mult": 0.95,
      "humidity_mult": 1.042,
      "raw_dynamic_score": 0.0,
      "dynamic_level": "None"
    },
    {
      "id": "358",
      "country": "China",
      "name": "Laiwu",
      "latitude": 36.2074,
      "longitude": 117.672,
      "base_risk": 9.07,
      "rain_6h_mm": 0.0,
      "humidity_avg": 100.0,
      "soil_moisture_avg": 0.0,
      "rain_mult": 0.0,
      "soil_mult": 0.95,
      "humidity_mult": 1.05,
      "raw_dynamic_score": 0.0,
      "dynamic_level": "None"
    },
    {
      "id": "363",
      "country": "China",
      "name": "Lanzhou",
      "latitude": 36.0564,
      "longitude": 103.7922,
      "base_risk": 9.02,
      "rain_6h_mm": 0.0,
      "humidity_avg": 87.7,
      "soil_moisture_avg": 0.0,
      "rain_mult": 0.0,
      "soil_mult": 0.95,
      "humidity_mult": 1.044,
      "raw_dynamic_score": 0.0,
      "dynamic_level": "None"
    },
    {
      "id": "364",
      "country": "China",
      "name": "Leiyang",
      "latitude": 26.4169,
      "longitude": 112.8503,
      "base_risk": 9.21,
      "rain_6h_mm": 0.0,
      "humidity_avg": 93.7,
      "soil_moisture_avg": 0.0,
      "rain_mult": 0.0,
      "soil_mult": 0.95,
      "humidity_mult": 1.047,
      "raw_dynamic_score": 0.0,
      "dynamic_level": "None"
    },
    {
      "id": "365",
      "country": "China",
      "name": "Lengshuijiang",
      "latitude": 27.6879,
      "longitude": 111.4374,
      "base_risk": 9.24,
      "rain_6h_mm": 1.9,
      "humidity_avg": 91.5,
      "soil_moisture_avg": 0.0,
      "rain_mult": 0.019,
      "soil_mult": 0.95,
      "humidity_mult": 1.046,
      "raw_dynamic_score": 0.174,
      "dynamic_level": "Low"
    },
    {
      "id": "366",
      "country": "China",
      "name": "Leping",
      "latitude": 28.972,
      "longitude": 117.1283,
      "base_risk": 9.5,
      "rain_6h_mm": 0.0,
      "humidity_avg": 86.5,
      "soil_moisture_avg": 0.0,
      "rain_mult": 0.0,
      "soil_mult": 0.95,
      "humidity_mult": 1.043,
      "raw_dynamic_score": 0.0,
      "dynamic_level": "None"
    },
    {
      "id": "367",
      "country": "China",
      "name": "Leshan",
      "latitude": 29.5762,
      "longitude": 103.759,
      "base_risk": 8.97,
      "rain_6h_mm": 0.0,
      "humidity_avg": 87.3,
      "soil_moisture_avg": 0.0,
      "rain_mult": 0.0,
      "soil_mult": 0.95,
      "humidity_mult": 1.044,
      "raw_dynamic_score": 0.0,
      "dynamic_level": "None"
    },
    {
      "id": "372",
      "country": "China",
      "name": "Liling",
      "latitude": 27.6667,
      "longitude": 113.5,
      "base_risk": 9.43,
      "rain_6h_mm": 0.0,
      "humidity_avg": 95.5,
      "soil_moisture_avg": 0.0,
      "rain_mult": 0.0,
      "soil_mult": 0.95,
      "humidity_mult": 1.048,
      "raw_dynamic_score": 0.0,
      "dynamic_level": "None"
    },
    {
      "id": "373",
      "country": "China",
      "name": "Linfen",
      "latitude": 36.0889,
      "longitude": 111.5189,
      "base_risk": 9.39,
      "rain_6h_mm": 0.0,
      "humidity_avg": 62.2,
      "soil_moisture_avg": 0.0,
      "rain_mult": 0.0,
      "soil_mult": 0.95,
      "humidity_mult": 1.031,
      "raw_dynamic_score": 0.0,
      "dynamic_level": "None"
    },
    {
      "id": "374",
      "country": "China",
      "name": "Linhai",
      "latitude": 28.8529,
      "longitude": 121.1403,
      "base_risk": 9.13,
      "rain_6h_mm": 0.2,
      "humidity_avg": 87.8,
      "soil_moisture_avg": 0.0,
      "rain_mult": 0.002,
      "soil_mult": 0.95,
      "humidity_mult": 1.044,
      "raw_dynamic_score": 0.018,
      "dynamic_level": "Low"
    },
    {
      "id": "375",
      "country": "China",
      "name": "Linqing",
      "latitude": 36.8456,
      "longitude": 115.7117,
      "base_risk": 9.39,
      "rain_6h_mm": 0.0,
      "humidity_avg": 95.3,
      "soil_moisture_avg": 0.0,
      "rain_mult": 0.0,
      "soil_mult": 0.95,
      "humidity_mult": 1.048,
      "raw_dynamic_score": 0.0,
      "dynamic_level": "None"
    },
    {
      "id": "376",
      "country": "China",
      "name": "Linyi, Shandong",
      "latitude": 35.0541,
      "longitude": 118.3334,
      "base_risk": 9.35,
      "rain_6h_mm": 0.0,
      "humidity_avg": 98.8,
      "soil_moisture_avg": 0.0,
      "rain_mult": 0.0,
      "soil_mult": 0.95,
      "humidity_mult": 1.049,
      "raw_dynamic_score": 0.0,
      "dynamic_level": "None"
    },
    {
      "id": "381",
      "country": "China",
      "name": "Liuyang",
      "latitude": 28.15,
      "longitude": 113.6333,
      "base_risk": 9.29,
      "rain_6h_mm": 2.4,
      "humidity_avg": 95.3,
      "soil_moisture_avg": 0.0,
      "rain_mult": 0.024,
      "soil_mult": 0.95,
      "humidity_mult": 1.048,
      "raw_dynamic_score": 0.222,
      "dynamic_level": "Low"
    },
    {
      "id": "382",
      "country": "China",
      "name": "Liuzhou",
      "latitude": 24.3017,
      "longitude": 109.3784,
      "base_risk": 8.76,
      "rain_6h_mm": 0.0,
      "humidity_avg": 85.5,
      "soil_moisture_avg": 0.0,
      "rain_mult": 0.0,
      "soil_mult": 0.95,
      "humidity_mult": 1.043,
      "raw_dynamic_score": 0.0,
      "dynamic_level": "None"
    },
    {
      "id": "383",
      "country": "China",
      "name": "Liyang",
      "latitude": 31.423,
      "longitude": 119.4837,
      "base_risk": 9.21,
      "rain_6h_mm": 0.0,
      "humidity_avg": 91.8,
      "soil_moisture_avg": 0.0,
      "rain_mult": 0.0,
      "soil_mult": 0.95,
      "humidity_mult": 1.046,
      "raw_dynamic_score": 0.0,
      "dynamic_level": "None"
    },
    {
      "id": "384",
      "country": "China",
      "name": "Longchang",
      "latitude": 29.3394,
      "longitude": 105.2876,
      "base_risk": 9.36,
      "rain_6h_mm": 0.0,
      "humidity_avg": 87.5,
      "soil_moisture_avg": 0.0,
      "rain_mult": 0.0,
      "soil_mult": 0.95,
      "humidity_mult": 1.044,
      "raw_dynamic_score": 0.0,
      "dynamic_level": "None"
    },
    {
      "id": "385",
      "country": "China",
      "name": "Longhai",
      "latitude": 24.4462,
      "longitude": 117.809,
      "base_risk": 9.37,
      "rain_6h_mm": 0.0,
      "humidity_avg": 93.2,
      "soil_moisture_avg": 0.0,
      "rain_mult": 0.0,
      "soil_mult": 0.95,
      "humidity_mult": 1.047,
      "raw_dynamic_score": 0.0,
      "dynamic_level": "None"
    },
    {
      "id": "389",
      "country": "China",
      "name": "Luoding",
      "latitude": 22.7708,
      "longitude": 111.566,
      "base_risk": 9.41,
      "rain_6h_mm": 0.0,
      "humidity_avg": 98.7,
      "soil_moisture_avg": 0.0,
      "rain_mult": 0.0,
      "soil_mult": 0.95,
      "humidity_mult": 1.049,
      "raw_dynamic_score": 0.0,
      "dynamic_level": "None"
    },
    {
      "id": "390",
      "country": "China",
      "name": "Luohe",
      "latitude": 33.5731,
      "longitude": 114.0241,
      "base_risk": 9.13,
      "rain_6h_mm": 0.0,
      "humidity_avg": 99.2,
      "soil_moisture_avg": 0.0,
      "rain_mult": 0.0,
      "soil_mult": 0.95,
      "humidity_mult": 1.05,
      "raw_dynamic_score": 0.0,
      "dynamic_level": "None"
    },
    {
      "id": "391",
      "country": "China",
      "name": "Luoyang",
      "latitude": 34.6186,
      "longitude": 112.4562,
      "base_risk": 9.35,
      "rain_6h_mm": 0.0,
      "humidity_avg": 74.0,
      "soil_moisture_avg": 0.0,
      "rain_mult": 0.0,
      "soil_mult": 0.95,
      "humidity_mult": 1.037,
      "raw_dynamic_score": 0.0,
      "dynamic_level": "None"
    },
    {
      "id": "394",
      "country": "China",
      "name": "Ma'anshan",
      "latitude": 31.7071,
      "longitude": 118.5038,
      "base_risk": 9.18,
      "rain_6h_mm": 0.0,
      "humidity_avg": 89.7,
      "soil_moisture_avg": 0.0,
      "rain_mult": 0.0,
      "soil_mult": 0.95,
      "humidity_mult": 1.045,
      "raw_dynamic_score": 0.0,
      "dynamic_level": "None"
    },
    {
      "id": "395",
      "country": "China",
      "name": "Macheng",
      "latitude": 31.1783,
      "longitude": 115.0319,
      "base_risk": 9.26,
      "rain_6h_mm": 0.2,
      "humidity_avg": 88.0,
      "soil_moisture_avg": 0.0,
      "rain_mult": 0.002,
      "soil_mult": 0.95,
      "humidity_mult": 1.044,
      "raw_dynamic_score": 0.018,
      "dynamic_level": "Low"
    },
    {
      "id": "396",
      "country": "China",
      "name": "Manzhouli",
      "latitude": 49.5881,
      "longitude": 117.4545,
      "base_risk": 9.19,
      "rain_6h_mm": 0.0,
      "humidity_avg": 78.3,
      "soil_moisture_avg": 0.0,
      "rain_mult": 0.0,
      "soil_mult": 0.95,
      "humidity_mult": 1.039,
      "raw_dynamic_score": 0.0,
      "dynamic_level": "None"
    },
    {
      "id": "397",
      "country": "China",
      "name": "Maoming",
      "latitude": 21.6627,
      "longitude": 110.9234,
      "base_risk": 8.87,
      "rain_6h_mm": 0.0,
      "humidity_avg": 94.0,
      "soil_moisture_avg": 0.0,
      "rain_mult": 0.0,
      "soil_mult": 0.95,
      "humidity_mult": 1.047,
      "raw_dynamic_score": 0.0,
      "dynamic_level": "None"
    },
    {
      "id": "398",
      "country": "China",
      "name": "Meishan",
      "latitude": 30.0761,
      "longitude": 103.8456,
      "base_risk": 8.72,
      "rain_6h_mm": 0.0,
      "humidity_avg": 87.2,
      "soil_moisture_avg": 0.0,
      "rain_mult": 0.0,
      "soil_mult": 0.95,
      "humidity_mult": 1.044,
      "raw_dynamic_score": 0.0,
      "dynamic_level": "None"
    },
    {
      "id": "399",
      "country": "China",
      "name": "Meizhou",
      "latitude": 24.2989,
      "longitude": 116.1214,
      "base_risk": 9.45,
      "rain_6h_mm": 0.0,
      "humidity_avg": 86.3,
      "soil_moisture_avg": 0.0,
      "rain_mult": 0.0,
      "soil_mult": 0.95,
      "humidity_mult": 1.043,
      "raw_dynamic_score": 0.0,
      "dynamic_level": "None"
    },
    {
      "id": "403",
      "country": "China",
      "name": "Nanchang",
      "latitude": 28.6833,
      "longitude": 115.8833,
      "base_risk": 9.47,
      "rain_6h_mm": 0.8,
      "humidity_avg": 86.7,
      "soil_moisture_avg": 0.0,
      "rain_mult": 0.008,
      "soil_mult": 0.95,
      "humidity_mult": 1.043,
      "raw_dynamic_score": 0.075,
      "dynamic_level": "Low"
    },
    {
      "id": "405",
      "country": "China",
      "name": "Nanjing, Jiangsu",
      "latitude": 32.0482,
      "longitude": 118.7898,
      "base_risk": 8.64,
      "rain_6h_mm": 0.0,
      "humidity_avg": 90.7,
      "soil_moisture_avg": 0.0,
      "rain_mult": 0.0,
      "soil_mult": 0.95,
      "humidity_mult": 1.045,
      "raw_dynamic_score": 0.0,
      "dynamic_level": "None"
    },
    {
      "id": "406",
      "country": "China",
      "name": "Nankang",
      "latitude": 25.6655,
      "longitude": 114.7558,
      "base_risk": 9.4,
      "rain_6h_mm": 0.0,
      "humidity_avg": 86.8,
      "soil_moisture_avg": 0.0,
      "rain_mult": 0.0,
      "soil_mult": 0.95,
      "humidity_mult": 1.043,
      "raw_dynamic_score": 0.0,
      "dynamic_level": "None"
    },
    {
      "id": "409",
      "country": "China",
      "name": "Nantong",
      "latitude": 31.9904,
      "longitude": 120.8655,
      "base_risk": 8.72,
      "rain_6h_mm": 0.0,
      "humidity_avg": 86.2,
      "soil_moisture_avg": 0.0,
      "rain_mult": 0.0,
      "soil_mult": 0.95,
      "humidity_mult": 1.043,
      "raw_dynamic_score": 0.0,
      "dynamic_level": "None"
    },
    {
      "id": "410",
      "country": "China",
      "name": "Nanyang, Henan",
      "latitude": 32.9999,
      "longitude": 112.5259,
      "base_risk": 9.48,
      "rain_6h_mm": 0.0,
      "humidity_avg": 97.5,
      "soil_moisture_avg": 0.0,
      "rain_mult": 0.0,
      "soil_mult": 0.95,
      "humidity_mult": 1.049,
      "raw_dynamic_score": 0.0,
      "dynamic_level": "None"
    },
    {
      "id": "411",
      "country": "China",
      "name": "Neijiang",
      "latitude": 29.5835,
      "longitude": 105.0622,
      "base_risk": 9.49,
      "rain_6h_mm": 0.0,
      "humidity_avg": 91.8,
      "soil_moisture_avg": 0.0,
      "rain_mult": 0.0,
      "soil_mult": 0.95,
      "humidity_mult": 1.046,
      "raw_dynamic_score": 0.0,
      "dynamic_level": "None"
    },
    {
      "id": "412",
      "country": "China",
      "name": "Ningbo",
      "latitude": 29.8782,
      "longitude": 121.5495,
      "base_risk": 8.82,
      "rain_6h_mm": 0.5,
      "humidity_avg": 89.7,
      "soil_moisture_avg": 0.0,
      "rain_mult": 0.005,
      "soil_mult": 0.95,
      "humidity_mult": 1.045,
      "raw_dynamic_score": 0.044,
      "dynamic_level": "Low"
    },
    {
      "id": "417",
      "country": "China",
      "name": "Pingdingshan, Henan",
      "latitude": 33.7417,
      "longitude": 113.304,
      "base_risk": 8.61,
      "rain_6h_mm": 0.0,
      "humidity_avg": 74.7,
      "soil_moisture_avg": 0.0,
      "rain_mult": 0.0,
      "soil_mult": 0.95,
      "humidity_mult": 1.037,
      "raw_dynamic_score": 0.0,
      "dynamic_level": "None"
    },
    {
      "id": "418",
      "country": "China",
      "name": "Pingdu",
      "latitude": 36.7808,
      "longitude": 119.9592,
      "base_risk": 9.42,
      "rain_6h_mm": 0.0,
      "humidity_avg": 98.7,
      "soil_moisture_avg": 0.0,
      "rain_mult": 0.0,
      "soil_mult": 0.95,
      "humidity_mult": 1.049,
      "raw_dynamic_score": 0.0,
      "dynamic_level": "None"
    },
    {
      "id": "419",
      "country": "China",
      "name": "Pinghu",
      "latitude": 30.7037,
      "longitude": 121.0097,
      "base_risk": 9.41,
      "rain_6h_mm": 0.1,
      "humidity_avg": 92.7,
      "soil_moisture_avg": 0.0,
      "rain_mult": 0.001,
      "soil_mult": 0.95,
      "humidity_mult": 1.046,
      "raw_dynamic_score": 0.009,
      "dynamic_level": "Low"
    },
    {
      "id": "420",
      "country": "China",
      "name": "Pingliang",
      "latitude": 35.5392,
      "longitude": 106.6861,
      "base_risk": 9.43,
      "rain_6h_mm": 0.0,
      "humidity_avg": 82.5,
      "soil_moisture_avg": 0.0,
      "rain_mult": 0.0,
      "soil_mult": 0.95,
      "humidity_mult": 1.041,
      "raw_dynamic_score": 0.0,
      "dynamic_level": "None"
    },
    {
      "id": "421",
      "country": "China",
      "name": "Pingxiang, Jiangxi",
      "latitude": 27.6348,
      "longitude": 113.8477,
      "base_risk": 9.5,
      "rain_6h_mm": 0.0,
      "humidity_avg": 96.0,
      "soil_moisture_avg": 0.0,
      "rain_mult": 0.0,
      "soil_mult": 0.95,
      "humidity_mult": 1.048,
      "raw_dynamic_score": 0.0,
      "dynamic_level": "None"
    },
    {
      "id": "425",
      "country": "China",
      "name": "Puyang",
      "latitude": 35.7705,
      "longitude": 115.0438,
      "base_risk": 9.13,
      "rain_6h_mm": 0.0,
      "humidity_avg": 97.8,
      "soil_moisture_avg": 0.0,
      "rain_mult": 0.0,
      "soil_mult": 0.95,
      "humidity_mult": 1.049,
      "raw_dynamic_score": 0.0,
      "dynamic_level": "None"
    },
    {
      "id": "426",
      "country": "China",
      "name": "Qianjiang",
      "latitude": 30.4221,
      "longitude": 112.8925,
      "base_risk": 9.44,
      "rain_6h_mm": 3.8,
      "humidity_avg": 94.0,
      "soil_moisture_avg": 0.0,
      "rain_mult": 0.038,
      "soil_mult": 0.95,
      "humidity_mult": 1.047,
      "raw_dynamic_score": 0.357,
      "dynamic_level": "Low"
    },
    {
      "id": "427",
      "country": "China",
      "name": "Qidong",
      "latitude": 31.8134,
      "longitude": 121.6577,
      "base_risk": 9.13,
      "rain_6h_mm": 0.0,
      "humidity_avg": 90.0,
      "soil_moisture_avg": 0.0,
      "rain_mult": 0.0,
      "soil_mult": 0.95,
      "humidity_mult": 1.045,
      "raw_dynamic_score": 0.0,
      "dynamic_level": "None"
    },
    {
      "id": "428",
      "country": "China",
      "name": "Qingdao",
      "latitude": 36.0986,
      "longitude": 120.3719,
      "base_risk": 8.98,
      "rain_6h_mm": 0.0,
      "humidity_avg": 95.2,
      "soil_moisture_avg": 0.0,
      "rain_mult": 0.0,
      "soil_mult": 0.95,
      "humidity_mult": 1.048,
      "raw_dynamic_score": 0.0,
      "dynamic_level": "None"
    },
    {
      "id": "431",
      "country": "China",
      "name": "Qinhuangdao",
      "latitude": 39.9317,
      "longitude": 119.5883,
      "base_risk": 9.2,
      "rain_6h_mm": 0.0,
      "humidity_avg": 91.3,
      "soil_moisture_avg": 0.0,
      "rain_mult": 0.0,
      "soil_mult": 0.95,
      "humidity_mult": 1.046,
      "raw_dynamic_score": 0.0,
      "dynamic_level": "None"
    },
    {
      "id": "433",
      "country": "China",
      "name": "Qiqihaer",
      "latitude": 47.3408,
      "longitude": 123.9672,
      "base_risk": 9.01,
      "rain_6h_mm": 0.0,
      "humidity_avg": 68.8,
      "soil_moisture_avg": 0.0,
      "rain_mult": 0.0,
      "soil_mult": 0.95,
      "humidity_mult": 1.034,
      "raw_dynamic_score": 0.0,
      "dynamic_level": "None"
    },
    {
      "id": "436",
      "country": "China",
      "name": "Qufu",
      "latitude": 35.5967,
      "longitude": 116.9911,
      "base_risk": 9.04,
      "rain_6h_mm": 0.0,
      "humidity_avg": 99.8,
      "soil_moisture_avg": 0.0,
      "rain_mult": 0.0,
      "soil_mult": 0.95,
      "humidity_mult": 1.05,
      "raw_dynamic_score": 0.0,
      "dynamic_level": "None"
    },
    {
      "id": "438",
      "country": "China",
      "name": "Quzhou",
      "latitude": 28.9594,
      "longitude": 118.8686,
      "base_risk": 8.67,
      "rain_6h_mm": 0.2,
      "humidity_avg": 90.2,
      "soil_moisture_avg": 0.0,
      "rain_mult": 0.002,
      "soil_mult": 0.95,
      "humidity_mult": 1.045,
      "raw_dynamic_score": 0.017,
      "dynamic_level": "Low"
    },
    {
      "id": "439",
      "country": "China",
      "name": "Renqiu",
      "latitude": 38.6989,
      "longitude": 116.0936,
      "base_risk": 9.46,
      "rain_6h_mm": 0.0,
      "humidity_avg": 62.8,
      "soil_moisture_avg": 0.0,
      "rain_mult": 0.0,
      "soil_mult": 0.95,
      "humidity_mult": 1.031,
      "raw_dynamic_score": 0.0,
      "dynamic_level": "None"
    },
    {
      "id": "440",
      "country": "China",
      "name": "Rizhao",
      "latitude": 35.4034,
      "longitude": 119.512,
      "base_risk": 9.46,
      "rain_6h_mm": 0.0,
      "humidity_avg": 97.5,
      "soil_moisture_avg": 0.0,
      "rain_mult": 0.0,
      "soil_mult": 0.95,
      "humidity_mult": 1.049,
      "raw_dynamic_score": 0.0,
      "dynamic_level": "None"
    },
    {
      "id": "443",
      "country": "China",
      "name": "Ruian",
      "latitude": 27.7808,
      "longitude": 120.6755,
      "base_risk": 9.08,
      "rain_6h_mm": 0.1,
      "humidity_avg": 91.7,
      "soil_moisture_avg": 0.0,
      "rain_mult": 0.001,
      "soil_mult": 0.95,
      "humidity_mult": 1.046,
      "raw_dynamic_score": 0.009,
      "dynamic_level": "Low"
    },
    {
      "id": "444",
      "country": "China",
      "name": "Rushan",
      "latitude": 36.9158,
      "longitude": 121.5267,
      "base_risk": 9.45,
      "rain_6h_mm": 0.0,
      "humidity_avg": 91.7,
      "soil_moisture_avg": 0.0,
      "rain_mult": 0.0,
      "soil_mult": 0.95,
      "humidity_mult": 1.046,
      "raw_dynamic_score": 0.0,
      "dynamic_level": "None"
    },
    {
      "id": "445",
      "country": "China",
      "name": "Sanhe",
      "latitude": 39.9819,
      "longitude": 117.0713,
      "base_risk": 9.26,
      "rain_6h_mm": 0.0,
      "humidity_avg": 83.3,
      "soil_moisture_avg": 0.0,
      "rain_mult": 0.0,
      "soil_mult": 0.95,
      "humidity_mult": 1.042,
      "raw_dynamic_score": 0.0,
      "dynamic_level": "None"
    },
    {
      "id": "450",
      "country": "China",
      "name": "Shangqiu",
      "latitude": 34.4244,
      "longitude": 115.6514,
      "base_risk": 8.85,
      "rain_6h_mm": 0.0,
      "humidity_avg": 97.7,
      "soil_moisture_avg": 0.0,
      "rain_mult": 0.0,
      "soil_mult": 0.95,
      "humidity_mult": 1.049,
      "raw_dynamic_score": 0.0,
      "dynamic_level": "None"
    },
    {
      "id": "451",
      "country": "China",
      "name": "Shangrao",
      "latitude": 28.4604,
      "longitude": 117.9531,
      "base_risk": 9.2,
      "rain_6h_mm": 0.2,
      "humidity_avg": 92.3,
      "soil_moisture_avg": 0.0,
      "rain_mult": 0.002,
      "soil_mult": 0.95,
      "humidity_mult": 1.046,
      "raw_dynamic_score": 0.018,
      "dynamic_level": "Low"
    },
    {
      "id": "452",
      "country": "China",
      "name": "Shangyu",
      "latitude": 30.0311,
      "longitude": 120.8722,
      "base_risk": 9.11,
      "rain_6h_mm": 0.1,
      "humidity_avg": 92.5,
      "soil_moisture_avg": 0.0,
      "rain_mult": 0.001,
      "soil_mult": 0.95,
      "humidity_mult": 1.046,
      "raw_dynamic_score": 0.009,
      "dynamic_level": "Low"
    },
    {
      "id": "453",
      "country": "China",
      "name": "Shantou",
      "latitude": 23.3681,
      "longitude": 116.7148,
      "base_risk": 8.88,
      "rain_6h_mm": 0.0,
      "humidity_avg": 86.0,
      "soil_moisture_avg": 0.0,
      "rain_mult": 0.0,
      "soil_mult": 0.95,
      "humidity_mult": 1.043,
      "raw_dynamic_score": 0.0,
      "dynamic_level": "None"
    },
    {
      "id": "454",
      "country": "China",
      "name": "Shanwei",
      "latitude": 22.7787,
      "longitude": 115.3568,
      "base_risk": 9.3,
      "rain_6h_mm": 0.0,
      "humidity_avg": 85.0,
      "soil_moisture_avg": 0.0,
      "rain_mult": 0.0,
      "soil_mult": 0.95,
      "humidity_mult": 1.042,
      "raw_dynamic_score": 0.0,
      "dynamic_level": "None"
    },
    {
      "id": "458",
      "country": "China",
      "name": "Shengzhou",
      "latitude": 29.593,
      "longitude": 120.8214,
      "base_risk": 9.02,
      "rain_6h_mm": 0.4,
      "humidity_avg": 87.5,
      "soil_moisture_avg": 0.0,
      "rain_mult": 0.004,
      "soil_mult": 0.95,
      "humidity_mult": 1.044,
      "raw_dynamic_score": 0.036,
      "dynamic_level": "Low"
    },
    {
      "id": "459",
      "country": "China",
      "name": "Shenmu",
      "latitude": 38.8341,
      "longitude": 110.4847,
      "base_risk": 9.2,
      "rain_6h_mm": 0.0,
      "humidity_avg": 70.3,
      "soil_moisture_avg": 0.0,
      "rain_mult": 0.0,
      "soil_mult": 0.95,
      "humidity_mult": 1.035,
      "raw_dynamic_score": 0.0,
      "dynamic_level": "None"
    },
    {
      "id": "460",
      "country": "China",
      "name": "Shenyang",
      "latitude": 41.7922,
      "longitude": 123.4328,
      "base_risk": 8.86,
      "rain_6h_mm": 0.0,
      "humidity_avg": 87.5,
      "soil_moisture_avg": 0.0,
      "rain_mult": 0.0,
      "soil_mult": 0.95,
      "humidity_mult": 1.044,
      "raw_dynamic_score": 0.0,
      "dynamic_level": "None"
    },
    {
      "id": "461",
      "country": "China",
      "name": "Shenzhen",
      "latitude": 22.5415,
      "longitude": 114.0634,
      "base_risk": 9.49,
      "rain_6h_mm": 0.0,
      "humidity_avg": 92.5,
      "soil_moisture_avg": 0.0,
      "rain_mult": 0.0,
      "soil_mult": 0.95,
      "humidity_mult": 1.046,
      "raw_dynamic_score": 0.0,
      "dynamic_level": "None"
    },