{
  "timestamp": "2025-11-12T05:09:37.516630Z",
  "source": "Open-Meteo",
  "forecast_window_hours": 6,
  "features_evaluated": 938,
  "alerts": [
    {
      "id": "1",
      "country": "Afghanistan",
      "name": "Herat",
      "latitude": 34.3482,
      "longitude": 62.1997,
      "base_risk": 9.5,
      "rain_6h_mm": 0.0,
      "humidity_avg": 30.8,
      "soil_moisture_avg": 0.0,
      "rain_mult": 0.0,
      "soil_mult": 0.95,
      "humidity_mult": 1.015,
      "raw_dynamic_score": 0.0,
      "dynamic_level": "None"
    },
    {
      "id": "2",
      "country": "Afghanistan",
      "name": "Kabul",
      "latitude": 34.5289,
      "longitude": 69.1725,
      "base_risk": 9.13,
      "rain_6h_mm": 0.0,
      "humidity_avg": 18.8,
      "soil_moisture_avg": 0.0,
      "rain_mult": 0.0,
      "soil_mult": 0.95,
      "humidity_mult": 1.009,
      "raw_dynamic_score": 0.0,
      "dynamic_level": "None"
    },
    {
      "id": "3",
      "country": "Afghanistan",
      "name": "Kandahar",
      "latitude": 31.6133,
      "longitude": 65.7101,
      "base_risk": 9.39,
      "rain_6h_mm": 0.0,
      "humidity_avg": 34.3,
      "soil_moisture_avg": 0.0,
      "rain_mult": 0.0,
      "soil_mult": 0.95,
      "humidity_mult": 1.017,
      "raw_dynamic_score": 0.0,
      "dynamic_level": "None"
    },
    {
      "id": "4",
      "country": "Afghanistan",
      "name": "Mazar-e Sharif",
      "latitude": 36.709,
      "longitude": 67.1109,
      "base_risk": 9.23,
      "rain_6h_mm": 0.0,
      "humidity_avg": 43.3,
      "soil_moisture_avg": 0.0,
      "rain_mult": 0.0,
      "soil_mult": 0.95,
      "humidity_mult": 1.022,
      "raw_dynamic_score": 0.0,
      "dynamic_level": "None"
    },
    {
      "id": "5",
      "country": "Albania",
      "name": "Tiranë (Tirana)",
      "latitude": 41.3275,
      "longitude": 19.8189,
      "base_risk": 9.32,
      "rain_6h_mm": 0.0,
      "humidity_avg": 92.8,
      "soil_moisture_avg": 0.0,
      "rain_mult": 0.0,
      "soil_mult": 0.95,
      "humidity_mult": 1.046,
      "raw_dynamic_score": 0.0,
      "dynamic_level": "None"
    },
    {
      "id": "11",
      "country": "Algeria",
      "name": "Qacentina",
      "latitude": 36.3549,
      "longitude": 6.6073,
      "base_risk": 9.09,
      "rain_6h_mm": 0.0,
      "humidity_avg": 78.8,
      "soil_moisture_avg": 0.0,
      "rain_mult": 0.0,
      "soil_mult": 0.95,
      "humidity_mult": 1.039,
      "raw_dynamic_score": 0.0,
      "dynamic_level": "None"
    },
    {
      "id": "12",
      "country": "Algeria",
      "name": "Sétif",
      "latitude": 36.1911,
      "longitude": 5.4137,
      "base_risk": 9.3,
      "rain_6h_mm": 0.0,
      "humidity_avg": 45.8,
      "soil_moisture_avg": 0.0,
      "rain_mult": 0.0,
      "soil_mult": 0.95,
      "humidity_mult": 1.023,
      "raw_dynamic_score": 0.0,
      "dynamic_level": "None"
    },
    {
      "id": "13",
      "country": "Algeria",
      "name": "Wahran (Oran)",
      "latitude": 35.6911,
      "longitude": -0.6417,
      "base_risk": 9.15,
      "rain_6h_mm": 0.0,
      "humidity_avg": 58.5,
      "soil_moisture_avg": 0.0,
      "rain_mult": 0.0,
      "soil_mult": 0.95,
      "humidity_mult": 1.029,
      "raw_dynamic_score": 0.0,
      "dynamic_level": "None"
    },
    {
      "id": "14",
      "country": "Angola",
      "name": "Benguela",
      "latitude": -12.576,
      "longitude": 13.405,
      "base_risk": 9.33,
      "rain_6h_mm": 0.1,
      "humidity_avg": 77.3,
      "soil_moisture_avg": 0.0,
      "rain_mult": 0.001,
      "soil_mult": 0.95,
      "humidity_mult": 1.039,
      "raw_dynamic_score": 0.009,
      "dynamic_level": "Low"
    },
    {
      "id": "15",
      "country": "Angola",
      "name": "Cabinda",
      "latitude": -5.55,
      "longitude": 12.2,
      "base_risk": 9.14,
      "rain_6h_mm": 18.1,
      "humidity_avg": 89.8,
      "soil_moisture_avg": 0.0,
      "rain_mult": 0.181,
      "soil_mult": 0.95,
      "humidity_mult": 1.045,
      "raw_dynamic_score": 1.642,
      "dynamic_level": "Low"
    },
    {
      "id": "21",
      "country": "Angola",
      "name": "Malanje",
      "latitude": -9.54,
      "longitude": 16.341,
      "base_risk": 9.23,
      "rain_6h_mm": 0.0,
      "humidity_avg": 93.2,
      "soil_moisture_avg": 0.0,
      "rain_mult": 0.0,
      "soil_mult": 0.95,
      "humidity_mult": 1.047,
      "raw_dynamic_score": 0.0,
      "dynamic_level": "None"
    },
    {
      "id": "22",
      "country": "Angola",
      "name": "Uige",
      "latitude": -7.1069,
      "longitude": 15.4406,
      "base_risk": 9.45,
      "rain_6h_mm": 0.2,
      "humidity_avg": 94.3,
      "soil_moisture_avg": 0.0,
      "rain_mult": 0.002,
      "soil_mult": 0.95,
      "humidity_mult": 1.047,
      "raw_dynamic_score": 0.019,
      "dynamic_level": "Low"
    },
    {
      "id": "23",
      "country": "Argentina",
      "name": "Bahia Blanca",
      "latitude": -38.7196,
      "longitude": -62.2724,
      "base_risk": 9.12,
      "rain_6h_mm": 0.0,
      "humidity_avg": 71.2,
      "soil_moisture_avg": 0.0,
      "rain_mult": 0.0,
      "soil_mult": 0.95,
      "humidity_mult": 1.036,
      "raw_dynamic_score": 0.0,
      "dynamic_level": "None"
    },
    {
      "id": "24",
      "country": "Argentina",
      "name": "Buenos Aires",
      "latitude": -34.6051,
      "longitude": -58.4004,
      "base_risk": 9.05,
      "rain_6h_mm": 0.1,
      "humidity_avg": 89.3,
      "soil_moisture_avg": 0.0,
      "rain_mult": 0.001,
      "soil_mult": 0.95,
      "humidity_mult": 1.045,
      "raw_dynamic_score": 0.009,
      "dynamic_level": "Low"
    },
    {
      "id": "25",
      "country": "Argentina",
      "name": "Córdoba",
      "latitude": -31.4135,
      "longitude": -64.1811,
      "base_risk": 9.23,
      "rain_6h_mm": 0.9,
      "humidity_avg": 73.8,
      "soil_moisture_avg": 0.0,
      "rain_mult": 0.009,
      "soil_mult": 0.95,
      "humidity_mult": 1.037,
      "raw_dynamic_score": 0.082,
      "dynamic_level": "Low"
    },
    {
      "id": "31",
      "country": "Argentina",
      "name": "Posadas",
      "latitude": -27.3671,
      "longitude": -55.8961,
      "base_risk": 9.29,
      "rain_6h_mm": 0.0,
      "humidity_avg": 70.2,
      "soil_moisture_avg": 0.0,
      "rain_mult": 0.0,
      "soil_mult": 0.95,
      "humidity_mult": 1.035,
      "raw_dynamic_score": 0.0,
      "dynamic_level": "None"
    },
    {
      "id": "32",
      "country": "Argentina",
      "name": "Resistencia",
      "latitude": -27.4606,
      "longitude": -58.9839,
      "base_risk": 9.42,
      "rain_6h_mm": 0.0,
      "humidity_avg": 80.7,
      "soil_moisture_avg": 0.0,
      "rain_mult": 0.0,
      "soil_mult": 0.95,
      "humidity_mult": 1.04,
      "raw_dynamic_score": 0.0,
      "dynamic_level": "None"
    },
    {
      "id": "33",
      "country": "Argentina",
      "name": "Rosario",
      "latitude": -32.9468,
      "longitude": -60.6393,
      "base_risk": 9.16,
      "rain_6h_mm": 0.4,
      "humidity_avg": 89.8,
      "soil_moisture_avg": 0.0,
      "rain_mult": 0.004,
      "soil_mult": 0.95,
      "humidity_mult": 1.045,
      "raw_dynamic_score": 0.036,
      "dynamic_level": "Low"
    },
    {
      "id": "34",
      "country": "Argentina",
      "name": "Salta",
      "latitude": -24.7859,
      "longitude": -65.4117,
      "base_risk": 9.39,
      "rain_6h_mm": 0.0,
      "humidity_avg": 73.8,
      "soil_moisture_avg": 0.0,
      "rain_mult": 0.0,
      "soil_mult": 0.95,
      "humidity_mult": 1.037,
      "raw_dynamic_score": 0.0,
      "dynamic_level": "None"
    },
    {
      "id": "35",
      "country": "Argentina",
      "name": "San Juan",
      "latitude": -31.5375,
      "longitude": -68.5364,
      "base_risk": 8.8,
      "rain_6h_mm": 0.3,
      "humidity_avg": 38.2,
      "soil_moisture_avg": 0.0,
      "rain_mult": 0.003,
      "soil_mult": 0.95,
      "humidity_mult": 1.019,
      "raw_dynamic_score": 0.026,
      "dynamic_level": "Low"
    },
    {
      "id": "41",
      "country": "Australia",
      "name": "Adelaide",
      "latitude": -34.9287,
      "longitude": 138.5986,
      "base_risk": 9.32,
      "rain_6h_mm": 0.0,
      "humidity_avg": 49.5,
      "soil_moisture_avg": 0.0,
      "rain_mult": 0.0,
      "soil_mult": 0.95,
      "humidity_mult": 1.025,
      "raw_dynamic_score": 0.0,
      "dynamic_level": "None"
    },
    {
      "id": "42",
      "country": "Australia",
      "name": "Brisbane",
      "latitude": -27.4679,
      "longitude": 153.0281,
      "base_risk": 8.99,
      "rain_6h_mm": 0.0,
      "humidity_avg": 46.2,
      "soil_moisture_avg": 0.0,
      "rain_mult": 0.0,
      "soil_mult": 0.95,
      "humidity_mult": 1.023,
      "raw_dynamic_score": 0.0,
      "dynamic_level": "None"
    },
    {
      "id": "43",
      "country": "Australia",
      "name": "Canberra",
      "latitude": -35.2835,
      "longitude": 149.1281,
      "base_risk": 8.88,
      "rain_6h_mm": 0.0,
      "humidity_avg": 35.0,
      "soil_moisture_avg": 0.0,
      "rain_mult": 0.0,
      "soil_mult": 0.95,
      "humidity_mult": 1.018,
      "raw_dynamic_score": 0.0,
      "dynamic_level": "None"
    },
    {
      "id": "44",
      "country": "Australia",
      "name": "Central Coast",
      "latitude": -33.42,
      "longitude": 151.3958,
      "base_risk": 9.28,
      "rain_6h_mm": 0.0,
      "humidity_avg": 26.7,
      "soil_moisture_avg": 0.0,
      "rain_mult": 0.0,
      "soil_mult": 0.95,
      "humidity_mult": 1.013,
      "raw_dynamic_score": 0.0,
      "dynamic_level": "None"
    },
    {
      "id": "45",
      "country": "Australia",
      "name": "Gold Coast-Tweed Head",
      "latitude": -28.0003,
      "longitude": 153.4309,
      "base_risk": 9.38,
      "rain_6h_mm": 0.0,
      "humidity_avg": 54.0,
      "soil_moisture_avg": 0.0,
      "rain_mult": 0.0,
      "soil_mult": 0.95,
      "humidity_mult": 1.027,
      "raw_dynamic_score": 0.0,
      "dynamic_level": "None"
    },
    {
      "id": "51",
      "country": "Australia",
      "name": "Wollongong",
      "latitude": -34.424,
      "longitude": 150.8935,
      "base_risk": 9.37,
      "rain_6h_mm": 0.0,
      "humidity_avg": 40.8,
      "soil_moisture_avg": 0.0,
      "rain_mult": 0.0,
      "soil_mult": 0.95,
      "humidity_mult": 1.02,
      "raw_dynamic_score": 0.0,
      "dynamic_level": "None"
    },
    {
      "id": "52",
      "country": "Austria",
      "name": "Wien (Vienna)",
      "latitude": 48.2064,
      "longitude": 16.3707,
      "base_risk": 8.75,
      "rain_6h_mm": 0.0,
      "humidity_avg": 97.7,
      "soil_moisture_avg": 0.0,
      "rain_mult": 0.0,
      "soil_mult": 0.95,
      "humidity_mult": 1.049,
      "raw_dynamic_score": 0.0,
      "dynamic_level": "None"
    },
    {
      "id": "53",
      "country": "Azerbaijan",
      "name": "Baku",
      "latitude": 40.3777,
      "longitude": 49.892,
      "base_risk": 8.82,
      "rain_6h_mm": 0.0,
      "humidity_avg": 93.3,
      "soil_moisture_avg": 0.0,
      "rain_mult": 0.0,
      "soil_mult": 0.95,
      "humidity_mult": 1.047,
      "raw_dynamic_score": 0.0,
      "dynamic_level": "None"
    },
    {
      "id": "54",
      "country": "Azerbaijan",
      "name": "Gäncä",
      "latitude": 40.6828,
      "longitude": 46.3606,
      "base_risk": 9.07,
      "rain_6h_mm": 0.0,
      "humidity_avg": 65.0,
      "soil_moisture_avg": 0.0,
      "rain_mult": 0.0,
      "soil_mult": 0.95,
      "humidity_mult": 1.032,
      "raw_dynamic_score": 0.0,
      "dynamic_level": "None"
    },
    {
      "id": "55",
      "country": "Azerbaijan",
      "name": "Sumquayit",
      "latitude": 40.5897,
      "longitude": 49.6686,
      "base_risk": 9.08,
      "rain_6h_mm": 0.0,
      "humidity_avg": 94.2,
      "soil_moisture_avg": 0.0,
      "rain_mult": 0.0,
      "soil_mult": 0.95,
      "humidity_mult": 1.047,
      "raw_dynamic_score": 0.0,
      "dynamic_level": "None"
    },
    {
      "id": "61",
      "country": "Bangladesh",
      "name": "Dhaka",
      "latitude": 23.7104,
      "longitude": 90.4074,
      "base_risk": 9.43,
      "rain_6h_mm": 0.0,
      "humidity_avg": 70.0,
      "soil_moisture_avg": 0.0,
      "rain_mult": 0.0,
      "soil_mult": 0.95,
      "humidity_mult": 1.035,
      "raw_dynamic_score": 0.0,
      "dynamic_level": "None"
    },
    {
      "id": "62",
      "country": "Bangladesh",
      "name": "Khulna",
      "latitude": 22.8098,
      "longitude": 89.5644,
      "base_risk": 9.5,
      "rain_6h_mm": 0.0,
      "humidity_avg": 68.5,
      "soil_moisture_avg": 0.0,
      "rain_mult": 0.0,
      "soil_mult": 0.95,
      "humidity_mult": 1.034,
      "raw_dynamic_score": 0.0,
      "dynamic_level": "None"
    },
    {
      "id": "63",
      "country": "Bangladesh",
      "name": "Mymensingh",
      "latitude": 24.75,
      "longitude": 90.4,
      "base_risk": 9.34,
      "rain_6h_mm": 0.0,
      "humidity_avg": 74.2,
      "soil_moisture_avg": 0.0,
      "rain_mult": 0.0,
      "soil_mult": 0.95,
      "humidity_mult": 1.037,
      "raw_dynamic_score": 0.0,
      "dynamic_level": "None"
    },
    {
      "id": "64",
      "country": "Bangladesh",
      "name": "Rajshahi",
      "latitude": 24.3667,
      "longitude": 88.6,
      "base_risk": 9.04,
      "rain_6h_mm": 0.0,
      "humidity_avg": 63.2,
      "soil_moisture_avg": 0.0,
      "rain_mult": 0.0,
      "soil_mult": 0.95,
      "humidity_mult": 1.032,
      "raw_dynamic_score": 0.0,
      "dynamic_level": "None"
    },
    {
      "id": "65",
      "country": "Bangladesh",
      "name": "Rangpur",
      "latitude": 25.75,
      "longitude": 89.25,
      "base_risk": 8.62,
      "rain_6h_mm": 0.0,
      "humidity_avg": 62.0,
      "soil_moisture_avg": 0.0,
      "rain_mult": 0.0,
      "soil_mult": 0.95,
      "humidity_mult": 1.031,
      "raw_dynamic_score": 0.0,
      "dynamic_level": "None"
    },
    {
      "id": "71",
      "country": "Belarus",
      "name": "Minsk",
      "latitude": 53.9,
      "longitude": 27.5667,
      "base_risk": 8.74,
      "rain_6h_mm": 1.4,
      "humidity_avg": 88.3,
      "soil_moisture_avg": 0.451,
      "rain_mult": 0.014,
      "soil_mult": 1.333,
      "humidity_mult": 1.044,
      "raw_dynamic_score": 0.17,
      "dynamic_level": "Low"
    },
    {
      "id": "72",
      "country": "Belarus",
      "name": "Mogilev",
      "latitude": 53.9141,
      "longitude": 30.3376,
      "base_risk": 8.6,
      "rain_6h_mm": 0.3,
      "humidity_avg": 95.3,
      "soil_moisture_avg": 0.0,
      "rain_mult": 0.003,
      "soil_mult": 0.95,
      "humidity_mult": 1.048,
      "raw_dynamic_score": 0.026,
      "dynamic_level": "Low"
    },
    {
      "id": "73",
      "country": "Belarus",
      "name": "Vitebsk",
      "latitude": 55.1905,
      "longitude": 30.2033,
      "base_risk": 8.87,
      "rain_6h_mm": 0.0,
      "humidity_avg": 92.3,
      "soil_moisture_avg": 0.0,
      "rain_mult": 0.0,
      "soil_mult": 0.95,
      "humidity_mult": 1.046,
      "raw_dynamic_score": 0.0,
      "dynamic_level": "None"
    },
    {
      "id": "74",
      "country": "Belgium",
      "name": "Antwerpen",
      "latitude": 51.2199,
      "longitude": 4.4035,
      "base_risk": 9.16,
      "rain_6h_mm": 0.0,
      "humidity_avg": 77.5,
      "soil_moisture_avg": 0.356,
      "rain_mult": 0.0,
      "soil_mult": 1.252,
      "humidity_mult": 1.039,
      "raw_dynamic_score": 0.0,
      "dynamic_level": "None"
    },
    {
      "id": "75",
      "country": "Belgium",
      "name": "Bruxelles-Brussel",
      "latitude": 50.8467,
      "longitude": 4.3499,
      "base_risk": 9.46,
      "rain_6h_mm": 0.0,
      "humidity_avg": 72.3,
      "soil_moisture_avg": 0.548,
      "rain_mult": 0.0,
      "soil_mult": 1.416,
      "humidity_mult": 1.036,
      "raw_dynamic_score": 0.0,
      "dynamic_level": "None"
    },
    {
      "id": "81",
      "country": "Benin",
      "name": "Djougou",
      "latitude": 9.7085,
      "longitude": 1.666,
      "base_risk": 9.46,
      "rain_6h_mm": 0.0,
      "humidity_avg": 74.8,
      "soil_moisture_avg": 0.0,
      "rain_mult": 0.0,
      "soil_mult": 0.95,
      "humidity_mult": 1.037,
      "raw_dynamic_score": 0.0,
      "dynamic_level": "None"
    },
    {
      "id": "82",
      "country": "Benin",
      "name": "Parakou",
      "latitude": 9.3372,
      "longitude": 2.6303,
      "base_risk": 9.5,
      "rain_6h_mm": 0.0,
      "humidity_avg": 93.8,
      "soil_moisture_avg": 0.0,
      "rain_mult": 0.0,
      "soil_mult": 0.95,
      "humidity_mult": 1.047,
      "raw_dynamic_score": 0.0,
      "dynamic_level": "None"
    },
    {
      "id": "83",
      "country": "Bolivia (Plurinational State of)",
      "name": "Cochabamba",
      "latitude": -17.3895,
      "longitude": -66.1568,
      "base_risk": 8.93,
      "rain_6h_mm": 0.0,
      "humidity_avg": 66.8,
      "soil_moisture_avg": 0.0,
      "rain_mult": 0.0,
      "soil_mult": 0.95,
      "humidity_mult": 1.033,
      "raw_dynamic_score": 0.0,
      "dynamic_level": "None"
    },
    {
      "id": "84",
      "country": "Bolivia (Plurinational State of)",
      "name": "La Paz",
      "latitude": -16.5,
      "longitude": -68.15,
      "base_risk": 9.19,
      "rain_6h_mm": 0.0,
      "humidity_avg": 76.3,
      "soil_moisture_avg": 0.0,
      "rain_mult": 0.0,
      "soil_mult": 0.95,
      "humidity_mult": 1.038,
      "raw_dynamic_score": 0.0,
      "dynamic_level": "None"
    },
    {
      "id": "85",
      "country": "Bolivia (Plurinational State of)",
      "name": "Oruro",
      "latitude": -17.9833,
      "longitude": -67.15,
      "base_risk": 8.94,
      "rain_6h_mm": 0.0,
      "humidity_avg": 33.3,
      "soil_moisture_avg": 0.0,
      "rain_mult": 0.0,
      "soil_mult": 0.95,
      "humidity_mult": 1.017,
      "raw_dynamic_score": 0.0,
      "dynamic_level": "None"
    },
    {
      "id": "91",
      "country": "Brazil",
      "name": "Bauru",
      "latitude": -22.3147,
      "longitude": -49.0606,
      "base_risk": 9.5,
      "rain_6h_mm": 0.0,
      "humidity_avg": 69.8,
      "soil_moisture_avg": 0.0,
      "rain_mult": 0.0,
      "soil_mult": 0.95,
      "humidity_mult": 1.035,
      "raw_dynamic_score": 0.0,
      "dynamic_level": "None"
    },
    {
      "id": "92",
      "country": "Brazil",
      "name": "Belém",
      "latitude": -1.4561,
      "longitude": -48.479,
      "base_risk": 9.14,
      "rain_6h_mm": 0.0,
      "humidity_avg": 89.5,
      "soil_moisture_avg": 0.0,
      "rain_mult": 0.0,
      "soil_mult": 0.95,
      "humidity_mult": 1.045,
      "raw_dynamic_score": 0.0,
      "dynamic_level": "None"
    },
    {
      "id": "93",
      "country": "Brazil",
      "name": "Belo Horizonte",
      "latitude": -19.9208,
      "longitude": -43.9378,
      "base_risk": 9.19,
      "rain_6h_mm": 0.0,
      "humidity_avg": 88.8,
      "soil_moisture_avg": 0.0,
      "rain_mult": 0.0,
      "soil_mult": 0.95,
      "humidity_mult": 1.044,
      "raw_dynamic_score": 0.0,
      "dynamic_level": "None"
    },
    {
      "id": "94",
      "country": "Brazil",
      "name": "Blumenau",
      "latitude": -26.9194,
      "longitude": -49.0661,
      "base_risk": 9.15,
      "rain_6h_mm": 0.0,
      "humidity_avg": 93.5,
      "soil_moisture_avg": 0.0,
      "rain_mult": 0.0,
      "soil_mult": 0.95,
      "humidity_mult": 1.047,
      "raw_dynamic_score": 0.0,
      "dynamic_level": "None"
    },
    {
      "id": "95",
      "country": "Brazil",
      "name": "Boa Vista",
      "latitude": 2.8197,
      "longitude": -60.6733,
      "base_risk": 9.46,
      "rain_6h_mm": 5.4,
      "humidity_avg": 85.2,
      "soil_moisture_avg": 0.0,
      "rain_mult": 0.054,
      "soil_mult": 0.95,
      "humidity_mult": 1.043,
      "raw_dynamic_score": 0.506,
      "dynamic_level": "Low"
    },
    {
      "id": "101",
      "country": "Brazil",
      "name": "Caruaru",
      "latitude": -8.2833,
      "longitude": -35.9761,
      "base_risk": 9.37,
      "rain_6h_mm": 0.0,
      "humidity_avg": 88.7,
      "soil_moisture_avg": 0.0,
      "rain_mult": 0.0,
      "soil_mult": 0.95,
      "humidity_mult": 1.044,
      "raw_dynamic_score": 0.0,
      "dynamic_level": "None"
    },
    {
      "id": "102",
      "country": "Brazil",
      "name": "Cascavel",
      "latitude": -24.9558,
      "longitude": -53.4553,
      "base_risk": 9.33,
      "rain_6h_mm": 0.0,
      "humidity_avg": 57.5,
      "soil_moisture_avg": 0.0,
      "rain_mult": 0.0,
      "soil_mult": 0.95,
      "humidity_mult": 1.029,
      "raw_dynamic_score": 0.0,
      "dynamic_level": "None"
    },
    {
      "id": "103",
      "country": "Brazil",
      "name": "Caxias Do Sul",
      "latitude": -29.1681,
      "longitude": -51.1794,
      "base_risk": 8.82,
      "rain_6h_mm": 0.0,
      "humidity_avg": 60.5,
      "soil_moisture_avg": 0.0,
      "rain_mult": 0.0,
      "soil_mult": 0.95,
      "humidity_mult": 1.03,
      "raw_dynamic_score": 0.0,
      "dynamic_level": "None"
    },
    {
      "id": "104",
      "country": "Brazil",
      "name": "Cuiabá",
      "latitude": -15.5961,
      "longitude": -56.0967,
      "base_risk": 9.5,
      "rain_6h_mm": 0.0,
      "humidity_avg": 89.0,
      "soil_moisture_avg": 0.0,
      "rain_mult": 0.0,
      "soil_mult": 0.95,
      "humidity_mult": 1.044,
      "raw_dynamic_score": 0.0,
      "dynamic_level": "None"
    },
    {
      "id": "105",
      "country": "Brazil",
      "name": "Curitiba",
      "latitude": -25.4278,
      "longitude": -49.2731,
      "base_risk": 8.88,
      "rain_6h_mm": 0.0,
      "humidity_avg": 96.0,
      "soil_moisture_avg": 0.0,
      "rain_mult": 0.0,
      "soil_mult": 0.95,
      "humidity_mult": 1.048,
      "raw_dynamic_score": 0.0,
      "dynamic_level": "None"
    },
    {
      "id": "111",
      "country": "Brazil",
      "name": "Grande São Luís",
      "latitude": -2.5385,
      "longitude": -44.2832,
      "base_risk": 8.97,
      "rain_6h_mm": 0.0,
      "humidity_avg": 78.2,
      "soil_moisture_avg": 0.0,
      "rain_mult": 0.0,
      "soil_mult": 0.95,
      "humidity_mult": 1.039,
      "raw_dynamic_score": 0.0,
      "dynamic_level": "None"
    },
    {
      "id": "112",
      "country": "Brazil",
      "name": "Grande Vitória",
      "latitude": -20.3054,
      "longitude": -40.3079,
      "base_risk": 9.5,
      "rain_6h_mm": 0.0,
      "humidity_avg": 76.5,
      "soil_moisture_avg": 0.0,
      "rain_mult": 0.0,
      "soil_mult": 0.95,
      "humidity_mult": 1.038,
      "raw_dynamic_score": 0.0,
      "dynamic_level": "None"
    },
    {
      "id": "113",
      "country": "Brazil",
      "name": "João Pessoa",
      "latitude": -7.115,
      "longitude": -34.8631,
      "base_risk": 9.3,
      "rain_6h_mm": 0.0,
      "humidity_avg": 81.7,
      "soil_moisture_avg": 0.0,
      "rain_mult": 0.0,
      "soil_mult": 0.95,
      "humidity_mult": 1.041,
      "raw_dynamic_score": 0.0,
      "dynamic_level": "None"
    },
    {
      "id": "114",
      "country": "Brazil",
      "name": "Joinville",
      "latitude": -26.3044,
      "longitude": -48.8456,
      "base_risk": 9.02,
      "rain_6h_mm": 0.0,
      "humidity_avg": 86.5,
      "soil_moisture_avg": 0.0,
      "rain_mult": 0.0,
      "soil_mult": 0.95,
      "humidity_mult": 1.043,
      "raw_dynamic_score": 0.0,
      "dynamic_level": "None"
    },
    {
      "id": "115",
      "country": "Brazil",
      "name": "Juazeiro Do Norte",
      "latitude": -7.2131,
      "longitude": -39.3153,
      "base_risk": 9.29,
      "rain_6h_mm": 0.0,
      "humidity_avg": 51.2,
      "soil_moisture_avg": 0.0,
      "rain_mult": 0.0,
      "soil_mult": 0.95,
      "humidity_mult": 1.026,
      "raw_dynamic_score": 0.0,
      "dynamic_level": "None"
    },
    {
      "id": "121",
      "country": "Brazil",
      "name": "Manaus",
      "latitude": -3.1019,
      "longitude": -60.025,
      "base_risk": 9.01,
      "rain_6h_mm": 0.0,
      "humidity_avg": 89.0,
      "soil_moisture_avg": 0.0,
      "rain_mult": 0.0,
      "soil_mult": 0.95,
      "humidity_mult": 1.044,
      "raw_dynamic_score": 0.0,
      "dynamic_level": "None"
    },
    {
      "id": "122",
      "country": "Brazil",
      "name": "Maringá",
      "latitude": -23.4253,
      "longitude": -51.9386,
      "base_risk": 9.32,
      "rain_6h_mm": 0.0,
      "humidity_avg": 71.3,
      "soil_moisture_avg": 0.0,
      "rain_mult": 0.0,
      "soil_mult": 0.95,
      "humidity_mult": 1.036,
      "raw_dynamic_score": 0.0,
      "dynamic_level": "None"
    },
    {
      "id": "123",
      "country": "Brazil",
      "name": "Montes Claros",
      "latitude": -16.735,
      "longitude": -43.8617,
      "base_risk": 9.5,
      "rain_6h_mm": 0.0,
      "humidity_avg": 83.7,
      "soil_moisture_avg": 0.0,
      "rain_mult": 0.0,
      "soil_mult": 0.95,
      "humidity_mult": 1.042,
      "raw_dynamic_score": 0.0,
      "dynamic_level": "None"
    },
    {
      "id": "124",
      "country": "Brazil",
      "name": "Natal",
      "latitude": -5.795,
      "longitude": -35.2094,
      "base_risk": 9.5,
      "rain_6h_mm": 0.0,
      "humidity_avg": 80.3,
      "soil_moisture_avg": 0.0,
      "rain_mult": 0.0,
      "soil_mult": 0.95,
      "humidity_mult": 1.04,
      "raw_dynamic_score": 0.0,
      "dynamic_level": "None"
    },
    {
      "id": "125",
      "country": "Brazil",
      "name": "Pelotas",
      "latitude": -31.7719,
      "longitude": -52.3425,
      "base_risk": 9.26,
      "rain_6h_mm": 0.0,
      "humidity_avg": 82.7,
      "soil_moisture_avg": 0.0,
      "rain_mult": 0.0,
      "soil_mult": 0.95,
      "humidity_mult": 1.041,
      "raw_dynamic_score": 0.0,
      "dynamic_level": "None"
    },
    {
      "id": "128",
      "country": "Brazil",
      "name": "Ponta Grossa",
      "latitude": -25.095,
      "longitude": -50.1619,
      "base_risk": 9.39,
      "rain_6h_mm": 0.0,
      "humidity_avg": 82.8,
      "soil_moisture_avg": 0.0,
      "rain_mult": 0.0,
      "soil_mult": 0.95,
      "humidity_mult": 1.041,
      "raw_dynamic_score": 0.0,
      "dynamic_level": "None"
    },
    {
      "id": "129",
      "country": "Brazil",
      "name": "Pôrto Alegre",
      "latitude": -30.0331,
      "longitude": -51.23,
      "base_risk": 9.11,
      "rain_6h_mm": 0.0,
      "humidity_avg": 79.3,
      "soil_moisture_avg": 0.0,
      "rain_mult": 0.0,
      "soil_mult": 0.95,
      "humidity_mult": 1.04,
      "raw_dynamic_score": 0.0,
      "dynamic_level": "None"
    },
    {
      "id": "133",
      "country": "Brazil",
      "name": "Rio Branco",
      "latitude": -9.9747,
      "longitude": -67.81,
      "base_risk": 8.92,
      "rain_6h_mm": 0.0,
      "humidity_avg": 96.5,
      "soil_moisture_avg": 0.0,
      "rain_mult": 0.0,
      "soil_mult": 0.95,
      "humidity_mult": 1.048,
      "raw_dynamic_score": 0.0,
      "dynamic_level": "None"
    },
    {
      "id": "134",
      "country": "Brazil",
      "name": "Rio de Janeiro",
      "latitude": -22.9028,
      "longitude": -43.2075,
      "base_risk": 9.38,
      "rain_6h_mm": 0.0,
      "humidity_avg": 73.2,
      "soil_moisture_avg": 0.0,
      "rain_mult": 0.0,
      "soil_mult": 0.95,
      "humidity_mult": 1.037,
      "raw_dynamic_score": 0.0,
      "dynamic_level": "None"
    },
    {
      "id": "136",
      "country": "Brazil",
      "name": "São José do Rio Preto",
      "latitude": -20.8197,
      "longitude": -49.3794,
      "base_risk": 9.32,
      "rain_6h_mm": 0.0,
      "humidity_avg": 57.5,
      "soil_moisture_avg": 0.0,
      "rain_mult": 0.0,
      "soil_mult": 0.95,
      "humidity_mult": 1.029,
      "raw_dynamic_score": 0.0,
      "dynamic_level": "None"
    },
    {
      "id": "139",
      "country": "Brazil",
      "name": "Sorocaba",
      "latitude": -23.5017,
      "longitude": -47.4581,
      "base_risk": 9.22,
      "rain_6h_mm": 0.0,
      "humidity_avg": 85.0,
      "soil_moisture_avg": 0.0,
      "rain_mult": 0.0,
      "soil_mult": 0.95,
      "humidity_mult": 1.042,
      "raw_dynamic_score": 0.0,
      "dynamic_level": "None"
    },
    {
      "id": "140",
      "country": "Brazil",
      "name": "Taubaté",
      "latitude": -23.0264,
      "longitude": -45.5553,
      "base_risk": 9.5,
      "rain_6h_mm": 0.0,
      "humidity_avg": 89.3,
      "soil_moisture_avg": 0.0,
      "rain_mult": 0.0,
      "soil_mult": 0.95,
      "humidity_mult": 1.045,
      "raw_dynamic_score": 0.0,
      "dynamic_level": "None"
    },
    {
      "id": "141",
      "country": "Brazil",
      "name": "Teresina",
      "latitude": -5.0892,
      "longitude": -42.8019,
      "base_risk": 9.39,
      "rain_6h_mm": 0.4,
      "humidity_avg": 66.8,
      "soil_moisture_avg": 0.0,
      "rain_mult": 0.004,
      "soil_mult": 0.95,
      "humidity_mult": 1.033,
      "raw_dynamic_score": 0.037,
      "dynamic_level": "Low"
    },
    {
      "id": "146",
      "country": "Brazil",
      "name": "Volta Redonda",
      "latitude": -22.5231,
      "longitude": -44.1042,
      "base_risk": 9.41,
      "rain_6h_mm": 0.0,
      "humidity_avg": 93.8,
      "soil_moisture_avg": 0.0,
      "rain_mult": 0.0,
      "soil_mult": 0.95,
      "humidity_mult": 1.047,
      "raw_dynamic_score": 0.0,
      "dynamic_level": "None"
    },
    {
      "id": "147",
      "country": "Bulgaria",
      "name": "Plovdiv",
      "latitude": 42.15,
      "longitude": 24.75,
      "base_risk": 9.01,
      "rain_6h_mm": 0.0,
      "humidity_avg": 69.2,
      "soil_moisture_avg": 0.0,
      "rain_mult": 0.0,
      "soil_mult": 0.95,
      "humidity_mult": 1.035,
      "raw_dynamic_score": 0.0,
      "dynamic_level": "None"
    },
    {
      "id": "148",
      "country": "Bulgaria",
      "name": "Sofia",
      "latitude": 42.6975,
      "longitude": 23.3242,
      "base_risk": 9.33,
      "rain_6h_mm": 0.0,
      "humidity_avg": 80.5,
      "soil_moisture_avg": 0.0,
      "rain_mult": 0.0,
      "soil_mult": 0.95,
      "humidity_mult": 1.04,
      "raw_dynamic_score": 0.0,
      "dynamic_level": "None"
    },
    {
      "id": "149",
      "country": "Bulgaria",
      "name": "Varna",
      "latitude": 43.2167,
      "longitude": 27.9167,
      "base_risk": 9.44,
      "rain_6h_mm": 0.0,
      "humidity_avg": 84.0,
      "soil_moisture_avg": 0.0,
      "rain_mult": 0.0,
      "soil_mult": 0.95,
      "humidity_mult": 1.042,
      "raw_dynamic_score": 0.0,
      "dynamic_level": "None"
    },
    {
      "id": "155",
      "country": "Cameroon",
      "name": "Bamenda",
      "latitude": 5.9527,
      "longitude": 10.1582,
      "base_risk": 9.5,
      "rain_6h_mm": 0.0,
      "humidity_avg": 89.8,
      "soil_moisture_avg": 0.0,
      "rain_mult": 0.0,
      "soil_mult": 0.95,
      "humidity_mult": 1.045,
      "raw_dynamic_score": 0.0,
      "dynamic_level": "None"
    },
    {
      "id": "156",
      "country": "Cameroon",
      "name": "Douala",
      "latitude": 4.0483,
      "longitude": 9.7043,
      "base_risk": 9.5,
      "rain_6h_mm": 0.1,
      "humidity_avg": 92.3,
      "soil_moisture_avg": 0.0,
      "rain_mult": 0.001,
      "soil_mult": 0.95,
      "humidity_mult": 1.046,
      "raw_dynamic_score": 0.009,
      "dynamic_level": "Low"
    },
    {
      "id": "157",
      "country": "Cameroon",
      "name": "Garoua",
      "latitude": 9.3,
      "longitude": 13.4,
      "base_risk": 9.09,
      "rain_6h_mm": 0.0,
      "humidity_avg": 66.8,
      "soil_moisture_avg": 0.0,
      "rain_mult": 0.0,
      "soil_mult": 0.95,
      "humidity_mult": 1.033,
      "raw_dynamic_score": 0.0,
      "dynamic_level": "None"
    },
    {
      "id": "158",
      "country": "Cameroon",
      "name": "Loum",
      "latitude": 4.7182,
      "longitude": 9.7351,
      "base_risk": 9.16,
      "rain_6h_mm": 0.0,
      "humidity_avg": 98.8,
      "soil_moisture_avg": 0.0,
      "rain_mult": 0.0,
      "soil_mult": 0.95,
      "humidity_mult": 1.049,
      "raw_dynamic_score": 0.0,
      "dynamic_level": "None"
    },
    {
      "id": "159",
      "country": "Cameroon",
      "name": "Mbouda",
      "latitude": 5.6258,
      "longitude": 10.2552,
      "base_risk": 9.33,
      "rain_6h_mm": 0.0,
      "humidity_avg": 66.0,
      "soil_moisture_avg": 0.0,
      "rain_mult": 0.0,
      "soil_mult": 0.95,
      "humidity_mult": 1.033,
      "raw_dynamic_score": 0.0,
      "dynamic_level": "None"
    },
    {
      "id": "165",
      "country": "Canada",
      "name": "Kitchener-Cambrigde-Waterloo",
      "latitude": 43.4254,
      "longitude": -80.5112,
      "base_risk": 8.96,
      "rain_6h_mm": 1.4,
      "humidity_avg": 76.3,
      "soil_moisture_avg": 0.0,
      "rain_mult": 0.014,
      "soil_mult": 0.95,
      "humidity_mult": 1.038,
      "raw_dynamic_score": 0.124,
      "dynamic_level": "Low"
    },
    {
      "id": "166",
      "country": "Canada",
      "name": "London",
      "latitude": 42.9834,
      "longitude": -81.233,
      "base_risk": 9.01,
      "rain_6h_mm": 0.3,
      "humidity_avg": 71.5,
      "soil_moisture_avg": 0.0,
      "rain_mult": 0.003,
      "soil_mult": 0.95,
      "humidity_mult": 1.036,
      "raw_dynamic_score": 0.027,
      "dynamic_level": "Low"
    },
    {
      "id": "167",
      "country": "Canada",
      "name": "Montréal",
      "latitude": 45.5088,
      "longitude": -73.5878,
      "base_risk": 9.19,
      "rain_6h_mm": 0.0,
      "humidity_avg": 76.8,
      "soil_moisture_avg": 0.0,
      "rain_mult": 0.0,
      "soil_mult": 0.95,
      "humidity_mult": 1.038,
      "raw_dynamic_score": 0.0,
      "dynamic_level": "None"
    },
    {
      "id": "168",
      "country": "Canada",
      "name": "Oshawa",
      "latitude": 43.9001,
      "longitude": -78.8496,
      "base_risk": 9.17,
      "rain_6h_mm": 1.5,
      "humidity_avg": 81.5,
      "soil_moisture_avg": 0.0,
      "rain_mult": 0.015,
      "soil_mult": 0.95,
      "humidity_mult": 1.041,
      "raw_dynamic_score": 0.136,
      "dynamic_level": "Low"
    },
    {
      "id": "169",
      "country": "Canada",
      "name": "Ottawa-Gatineau",
      "latitude": 45.4166,
      "longitude": -75.698,
      "base_risk": 9.43,
      "rain_6h_mm": 0.0,
      "humidity_avg": 74.5,
      "soil_moisture_avg": 0.0,
      "rain_mult": 0.0,
      "soil_mult": 0.95,
      "humidity_mult": 1.037,
      "raw_dynamic_score": 0.0,
      "dynamic_level": "None"
    },
    {
      "id": "174",
      "country": "Canada",
      "name": "Vancouver",
      "latitude": 49.2497,
      "longitude": -123.1193,
      "base_risk": 9.1,
      "rain_6h_mm": 0.0,
      "humidity_avg": 83.7,
      "soil_moisture_avg": 0.0,
      "rain_mult": 0.0,
      "soil_mult": 0.95,
      "humidity_mult": 1.042,
      "raw_dynamic_score": 0.0,
      "dynamic_level": "None"
    },
    {
      "id": "175",
      "country": "Canada",
      "name": "Victoria",
      "latitude": 48.4329,
      "longitude": -123.3693,
      "base_risk": 9.05,
      "rain_6h_mm": 0.0,
      "humidity_avg": 85.0,
      "soil_moisture_avg": 0.0,
      "rain_mult": 0.0,
      "soil_mult": 0.95,
      "humidity_mult": 1.042,
      "raw_dynamic_score": 0.0,
      "dynamic_level": "None"
    },
    {
      "id": "176",
      "country": "Canada",
      "name": "Windsor",
      "latitude": 42.2811,
      "longitude": -83.0079,
      "base_risk": 9.01,
      "rain_6h_mm": 0.0,
      "humidity_avg": 66.3,
      "soil_moisture_avg": 0.0,
      "rain_mult": 0.0,
      "soil_mult": 0.95,
      "humidity_mult": 1.033,
      "raw_dynamic_score": 0.0,
      "dynamic_level": "None"
    },
    {
      "id": "177",
      "country": "Canada",
      "name": "Winnipeg",
      "latitude": 49.8955,
      "longitude": -97.1294,
      "base_risk": 9.38,
      "rain_6h_mm": 0.0,
      "humidity_avg": 59.5,
      "soil_moisture_avg": 0.0,
      "rain_mult": 0.0,
      "soil_mult": 0.95,
      "humidity_mult": 1.03,
      "raw_dynamic_score": 0.0,
      "dynamic_level": "None"
    },
    {
      "id": "178",
      "country": "Central African Republic",
      "name": "Bangui",
      "latitude": 4.3612,
      "longitude": 18.555,
      "base_risk": 9.42,
      "rain_6h_mm": 0.0,
      "humidity_avg": 90.7,
      "soil_moisture_avg": 0.0,
      "rain_mult": 0.0,
      "soil_mult": 0.95,
      "humidity_mult": 1.045,
      "raw_dynamic_score": 0.0,
      "dynamic_level": "None"
    },
    {
      "id": "184",
      "country": "Chile",
      "name": "Temuco",
      "latitude": -38.7333,
      "longitude": -72.6,
      "base_risk": 9.22,
      "rain_6h_mm": 0.0,
      "humidity_avg": 91.3,
      "soil_moisture_avg": 0.0,
      "rain_mult": 0.0,
      "soil_mult": 0.95,
      "humidity_mult": 1.046,
      "raw_dynamic_score": 0.0,
      "dynamic_level": "None"
    },
    {
      "id": "185",
      "country": "Chile",
      "name": "Valparaíso",
      "latitude": -33.0393,
      "longitude": -71.6273,
      "base_risk": 9.37,
      "rain_6h_mm": 0.0,
      "humidity_avg": 80.2,
      "soil_moisture_avg": 0.0,
      "rain_mult": 0.0,
      "soil_mult": 0.95,
      "humidity_mult": 1.04,
      "raw_dynamic_score": 0.0,
      "dynamic_level": "None"
    },
    {
      "id": "186",
      "country": "China",
      "name": "Akesu",
      "latitude": 41.1695,
      "longitude": 80.2626,
      "base_risk": 8.89,
      "rain_6h_mm": 0.0,
      "humidity_avg": 44.3,
      "soil_moisture_avg": 0.0,
      "rain_mult": 0.0,
      "soil_mult": 0.95,
      "humidity_mult": 1.022,
      "raw_dynamic_score": 0.0,
      "dynamic_level": "None"
    },
    {
      "id": "187",
      "country": "China",
      "name": "Ankang",
      "latitude": 32.6912,
      "longitude": 109.0297,
      "base_risk": 9.33,
      "rain_6h_mm": 0.0,
      "humidity_avg": 47.3,
      "soil_moisture_avg": 0.0,
      "rain_mult": 0.0,
      "soil_mult": 0.95,
      "humidity_mult": 1.024,
      "raw_dynamic_score": 0.0,
      "dynamic_level": "None"
    },
    {
      "id": "193",
      "country": "China",
      "name": "Anshun",
      "latitude": 26.2444,
      "longitude": 105.9324,
      "base_risk": 9.5,
      "rain_6h_mm": 0.0,
      "humidity_avg": 74.8,
      "soil_moisture_avg": 0.0,
      "rain_mult": 0.0,
      "soil_mult": 0.95,
      "humidity_mult": 1.037,
      "raw_dynamic_score": 0.0,
      "dynamic_level": "None"
    },
    {
      "id": "194",
      "country": "China",
      "name": "Anyang",
      "latitude": 36.0944,
      "longitude": 114.3503,
      "base_risk": 9.44,
      "rain_6h_mm": 0.0,
      "humidity_avg": 57.5,
      "soil_moisture_avg": 0.0,
      "rain_mult": 0.0,
      "soil_mult": 0.95,
      "humidity_mult": 1.029,
      "raw_dynamic_score": 0.0,
      "dynamic_level": "None"
    },
    {
      "id": "195",
      "country": "China",
      "name": "Baicheng",
      "latitude": 45.6183,
      "longitude": 122.8418,
      "base_risk": 9.33,
      "rain_6h_mm": 0.0,
      "humidity_avg": 34.8,
      "soil_moisture_avg": 0.0,
      "rain_mult": 0.0,
      "soil_mult": 0.95,
      "humidity_mult": 1.017,
      "raw_dynamic_score": 0.0,
      "dynamic_level": "None"
    },
    {
      "id": "196",
      "country": "China",
      "name": "Baishan",
      "latitude": 41.9373,
      "longitude": 126.4229,
      "base_risk": 9.41,
      "rain_6h_mm": 0.0,
      "humidity_avg": 58.5,
      "soil_moisture_avg": 0.0,
      "rain_mult": 0.0,
      "soil_mult": 0.95,
      "humidity_mult": 1.029,
      "raw_dynamic_score": 0.0,
      "dynamic_level": "None"
    },
    {
      "id": "197",
      "country": "China",
      "name": "Baiyin",
      "latitude": 36.5487,
      "longitude": 104.1831,
      "base_risk": 9.14,
      "rain_6h_mm": 0.0,
      "humidity_avg": 26.2,
      "soil_moisture_avg": 0.0,
      "rain_mult": 0.0,
      "soil_mult": 0.95,
      "humidity_mult": 1.013,
      "raw_dynamic_score": 0.0,
      "dynamic_level": "None"
    },
    {
      "id": "203",
      "country": "China",
      "name": "Beihai",
      "latitude": 21.4785,
      "longitude": 109.12,
      "base_risk": 9.5,
      "rain_6h_mm": 0.0,
      "humidity_avg": 64.3,
      "soil_moisture_avg": 0.0,
      "rain_mult": 0.0,
      "soil_mult": 0.95,
      "humidity_mult": 1.032,
      "raw_dynamic_score": 0.0,
      "dynamic_level": "None"
    },
    {
      "id": "204",
      "country": "China",
      "name": "Beijing",
      "latitude": 39.9075,
      "longitude": 116.3972,
      "base_risk": 8.96,
      "rain_6h_mm": 0.0,
      "humidity_avg": 53.0,
      "soil_moisture_avg": 0.0,
      "rain_mult": 0.0,
      "soil_mult": 0.95,
      "humidity_mult": 1.026,
      "raw_dynamic_score": 0.0,
      "dynamic_level": "None"
    },
    {
      "id": "205",
      "country": "China",
      "name": "Bengbu",
      "latitude": 32.9408,
      "longitude": 117.3608,
      "base_risk": 9.19,
      "rain_6h_mm": 0.0,
      "humidity_avg": 65.2,
      "soil_moisture_avg": 0.0,
      "rain_mult": 0.0,
      "soil_mult": 0.95,
      "humidity_mult": 1.033,
      "raw_dynamic_score": 0.0,
      "dynamic_level": "None"
    },
    {
      "id": "206",
      "country": "China",
      "name": "Benxi",
      "latitude": 41.2886,
      "longitude": 123.765,
      "base_risk": 8.95,
      "rain_6h_mm": 0.0,
      "humidity_avg": 48.3,
      "soil_moisture_avg": 0.0,
      "rain_mult": 0.0,
      "soil_mult": 0.95,
      "humidity_mult": 1.024,
      "raw_dynamic_score": 0.0,
      "dynamic_level": "None"
    },
    {
      "id": "207",
      "country": "China",
      "name": "Bijie",
      "latitude": 27.307,
      "longitude": 105.2837,
      "base_risk": 9.1,
      "rain_6h_mm": 0.0,
      "humidity_avg": 99.3,
      "soil_moisture_avg": 0.0,
      "rain_mult": 0.0,
      "soil_mult": 0.95,
      "humidity_mult": 1.05,
      "raw_dynamic_score": 0.0,
      "dynamic_level": "None"
    },
    {
      "id": "213",
      "country": "China",
      "name": "Changchun",
      "latitude": 43.8825,
      "longitude": 125.294,
      "base_risk": 9.45,
      "rain_6h_mm": 0.0,
      "humidity_avg": 46.2,
      "soil_moisture_avg": 0.0,
      "rain_mult": 0.0,
      "soil_mult": 0.95,
      "humidity_mult": 1.023,
      "raw_dynamic_score": 0.0,
      "dynamic_level": "None"
    },
    {
      "id": "214",
      "country": "China",
      "name": "Changde",
      "latitude": 29.0464,
      "longitude": 111.6783,
      "base_risk": 9.11,
      "rain_6h_mm": 0.0,
      "humidity_avg": 56.3,
      "soil_moisture_avg": 0.0,
      "rain_mult": 0.0,
      "soil_mult": 0.95,
      "humidity_mult": 1.028,
      "raw_dynamic_score": 0.0,
      "dynamic_level": "None"
    },
    {
      "id": "215",
      "country": "China",
      "name": "Changge",
      "latitude": 34.2224,
      "longitude": 113.7736,
      "base_risk": 9.5,
      "rain_6h_mm": 0.0,
      "humidity_avg": 55.2,
      "soil_moisture_avg": 0.0,
      "rain_mult": 0.0,
      "soil_mult": 0.95,
      "humidity_mult": 1.028,
      "raw_dynamic_score": 0.0,
      "dynamic_level": "None"
    },
    {
      "id": "216",
      "country": "China",
      "name": "Changji",
      "latitude": 44.0117,
      "longitude": 87.3038,
      "base_risk": 9.32,
      "rain_6h_mm": 0.0,
      "humidity_avg": 52.3,
      "soil_moisture_avg": 0.0,
      "rain_mult": 0.0,
      "soil_mult": 0.95,
      "humidity_mult": 1.026,
      "raw_dynamic_score": 0.0,
      "dynamic_level": "None"
    },
    {
      "id": "217",
      "country": "China",
      "name": "Changning",
      "latitude": 26.4078,
      "longitude": 112.3957,
      "base_risk": 9.45,
      "rain_6h_mm": 0.0,
      "humidity_avg": 67.7,
      "soil_moisture_avg": 0.0,
      "rain_mult": 0.0,
      "soil_mult": 0.95,
      "humidity_mult": 1.034,
      "raw_dynamic_score": 0.0,
      "dynamic_level": "None"
    },
    {
      "id": "223",
      "country": "China",
      "name": "Chaohu",
      "latitude": 31.6,
      "longitude": 117.8667,
      "base_risk": 8.88,
      "rain_6h_mm": 0.0,
      "humidity_avg": 65.5,
      "soil_moisture_avg": 0.0,
      "rain_mult": 0.0,
      "soil_mult": 0.95,
      "humidity_mult": 1.033,
      "raw_dynamic_score": 0.0,
      "dynamic_level": "None"
    },
    {
      "id": "224",
      "country": "China",
      "name": "Chaoyang",
      "latitude": 41.5773,
      "longitude": 120.4511,
      "base_risk": 9.05,
      "rain_6h_mm": 0.0,
      "humidity_avg": 29.5,
      "soil_moisture_avg": 0.0,
      "rain_mult": 0.0,
      "soil_mult": 0.95,
      "humidity_mult": 1.015,
      "raw_dynamic_score": 0.0,
      "dynamic_level": "None"
    },
    {
      "id": "225",
      "country": "China",
      "name": "Chaozhou",
      "latitude": 23.6651,
      "longitude": 116.6379,
      "base_risk": 9.41,
      "rain_6h_mm": 0.0,
      "humidity_avg": 62.0,
      "soil_moisture_avg": 0.0,
      "rain_mult": 0.0,
      "soil_mult": 0.95,
      "humidity_mult": 1.031,
      "raw_dynamic_score": 0.0,
      "dynamic_level": "None"
    },
    {
      "id": "226",
      "country": "China",
      "name": "Chengde",
      "latitude": 40.9672,
      "longitude": 117.9322,
      "base_risk": 9.08,
      "rain_6h_mm": 0.0,
      "humidity_avg": 41.0,
      "soil_moisture_avg": 0.0,
      "rain_mult": 0.0,
      "soil_mult": 0.95,
      "humidity_mult": 1.02,
      "raw_dynamic_score": 0.0,
      "dynamic_level": "None"
    },
    {
      "id": "227",
      "country": "China",
      "name": "Chengdu",
      "latitude": 30.6667,
      "longitude": 104.0667,
      "base_risk": 9.37,
      "rain_6h_mm": 0.5,
      "humidity_avg": 79.2,
      "soil_moisture_avg": 0.0,
      "rain_mult": 0.005,
      "soil_mult": 0.95,
      "humidity_mult": 1.04,
      "raw_dynamic_score": 0.046,
      "dynamic_level": "Low"
    },
    {
      "id": "233",
      "country": "China",
      "name": "Chuzhou",
      "latitude": 32.2985,
      "longitude": 118.3164,
      "base_risk": 9.36,
      "rain_6h_mm": 0.0,
      "humidity_avg": 62.2,
      "soil_moisture_avg": 0.0,
      "rain_mult": 0.0,
      "soil_mult": 0.95,
      "humidity_mult": 1.031,
      "raw_dynamic_score": 0.0,
      "dynamic_level": "None"
    },
    {
      "id": "234",
      "country": "China",
      "name": "Cixi",
      "latitude": 30.1761,
      "longitude": 121.2524,
      "base_risk": 9.31,
      "rain_6h_mm": 3.3,
      "humidity_avg": 91.8,
      "soil_moisture_avg": 0.0,
      "rain_mult": 0.033,
      "soil_mult": 0.95,
      "humidity_mult": 1.046,
      "raw_dynamic_score": 0.305,
      "dynamic_level": "Low"
    },
    {
      "id": "235",
      "country": "China",
      "name": "Dali",
      "latitude": 25.59,
      "longitude": 100.2235,
      "base_risk": 9.37,
      "rain_6h_mm": 0.0,
      "humidity_avg": 64.8,
      "soil_moisture_avg": 0.0,
      "rain_mult": 0.0,
      "soil_mult": 0.95,
      "humidity_mult": 1.032,
      "raw_dynamic_score": 0.0,
      "dynamic_level": "None"
    },
    {
      "id": "236",
      "country": "China",
      "name": "Dalian",
      "latitude": 38.9138,
      "longitude": 121.6023,
      "base_risk": 9.38,
      "rain_6h_mm": 0.0,
      "humidity_avg": 61.0,
      "soil_moisture_avg": 0.0,
      "rain_mult": 0.0,
      "soil_mult": 0.95,
      "humidity_mult": 1.03,
      "raw_dynamic_score": 0.0,
      "dynamic_level": "None"
    },
    {
      "id": "237",
      "country": "China",
      "name": "Dandong",
      "latitude": 40.1198,
      "longitude": 124.3739,
      "base_risk": 9.13,
      "rain_6h_mm": 0.0,
      "humidity_avg": 63.8,
      "soil_moisture_avg": 0.0,
      "rain_mult": 0.0,
      "soil_mult": 0.95,
      "humidity_mult": 1.032,
      "raw_dynamic_score": 0.0,
      "dynamic_level": "None"
    },
    {
      "id": "243",
      "country": "China",
      "name": "Daye",
      "latitude": 30.0987,
      "longitude": 114.9703,
      "base_risk": 8.79,
      "rain_6h_mm": 0.0,
      "humidity_avg": 53.3,
      "soil_moisture_avg": 0.0,
      "rain_mult": 0.0,
      "soil_mult": 0.95,
      "humidity_mult": 1.027,
      "raw_dynamic_score": 0.0,
      "dynamic_level": "None"
    },
    {
      "id": "244",
      "country": "China",
      "name": "Dazhou",
      "latitude": 31.2159,
      "longitude": 107.5009,
      "base_risk": 8.61,
      "rain_6h_mm": 0.0,
      "humidity_avg": 68.0,
      "soil_moisture_avg": 0.0,
      "rain_mult": 0.0,
      "soil_mult": 0.95,
      "humidity_mult": 1.034,
      "raw_dynamic_score": 0.0,
      "dynamic_level": "None"
    },
    {
      "id": "245",
      "country": "China",
      "name": "Dengfeng",
      "latitude": 34.4553,
      "longitude": 113.0281,
      "base_risk": 9.43,
      "rain_6h_mm": 0.0,
      "humidity_avg": 50.7,
      "soil_moisture_avg": 0.0,
      "rain_mult": 0.0,
      "soil_mult": 0.95,
      "humidity_mult": 1.025,
      "raw_dynamic_score": 0.0,
      "dynamic_level": "None"
    },
    {
      "id": "246",
      "country": "China",
      "name": "Dengzhou",
      "latitude": 32.6822,
      "longitude": 112.0819,
      "base_risk": 8.84,
      "rain_6h_mm": 0.0,
      "humidity_avg": 48.2,
      "soil_moisture_avg": 0.0,
      "rain_mult": 0.0,
      "soil_mult": 0.95,
      "humidity_mult": 1.024,
      "raw_dynamic_score": 0.0,
      "dynamic_level": "None"
    },
    {
      "id": "247",
      "country": "China",
      "name": "Deyang",
      "latitude": 31.1302,
      "longitude": 104.382,
      "base_risk": 8.94,
      "rain_6h_mm": 0.3,
      "humidity_avg": 78.7,
      "soil_moisture_avg": 0.0,
      "rain_mult": 0.003,
      "soil_mult": 0.95,
      "humidity_mult": 1.039,
      "raw_dynamic_score": 0.026,
      "dynamic_level": "Low"
    },
    {
      "id": "252",
      "country": "China",
      "name": "Dongtai",
      "latitude": 32.8523,
      "longitude": 120.3095,
      "base_risk": 9.27,
      "rain_6h_mm": 0.0,
      "humidity_avg": 60.8,
      "soil_moisture_avg": 0.0,
      "rain_mult": 0.0,
      "soil_mult": 0.95,
      "humidity_mult": 1.03,
      "raw_dynamic_score": 0.0,
      "dynamic_level": "None"
    },
    {
      "id": "254",
      "country": "China",
      "name": "Dongying",
      "latitude": 37.4533,
      "longitude": 118.5785,
      "base_risk": 8.79,
      "rain_6h_mm": 0.0,
      "humidity_avg": 49.3,
      "soil_moisture_avg": 0.0,
      "rain_mult": 0.0,
      "soil_mult": 0.95,
      "humidity_mult": 1.025,
      "raw_dynamic_score": 0.0,
      "dynamic_level": "None"
    },
    {
      "id": "256",
      "country": "China",
      "name": "Emeishan",
      "latitude": 29.6007,
      "longitude": 103.4856,
      "base_risk": 9.4,
      "rain_6h_mm": 0.5,
      "humidity_avg": 81.5,
      "soil_moisture_avg": 0.0,
      "rain_mult": 0.005,
      "soil_mult": 0.95,
      "humidity_mult": 1.041,
      "raw_dynamic_score": 0.046,
      "dynamic_level": "Low"
    },
    {
      "id": "258",
      "country": "China",
      "name": "Enshi",
      "latitude": 30.2902,
      "longitude": 109.4785,
      "base_risk": 9.13,
      "rain_6h_mm": 0.0,
      "humidity_avg": 66.2,
      "soil_moisture_avg": 0.0,
      "rain_mult": 0.0,
      "soil_mult": 0.95,
      "humidity_mult": 1.033,
      "raw_dynamic_score": 0.0,
      "dynamic_level": "None"
    },
    {
      "id": "259",
      "country": "China",
      "name": "Erduosi (Ordoss)",
      "latitude": 39.5917,
      "longitude": 109.7666,
      "base_risk": 8.74,
      "rain_6h_mm": 0.0,
      "humidity_avg": 29.0,
      "soil_moisture_avg": 0.0,
      "rain_mult": 0.0,
      "soil_mult": 0.95,
      "humidity_mult": 1.014,
      "raw_dynamic_score": 0.0,
      "dynamic_level": "None"
    },
    {
      "id": "262",
      "country": "China",
      "name": "Feicheng",
      "latitude": 36.1854,
      "longitude": 116.7674,
      "base_risk": 9.36,
      "rain_6h_mm": 0.0,
      "humidity_avg": 63.0,
      "soil_moisture_avg": 0.0,
      "rain_mult": 0.0,
      "soil_mult": 0.95,
      "humidity_mult": 1.032,
      "raw_dynamic_score": 0.0,
      "dynamic_level": "None"
    },
    {
      "id": "264",
      "country": "China",
      "name": "Foshan",
      "latitude": 23.0228,
      "longitude": 113.12,
      "base_risk": 9.09,
      "rain_6h_mm": 0.0,
      "humidity_avg": 60.2,
      "soil_moisture_avg": 0.0,
      "rain_mult": 0.0,
      "soil_mult": 0.95,
      "humidity_mult": 1.03,
      "raw_dynamic_score": 0.0,
      "dynamic_level": "None"
    },
    {
      "id": "266",
      "country": "China",
      "name": "Fujin",
      "latitude": 47.2485,
      "longitude": 132.0373,
      "base_risk": 9.43,
      "rain_6h_mm": 0.0,
      "humidity_avg": 48.8,
      "soil_moisture_avg": 0.0,
      "rain_mult": 0.0,
      "soil_mult": 0.95,
      "humidity_mult": 1.024,
      "raw_dynamic_score": 0.0,
      "dynamic_level": "None"
    },
    {
      "id": "267",
      "country": "China",
      "name": "Fuqing",
      "latitude": 25.725,
      "longitude": 119.3794,
      "base_risk": 9.43,
      "rain_6h_mm": 10.5,
      "humidity_avg": 85.8,
      "soil_moisture_avg": 0.0,
      "rain_mult": 0.105,
      "soil_mult": 0.95,
      "humidity_mult": 1.043,
      "raw_dynamic_score": 0.981,
      "dynamic_level": "Low"
    },
    {
      "id": "271",
      "country": "China",
      "name": "Fuzhou, Fujian",
      "latitude": 26.0754,
      "longitude": 119.2989,
      "base_risk": 9.05,
      "rain_6h_mm": 7.6,
      "humidity_avg": 87.7,
      "soil_moisture_avg": 0.0,
      "rain_mult": 0.076,
      "soil_mult": 0.95,
      "humidity_mult": 1.044,
      "raw_dynamic_score": 0.682,
      "dynamic_level": "Low"
    },
    {
      "id": "272",
      "country": "China",
      "name": "Fuzhou, Jiangxi",
      "latitude": 27.9812,
      "longitude": 116.3557,
      "base_risk": 9.36,
      "rain_6h_mm": 0.0,
      "humidity_avg": 71.3,
      "soil_moisture_avg": 0.0,
      "rain_mult": 0.0,
      "soil_mult": 0.95,
      "humidity_mult": 1.036,
      "raw_dynamic_score": 0.0,
      "dynamic_level": "None"
    },
    {
      "id": "273",
      "country": "China",
      "name": "Ganzhou",
      "latitude": 25.85,
      "longitude": 114.9333,
      "base_risk": 8.63,
      "rain_6h_mm": 0.0,
      "humidity_avg": 67.8,
      "soil_moisture_avg": 0.0,
      "rain_mult": 0.0,
      "soil_mult": 0.95,
      "humidity_mult": 1.034,
      "raw_dynamic_score": 0.0,
      "dynamic_level": "None"
    },
    {
      "id": "274",
      "country": "China",
      "name": "Gaoan",
      "latitude": 28.4271,
      "longitude": 115.3722,
      "base_risk": 9.0,
      "rain_6h_mm": 0.0,
      "humidity_avg": 59.3,
      "soil_moisture_avg": 0.0,
      "rain_mult": 0.0,
      "soil_mult": 0.95,
      "humidity_mult": 1.03,
      "raw_dynamic_score": 0.0,
      "dynamic_level": "None"
    },
    {
      "id": "275",
      "country": "China",
      "name": "Gaomi",
      "latitude": 36.3833,
      "longitude": 119.7528,
      "base_risk": 9.13,
      "rain_6h_mm": 0.0,
      "humidity_avg": 52.0,
      "soil_moisture_avg": 0.0,
      "rain_mult": 0.0,
      "soil_mult": 0.95,
      "humidity_mult": 1.026,
      "raw_dynamic_score": 0.0,
      "dynamic_level": "None"
    },
    {
      "id": "278",
      "country": "China",
      "name": "Gaozhou",
      "latitude": 21.9159,
      "longitude": 110.8499,
      "base_risk": 8.95,
      "rain_6h_mm": 0.0,
      "humidity_avg": 53.3,
      "soil_moisture_avg": 0.0,
      "rain_mult": 0.0,
      "soil_mult": 0.95,
      "humidity_mult": 1.027,
      "raw_dynamic_score": 0.0,
      "dynamic_level": "None"
    },
    {
      "id": "279",
      "country": "China",
      "name": "Gongyi",
      "latitude": 34.76,
      "longitude": 112.9714,
      "base_risk": 9.2,
      "rain_6h_mm": 0.0,
      "humidity_avg": 56.7,
      "soil_moisture_avg": 0.0,
      "rain_mult": 0.0,
      "soil_mult": 0.95,
      "humidity_mult": 1.028,
      "raw_dynamic_score": 0.0,
      "dynamic_level": "None"
    },
    {
      "id": "280",
      "country": "China",
      "name": "Gongzhuling",
      "latitude": 43.5008,
      "longitude": 124.8198,
      "base_risk": 9.1,
      "rain_6h_mm": 0.0,
      "humidity_avg": 50.5,
      "soil_moisture_avg": 0.0,
      "rain_mult": 0.0,
      "soil_mult": 0.95,
      "humidity_mult": 1.025,
      "raw_dynamic_score": 0.0,
      "dynamic_level": "None"
    },
    {
      "id": "285",
      "country": "China",
      "name": "Guilin",
      "latitude": 25.2819,
      "longitude": 110.2864,
      "base_risk": 9.5,
      "rain_6h_mm": 0.0,
      "humidity_avg": 53.0,
      "soil_moisture_avg": 0.0,
      "rain_mult": 0.0,
      "soil_mult": 0.95,
      "humidity_mult": 1.026,
      "raw_dynamic_score": 0.0,
      "dynamic_level": "None"
    },
    {
      "id": "286",
      "country": "China",
      "name": "Guiping",
      "latitude": 23.3934,
      "longitude": 110.0744,
      "base_risk": 8.96,
      "rain_6h_mm": 0.0,
      "humidity_avg": 63.0,
      "soil_moisture_avg": 0.0,
      "rain_mult": 0.0,
      "soil_mult": 0.95,
      "humidity_mult": 1.032,
      "raw_dynamic_score": 0.0,
      "dynamic_level": "None"
    },
    {
      "id": "287",
      "country": "China",
      "name": "Guiyang",
      "latitude": 26.5833,
      "longitude": 106.7167,
      "base_risk": 8.82,
      "rain_6h_mm": 0.0,
      "humidity_avg": 77.0,
      "soil_moisture_avg": 0.0,
      "rain_mult": 0.0,
      "soil_mult": 0.95,
      "humidity_mult": 1.038,
      "raw_dynamic_score": 0.0,
      "dynamic_level": "None"
    },
    {
      "id": "288",
      "country": "China",
      "name": "Haerbin",
      "latitude": 45.7563,
      "longitude": 126.6467,
      "base_risk": 9.37,
      "rain_6h_mm": 0.0,
      "humidity_avg": 38.5,
      "soil_moisture_avg": 0.0,
      "rain_mult": 0.0,
      "soil_mult": 0.95,
      "humidity_mult": 1.019,
      "raw_dynamic_score": 0.0,
      "dynamic_level": "None"
    },
    {
      "id": "290",
      "country": "China",
      "name": "Haikou",
      "latitude": 20.0274,
      "longitude": 110.3301,
      "base_risk": 8.85,
      "rain_6h_mm": 0.0,
      "humidity_avg": 70.2,
      "soil_moisture_avg": 0.0,
      "rain_mult": 0.0,
      "soil_mult": 0.95,
      "humidity_mult": 1.035,
      "raw_dynamic_score": 0.0,
      "dynamic_level": "None"
    },
    {
      "id": "296",
      "country": "China",
      "name": "Hanchuan",
      "latitude": 30.6516,
      "longitude": 113.8329,
      "base_risk": 9.14,
      "rain_6h_mm": 0.0,
      "humidity_avg": 60.3,
      "soil_moisture_avg": 0.0,
      "rain_mult": 0.0,
      "soil_mult": 0.95,
      "humidity_mult": 1.03,
      "raw_dynamic_score": 0.0,
      "dynamic_level": "None"
    },
    {
      "id": "297",
      "country": "China",
      "name": "Handan",
      "latitude": 36.6006,
      "longitude": 114.4678,
      "base_risk": 8.73,
      "rain_6h_mm": 0.0,
      "humidity_avg": 46.2,
      "soil_moisture_avg": 0.0,
      "rain_mult": 0.0,
      "soil_mult": 0.95,
      "humidity_mult": 1.023,
      "raw_dynamic_score": 0.0,
      "dynamic_level": "None"
    },
    {
      "id": "298",
      "country": "China",
      "name": "Hangzhou",
      "latitude": 30.2937,
      "longitude": 120.1614,
      "base_risk": 9.47,
      "rain_6h_mm": 0.2,
      "humidity_avg": 79.3,
      "soil_moisture_avg": 0.0,
      "rain_mult": 0.002,
      "soil_mult": 0.95,
      "humidity_mult": 1.04,
      "raw_dynamic_score": 0.019,
      "dynamic_level": "Low"
    },
    {
      "id": "299",
      "country": "China",
      "name": "Hanzhong",
      "latitude": 33.0728,
      "longitude": 107.0303,
      "base_risk": 9.06,
      "rain_6h_mm": 0.0,
      "humidity_avg": 60.0,
      "soil_moisture_avg": 0.0,
      "rain_mult": 0.0,
      "soil_mult": 0.95,
      "humidity_mult": 1.03,
      "raw_dynamic_score": 0.0,
      "dynamic_level": "None"
    },
    {
      "id": "305",
      "country": "China",
      "name": "Hengshui",
      "latitude": 37.7411,
      "longitude": 115.6781,
      "base_risk": 9.14,
      "rain_6h_mm": 0.0,
      "humidity_avg": 59.0,
      "soil_moisture_avg": 0.0,
      "rain_mult": 0.0,
      "soil_mult": 0.95,
      "humidity_mult": 1.03,
      "raw_dynamic_score": 0.0,
      "dynamic_level": "None"
    },
    {
      "id": "306",
      "country": "China",
      "name": "Hengyang",
      "latitude": 26.8841,
      "longitude": 112.6251,
      "base_risk": 8.99,
      "rain_6h_mm": 0.0,
      "humidity_avg": 70.8,
      "soil_moisture_avg": 0.0,
      "rain_mult": 0.0,
      "soil_mult": 0.95,
      "humidity_mult": 1.035,
      "raw_dynamic_score": 0.0,
      "dynamic_level": "None"
    },
    {
      "id": "307",
      "country": "China",
      "name": "Heshan",
      "latitude": 22.7659,
      "longitude": 112.959,
      "base_risk": 9.5,
      "rain_6h_mm": 0.0,
      "humidity_avg": 59.5,
      "soil_moisture_avg": 0.0,
      "rain_mult": 0.0,
      "soil_mult": 0.95,
      "humidity_mult": 1.03,
      "raw_dynamic_score": 0.0,
      "dynamic_level": "None"
    },
    {
      "id": "308",
      "country": "China",
      "name": "Heyuan",
      "latitude": 23.7509,
      "longitude": 114.6992,
      "base_risk": 9.5,
      "rain_6h_mm": 0.0,
      "humidity_avg": 61.5,
      "soil_moisture_avg": 0.0,
      "rain_mult": 0.0,
      "soil_mult": 0.95,
      "humidity_mult": 1.031,
      "raw_dynamic_score": 0.0,
      "dynamic_level": "None"
    },
    {
      "id": "314",
      "country": "China",
      "name": "Huaihua",
      "latitude": 27.5494,
      "longitude": 109.9592,
      "base_risk": 9.44,
      "rain_6h_mm": 0.0,
      "humidity_avg": 56.5,
      "soil_moisture_avg": 0.0,
      "rain_mult": 0.0,
      "soil_mult": 0.95,
      "humidity_mult": 1.028,
      "raw_dynamic_score": 0.0,
      "dynamic_level": "None"
    },
    {
      "id": "315",
      "country": "China",
      "name": "Huainan",
      "latitude": 32.6264,
      "longitude": 116.9969,
      "base_risk": 9.11,
      "rain_6h_mm": 0.0,
      "humidity_avg": 64.2,
      "soil_moisture_avg": 0.0,
      "rain_mult": 0.0,
      "soil_mult": 0.95,
      "humidity_mult": 1.032,
      "raw_dynamic_score": 0.0,
      "dynamic_level": "None"
    },
    {
      "id": "316",
      "country": "China",
      "name": "Huangshan",
      "latitude": 29.7127,
      "longitude": 118.3225,
      "base_risk": 9.05,
      "rain_6h_mm": 0.0,
      "humidity_avg": 57.2,
      "soil_moisture_avg": 0.0,
      "rain_mult": 0.0,
      "soil_mult": 0.95,
      "humidity_mult": 1.029,
      "raw_dynamic_score": 0.0,
      "dynamic_level": "None"
    },
    {
      "id": "317",
      "country": "China",
      "name": "Huangshi",
      "latitude": 30.2068,
      "longitude": 115.0855,
      "base_risk": 9.45,
      "rain_6h_mm": 0.0,
      "humidity_avg": 54.3,
      "soil_moisture_avg": 0.0,
      "rain_mult": 0.0,
      "soil_mult": 0.95,
      "humidity_mult": 1.027,
      "raw_dynamic_score": 0.0,
      "dynamic_level": "None"
    },
    {
      "id": "318",
      "country": "China",
      "name": "Huazhou",
      "latitude": 21.6572,
      "longitude": 110.6391,
      "base_risk": 8.68,
      "rain_6h_mm": 0.0,
      "humidity_avg": 55.0,
      "soil_moisture_avg": 0.0,
      "rain_mult": 0.0,
      "soil_mult": 0.95,
      "humidity_mult": 1.028,
      "raw_dynamic_score": 0.0,
      "dynamic_level": "None"
    },
    {
      "id": "324",
      "country": "China",
      "name": "Ji'an, Jiangxi",
      "latitude": 27.1177,
      "longitude": 114.9804,
      "base_risk": 9.24,
      "rain_6h_mm": 0.0,
      "humidity_avg": 67.2,
      "soil_moisture_avg": 0.0,
      "rain_mult": 0.0,
      "soil_mult": 0.95,
      "humidity_mult": 1.034,
      "raw_dynamic_score": 0.0,
      "dynamic_level": "None"
    },
    {
      "id": "325",
      "country": "China",
      "name": "Jiangmen",
      "latitude": 22.5833,
      "longitude": 113.0833,
      "base_risk": 9.07,
      "rain_6h_mm": 0.0,
      "humidity_avg": 59.5,
      "soil_moisture_avg": 0.0,
      "rain_mult": 0.0,
      "soil_mult": 0.95,
      "humidity_mult": 1.03,
      "raw_dynamic_score": 0.0,
      "dynamic_level": "None"
    },
    {
      "id": "326",
      "country": "China",
      "name": "Jiangyin",
      "latitude": 31.9157,
      "longitude": 120.281,
      "base_risk": 9.09,
      "rain_6h_mm": 0.0,
      "humidity_avg": 59.3,
      "soil_moisture_avg": 0.0,
      "rain_mult": 0.0,
      "soil_mult": 0.95,
      "humidity_mult": 1.03,
      "raw_dynamic_score": 0.0,
      "dynamic_level": "None"
    },
    {
      "id": "327",
      "country": "China",
      "name": "Jianyang",
      "latitude": 30.3921,
      "longitude": 104.5448,
      "base_risk": 9.39,
      "rain_6h_mm": 0.9,
      "humidity_avg": 85.8,
      "soil_moisture_avg": 0.0,
      "rain_mult": 0.009,
      "soil_mult": 0.95,
      "humidity_mult": 1.043,
      "raw_dynamic_score": 0.084,
      "dynamic_level": "Low"
    },
    {
      "id": "328",
      "country": "China",
      "name": "Jiaozhou",
      "latitude": 36.2839,
      "longitude": 120.0033,
      "base_risk": 9.02,
      "rain_6h_mm": 0.0,
      "humidity_avg": 45.2,
      "soil_moisture_avg": 0.0,
      "rain_mult": 0.0,
      "soil_mult": 0.95,
      "humidity_mult": 1.023,
      "raw_dynamic_score": 0.0,
      "dynamic_level": "None"
    },
    {
      "id": "334",
      "country": "China",
      "name": "Ji'nan, Shandong",
      "latitude": 36.6767,
      "longitude": 116.9971,
      "base_risk": 9.3,
      "rain_6h_mm": 0.0,
      "humidity_avg": 46.8,
      "soil_moisture_avg": 0.0,
      "rain_mult": 0.0,
      "soil_mult": 0.95,
      "humidity_mult": 1.023,
      "raw_dynamic_score": 0.0,
      "dynamic_level": "None"
    },
    {
      "id": "335",
      "country": "China",
      "name": "Jincheng",
      "latitude": 35.4865,
      "longitude": 112.8515,
      "base_risk": 9.38,
      "rain_6h_mm": 0.0,
      "humidity_avg": 58.0,
      "soil_moisture_avg": 0.0,
      "rain_mult": 0.0,
      "soil_mult": 0.95,
      "humidity_mult": 1.029,
      "raw_dynamic_score": 0.0,
      "dynamic_level": "None"
    },
    {
      "id": "336",
      "country": "China",
      "name": "Jingdezhen",
      "latitude": 29.2947,
      "longitude": 117.2079,
      "base_risk": 9.23,
      "rain_6h_mm": 0.0,
      "humidity_avg": 57.3,
      "soil_moisture_avg": 0.0,
      "rain_mult": 0.0,
      "soil_mult": 0.95,
      "humidity_mult": 1.029,
      "raw_dynamic_score": 0.0,
      "dynamic_level": "None"
    },
    {
      "id": "337",
      "country": "China",
      "name": "Jingjiang",
      "latitude": 32.012,
      "longitude": 120.2627,
      "base_risk": 9.47,
      "rain_6h_mm": 0.0,
      "humidity_avg": 58.3,
      "soil_moisture_avg": 0.0,
      "rain_mult": 0.0,
      "soil_mult": 0.95,
      "humidity_mult": 1.029,
      "raw_dynamic_score": 0.0,
      "dynamic_level": "None"
    },
    {
      "id": "338",
      "country": "China",
      "name": "Jingmen",
      "latitude": 31.0417,
      "longitude": 112.2003,
      "base_risk": 9.46,
      "rain_6h_mm": 0.0,
      "humidity_avg": 46.7,
      "soil_moisture_avg": 0.0,
      "rain_mult": 0.0,
      "soil_mult": 0.95,
      "humidity_mult": 1.023,
      "raw_dynamic_score": 0.0,
      "dynamic_level": "None"
    },
    {
      "id": "344",
      "country": "China",
      "name": "Jinzhou",
      "latitude": 41.1078,
      "longitude": 121.1417,
      "base_risk": 9.47,
      "rain_6h_mm": 0.0,
      "humidity_avg": 40.2,
      "soil_moisture_avg": 0.0,
      "rain_mult": 0.0,
      "soil_mult": 0.95,
      "humidity_mult": 1.02,
      "raw_dynamic_score": 0.0,
      "dynamic_level": "None"
    },
    {
      "id": "345",
      "country": "China",
      "name": "Jiujiang",
      "latitude": 29.7041,
      "longitude": 116.0013,
      "base_risk": 8.61,
      "rain_6h_mm": 0.0,
      "humidity_avg": 64.3,
      "soil_moisture_avg": 0.0,
      "rain_mult": 0.0,
      "soil_mult": 0.95,
      "humidity_mult": 1.032,
      "raw_dynamic_score": 0.0,
      "dynamic_level": "None"
    },
    {
      "id": "346",
      "country": "China",
      "name": "Jiuquan",
      "latitude": 39.738,
      "longitude": 98.5042,
      "base_risk": 9.25,
      "rain_6h_mm": 0.0,
      "humidity_avg": 26.8,
      "soil_moisture_avg": 0.0,
      "rain_mult": 0.0,
      "soil_mult": 0.95,
      "humidity_mult": 1.013,
      "raw_dynamic_score": 0.0,
      "dynamic_level": "None"
    },
    {
      "id": "347",
      "country": "China",
      "name": "Jixi, Heilongjiang",
      "latitude": 45.2958,
      "longitude": 130.9701,
      "base_risk": 8.96,
      "rain_6h_mm": 0.0,
      "humidity_avg": 39.3,
      "soil_moisture_avg": 0.0,
      "rain_mult": 0.0,
      "soil_mult": 0.95,
      "humidity_mult": 1.02,
      "raw_dynamic_score": 0.0,
      "dynamic_level": "None"
    },
    {
      "id": "348",
      "country": "China",
      "name": "Jiyuan",
      "latitude": 35.0926,
      "longitude": 112.5833,
      "base_risk": 9.41,
      "rain_6h_mm": 0.0,
      "humidity_avg": 55.0,
      "soil_moisture_avg": 0.0,
      "rain_mult": 0.0,
      "soil_mult": 0.95,
      "humidity_mult": 1.028,
      "raw_dynamic_score": 0.0,
      "dynamic_level": "None"
    },
    {
      "id": "354",
      "country": "China",
      "name": "Kuerle",
      "latitude": 41.7646,
      "longitude": 86.1472,
      "base_risk": 9.37,
      "rain_6h_mm": 0.0,
      "humidity_avg": 49.8,
      "soil_moisture_avg": 0.0,
      "rain_mult": 0.0,
      "soil_mult": 0.95,
      "humidity_mult": 1.025,
      "raw_dynamic_score": 0.0,
      "dynamic_level": "None"
    },
    {
      "id": "355",
      "country": "China",
      "name": "Kunming",
      "latitude": 25.0389,
      "longitude": 102.7183,
      "base_risk": 9.25,
      "rain_6h_mm": 0.0,
      "humidity_avg": 64.0,
      "soil_moisture_avg": 0.0,
      "rain_mult": 0.0,
      "soil_mult": 0.95,
      "humidity_mult": 1.032,
      "raw_dynamic_score": 0.0,
      "dynamic_level": "None"
    },
    {
      "id": "356",
      "country": "China",
      "name": "Kunshan ",
      "latitude": 31.3881,
      "longitude": 120.9629,
      "base_risk": 9.16,
      "rain_6h_mm": 0.0,
      "humidity_avg": 68.7,
      "soil_moisture_avg": 0.0,
      "rain_mult": 0.0,
      "soil_mult": 0.95,
      "humidity_mult": 1.034,
      "raw_dynamic_score": 0.0,
      "dynamic_level": "None"
    },
    {
      "id": "357",
      "country": "China",
      "name": "Laibin",
      "latitude": 23.738,
      "longitude": 109.2268,
      "base_risk": 9.27,
      "rain_6h_mm": 0.0,
      "humidity_avg": 51.8,
      "soil_moisture_avg": 0.0,
      "rain_mult": 0.0,
      "soil_mult": 0.95,
      "humidity_mult": 1.026,
      "raw_dynamic_score": 0.0,
      "dynamic_level": "None"
    },
    {
      "id": "358",
      "country": "China",
      "name": "Laiwu",
      "latitude": 36.2074,
      "longitude": 117.672,
      "base_risk": 9.07,
      "rain_6h_mm": 0.0,
      "humidity_avg": 55.2,
      "soil_moisture_avg": 0.0,
      "rain_mult": 0.0,
      "soil_mult": 0.95,
      "humidity_mult": 1.028,
      "raw_dynamic_score": 0.0,
      "dynamic_level": "None"
    },
    {
      "id": "364",
      "country": "China",
      "name": "Leiyang",
      "latitude": 26.4169,
      "longitude": 112.8503,
      "base_risk": 9.21,
      "rain_6h_mm": 0.0,
      "humidity_avg": 72.2,
      "soil_moisture_avg": 0.0,
      "rain_mult": 0.0,
      "soil_mult": 0.95,
      "humidity_mult": 1.036,
      "raw_dynamic_score": 0.0,
      "dynamic_level": "None"
    },
    {
      "id": "365",
      "country": "China",
      "name": "Lengshuijiang",
      "latitude": 27.6879,
      "longitude": 111.4374,
      "base_risk": 9.24,
      "rain_6h_mm": 0.0,
      "humidity_avg": 58.5,
      "soil_moisture_avg": 0.0,
      "rain_mult": 0.0,
      "soil_mult": 0.95,
      "humidity_mult": 1.029,
      "raw_dynamic_score": 0.0,
      "dynamic_level": "None"
    },
    {
      "id": "366",
      "country": "China",
      "name": "Leping",
      "latitude": 28.972,
      "longitude": 117.1283,
      "base_risk": 9.5,
      "rain_6h_mm": 0.0,
      "humidity_avg": 52.7,
      "soil_moisture_avg": 0.0,
      "rain_mult": 0.0,
      "soil_mult": 0.95,
      "humidity_mult": 1.026,
      "raw_dynamic_score": 0.0,
      "dynamic_level": "None"
    },
    {
      "id": "367",
      "country": "China",
      "name": "Leshan",
      "latitude": 29.5762,
      "longitude": 103.759,
      "base_risk": 8.97,
      "rain_6h_mm": 0.3,
      "humidity_avg": 79.2,
      "soil_moisture_avg": 0.0,
      "rain_mult": 0.003,
      "soil_mult": 0.95,
      "humidity_mult": 1.04,
      "raw_dynamic_score": 0.027,
      "dynamic_level": "Low"
    },
    {
      "id": "368",
      "country": "China",
      "name": "Lianyungang",
      "latitude": 34.5969,
      "longitude": 119.1758,
      "base_risk": 9.49,
      "rain_6h_mm": 0.0,
      "humidity_avg": 66.7,
      "soil_moisture_avg": 0.0,
      "rain_mult": 0.0,
      "soil_mult": 0.95,
      "humidity_mult": 1.033,
      "raw_dynamic_score": 0.0,
      "dynamic_level": "None"
    },
    {
      "id": "374",
      "country": "China",
      "name": "Linhai",
      "latitude": 28.8529,
      "longitude": 121.1403,
      "base_risk": 9.13,
      "rain_6h_mm": 15.0,
      "humidity_avg": 91.0,
      "soil_moisture_avg": 0.0,
      "rain_mult": 0.15,
      "soil_mult": 0.95,
      "humidity_mult": 1.046,
      "raw_dynamic_score": 1.36,
      "dynamic_level": "Low"
    },
    {
      "id": "375",
      "country": "China",
      "name": "Linqing",
      "latitude": 36.8456,
      "longitude": 115.7117,
      "base_risk": 9.39,
      "rain_6h_mm": 0.0,
      "humidity_avg": 53.2,
      "soil_moisture_avg": 0.0,
      "rain_mult": 0.0,
      "soil_mult": 0.95,
      "humidity_mult": 1.027,
      "raw_dynamic_score": 0.0,
      "dynamic_level": "None"
    },
    {
      "id": "376",
      "country": "China",
      "name": "Linyi, Shandong",
      "latitude": 35.0541,
      "longitude": 118.3334,
      "base_risk": 9.35,
      "rain_6h_mm": 0.0,
      "humidity_avg": 53.3,
      "soil_moisture_avg": 0.0,
      "rain_mult": 0.0,
      "soil_mult": 0.95,
      "humidity_mult": 1.027,
      "raw_dynamic_score": 0.0,
      "dynamic_level": "None"
    },
    {
      "id": "377",
      "country": "China",
      "name": "Linzhou",
      "latitude": 36.071,
      "longitude": 113.8156,
      "base_risk": 8.67,
      "rain_6h_mm": 0.0,
      "humidity_avg": 52.0,
      "soil_moisture_avg": 0.0,
      "rain_mult": 0.0,
      "soil_mult": 0.95,
      "humidity_mult": 1.026,
      "raw_dynamic_score": 0.0,
      "dynamic_level": "None"
    },
    {
      "id": "378",
      "country": "China",
      "name": "Lishui, Zhejiang",
      "latitude": 28.457,
      "longitude": 119.9192,
      "base_risk": 9.47,
      "rain_6h_mm": 7.4,
      "humidity_avg": 93.0,
      "soil_moisture_avg": 0.0,
      "rain_mult": 0.074,
      "soil_mult": 0.95,
      "humidity_mult": 1.046,
      "raw_dynamic_score": 0.697,
      "dynamic_level": "Low"
    },
    {
      "id": "381",
      "country": "China",
      "name": "Liuyang",
      "latitude": 28.15,
      "longitude": 113.6333,
      "base_risk": 9.29,
      "rain_6h_mm": 0.0,
      "humidity_avg": 81.0,
      "soil_moisture_avg": 0.0,
      "rain_mult": 0.0,
      "soil_mult": 0.95,
      "humidity_mult": 1.04,
      "raw_dynamic_score": 0.0,
      "dynamic_level": "None"
    },
    {
      "id": "385",
      "country": "China",
      "name": "Longhai",
      "latitude": 24.4462,
      "longitude": 117.809,
      "base_risk": 9.37,
      "rain_6h_mm": 0.2,
      "humidity_avg": 73.0,
      "soil_moisture_avg": 0.0,
      "rain_mult": 0.002,
      "soil_mult": 0.95,
      "humidity_mult": 1.036,
      "raw_dynamic_score": 0.018,
      "dynamic_level": "Low"
    },
    {
      "id": "387",
      "country": "China",
      "name": "Longyan",
      "latitude": 25.1072,
      "longitude": 117.0225,
      "base_risk": 9.17,
      "rain_6h_mm": 0.0,
      "humidity_avg": 81.3,
      "soil_moisture_avg": 0.0,
      "rain_mult": 0.0,
      "soil_mult": 0.95,
      "humidity_mult": 1.041,
      "raw_dynamic_score": 0.0,
      "dynamic_level": "None"
    },
    {
      "id": "389",
      "country": "China",
      "name": "Luoding",
      "latitude": 22.7708,
      "longitude": 111.566,
      "base_risk": 9.41,
      "rain_6h_mm": 0.0,
      "humidity_avg": 57.0,
      "soil_moisture_avg": 0.0,
      "rain_mult": 0.0,
      "soil_mult": 0.95,
      "humidity_mult": 1.028,
      "raw_dynamic_score": 0.0,
      "dynamic_level": "None"
    },
    {
      "id": "390",
      "country": "China",
      "name": "Luohe",
      "latitude": 33.5731,
      "longitude": 114.0241,
      "base_risk": 9.13,
      "rain_6h_mm": 0.0,
      "humidity_avg": 54.8,
      "soil_moisture_avg": 0.0,
      "rain_mult": 0.0,
      "soil_mult": 0.95,
      "humidity_mult": 1.027,
      "raw_dynamic_score": 0.0,
      "dynamic_level": "None"
    },
    {
      "id": "391",
      "country": "China",
      "name": "Luoyang",
      "latitude": 34.6186,
      "longitude": 112.4562,
      "base_risk": 9.35,
      "rain_6h_mm": 0.0,
      "humidity_avg": 55.8,
      "soil_moisture_avg": 0.0,
      "rain_mult": 0.0,
      "soil_mult": 0.95,
      "humidity_mult": 1.028,
      "raw_dynamic_score": 0.0,
      "dynamic_level": "None"
    },
    {
      "id": "393",
      "country": "China",
      "name": "Lvliang",
      "latitude": 37.5195,
      "longitude": 111.1318,
      "base_risk": 9.12,
      "rain_6h_mm": 0.0,
      "humidity_avg": 45.5,
      "soil_moisture_avg": 0.0,
      "rain_mult": 0.0,
      "soil_mult": 0.95,
      "humidity_mult": 1.023,
      "raw_dynamic_score": 0.0,
      "dynamic_level": "None"
    },
    {
      "id": "394",
      "country": "China",
      "name": "Ma'anshan",
      "latitude": 31.7071,
      "longitude": 118.5038,
      "base_risk": 9.18,
      "rain_6h_mm": 0.0,
      "humidity_avg": 63.0,
      "soil_moisture_avg": 0.0,
      "rain_mult": 0.0,
      "soil_mult": 0.95,
      "humidity_mult": 1.032,
      "raw_dynamic_score": 0.0,
      "dynamic_level": "None"
    },
    {
      "id": "399",
      "country": "China",
      "name": "Meizhou",
      "latitude": 24.2989,
      "longitude": 116.1214,
      "base_risk": 9.45,
      "rain_6h_mm": 0.0,
      "humidity_avg": 64.0,
      "soil_moisture_avg": 0.0,
      "rain_mult": 0.0,
      "soil_mult": 0.95,
      "humidity_mult": 1.032,
      "raw_dynamic_score": 0.0,
      "dynamic_level": "None"
    },
    {
      "id": "400",
      "country": "China",
      "name": "Mianyang, Sichuan",
      "latitude": 31.4839,
      "longitude": 104.737,
      "base_risk": 9.43,
      "rain_6h_mm": 0.2,
      "humidity_avg": 78.5,
      "soil_moisture_avg": 0.0,
      "rain_mult": 0.002,
      "soil_mult": 0.95,
      "humidity_mult": 1.039,
      "raw_dynamic_score": 0.019,
      "dynamic_level": "Low"
    },
    {
      "id": "401",
      "country": "China",
      "name": "Miluo",
      "latitude": 28.8069,
      "longitude": 113.0721,
      "base_risk": 8.82,
      "rain_6h_mm": 0.0,
      "humidity_avg": 71.8,
      "soil_moisture_avg": 0.0,
      "rain_mult": 0.0,
      "soil_mult": 0.95,
      "humidity_mult": 1.036,
      "raw_dynamic_score": 0.0,
      "dynamic_level": "None"
    },
    {
      "id": "406",
      "country": "China",
      "name": "Nankang",
      "latitude": 25.6655,
      "longitude": 114.7558,
      "base_risk": 9.4,
      "rain_6h_mm": 0.0,
      "humidity_avg": 67.3,
      "soil_moisture_avg": 0.0,
      "rain_mult": 0.0,
      "soil_mult": 0.95,
      "humidity_mult": 1.034,
      "raw_dynamic_score": 0.0,
      "dynamic_level": "None"
    },
    {
      "id": "407",
      "country": "China",
      "name": "Nanning",
      "latitude": 22.8167,
      "longitude": 108.3167,
      "base_risk": 9.5,
      "rain_6h_mm": 0.0,
      "humidity_avg": 57.8,
      "soil_moisture_avg": 0.0,
      "rain_mult": 0.0,
      "soil_mult": 0.95,
      "humidity_mult": 1.029,
      "raw_dynamic_score": 0.0,
      "dynamic_level": "None"
    },
    {
      "id": "408",
      "country": "China",
      "name": "Nanping",
      "latitude": 26.6433,
      "longitude": 118.1741,
      "base_risk": 9.03,
      "rain_6h_mm": 0.0,
      "humidity_avg": 92.7,
      "soil_moisture_avg": 0.0,
      "rain_mult": 0.0,
      "soil_mult": 0.95,
      "humidity_mult": 1.046,
      "raw_dynamic_score": 0.0,
      "dynamic_level": "None"
    },
    {
      "id": "409",
      "country": "China",
      "name": "Nantong",
      "latitude": 31.9904,
      "longitude": 120.8655,
      "base_risk": 8.72,
      "rain_6h_mm": 0.0,
      "humidity_avg": 65.8,
      "soil_moisture_avg": 0.0,
      "rain_mult": 0.0,
      "soil_mult": 0.95,
      "humidity_mult": 1.033,
      "raw_dynamic_score": 0.0,
      "dynamic_level": "None"
    },
    {
      "id": "410",
      "country": "China",
      "name": "Nanyang, Henan",
      "latitude": 32.9999,
      "longitude": 112.5259,
      "base_risk": 9.48,
      "rain_6h_mm": 0.0,
      "humidity_avg": 44.7,
      "soil_moisture_avg": 0.0,
      "rain_mult": 0.0,
      "soil_mult": 0.95,
      "humidity_mult": 1.022,
      "raw_dynamic_score": 0.0,
      "dynamic_level": "None"
    },
    {
      "id": "414",
      "country": "China",
      "name": "Ningguo",
      "latitude": 30.6209,
      "longitude": 118.9796,
      "base_risk": 9.37,
      "rain_6h_mm": 0.0,
      "humidity_avg": 66.3,
      "soil_moisture_avg": 0.0,
      "rain_mult": 0.0,
      "soil_mult": 0.95,
      "humidity_mult": 1.033,
      "raw_dynamic_score": 0.0,
      "dynamic_level": "None"
    },
    {
      "id": "415",
      "country": "China",
      "name": "Panjin",
      "latitude": 41.1219,
      "longitude": 122.0701,
      "base_risk": 9.4,
      "rain_6h_mm": 0.0,
      "humidity_avg": 64.0,
      "soil_moisture_avg": 0.0,
      "rain_mult": 0.0,
      "soil_mult": 0.95,
      "humidity_mult": 1.032,
      "raw_dynamic_score": 0.0,
      "dynamic_level": "None"
    },
    {
      "id": "416",
      "country": "China",
      "name": "Panzhihua",
      "latitude": 26.5851,
      "longitude": 101.7128,
      "base_risk": 9.15,
      "rain_6h_mm": 0.0,
      "humidity_avg": 62.3,
      "soil_moisture_avg": 0.0,
      "rain_mult": 0.0,
      "soil_mult": 0.95,
      "humidity_mult": 1.031,
      "raw_dynamic_score": 0.0,
      "dynamic_level": "None"
    },
    {
      "id": "421",
      "country": "China",
      "name": "Pingxiang, Jiangxi",
      "latitude": 27.6348,
      "longitude": 113.8477,
      "base_risk": 9.5,
      "rain_6h_mm": 0.0,
      "humidity_avg": 76.8,
      "soil_moisture_avg": 0.0,
      "rain_mult": 0.0,
      "soil_mult": 0.95,
      "humidity_mult": 1.038,
      "raw_dynamic_score": 0.0,
      "dynamic_level": "None"
    },
    {
      "id": "422",
      "country": "China",
      "name": "Pizhou",
      "latitude": 34.3114,
      "longitude": 117.9503,
      "base_risk": 9.42,
      "rain_6h_mm": 0.0,
      "humidity_avg": 65.8,
      "soil_moisture_avg": 0.0,
      "rain_mult": 0.0,
      "soil_mult": 0.95,
      "humidity_mult": 1.033,
      "raw_dynamic_score": 0.0,
      "dynamic_level": "None"
    },
    {
      "id": "423",
      "country": "China",
      "name": "Puning",
      "latitude": 23.2967,
      "longitude": 116.1647,
      "base_risk": 9.4,
      "rain_6h_mm": 0.0,
      "humidity_avg": 69.5,
      "soil_moisture_avg": 0.0,
      "rain_mult": 0.0,
      "soil_mult": 0.95,
      "humidity_mult": 1.035,
      "raw_dynamic_score": 0.0,
      "dynamic_level": "None"
    },
    {
      "id": "424",
      "country": "China",
      "name": "Putian",
      "latitude": 25.4394,
      "longitude": 119.0103,
      "base_risk": 9.12,
      "rain_6h_mm": 7.4,
      "humidity_avg": 84.0,
      "soil_moisture_avg": 0.0,
      "rain_mult": 0.074,
      "soil_mult": 0.95,
      "humidity_mult": 1.042,
      "raw_dynamic_score": 0.668,
      "dynamic_level": "Low"
    },
    {
      "id": "429",
      "country": "China",
      "name": "Qingyuan",
      "latitude": 23.7146,
      "longitude": 113.0297,
      "base_risk": 9.47,
      "rain_6h_mm": 0.0,
      "humidity_avg": 58.2,
      "soil_moisture_avg": 0.0,
      "rain_mult": 0.0,
      "soil_mult": 0.95,
      "humidity_mult": 1.029,
      "raw_dynamic_score": 0.0,
      "dynamic_level": "None"
    },
    {
      "id": "430",
      "country": "China",
      "name": "Qingzhou",
      "latitude": 36.6845,
      "longitude": 118.4796,
      "base_risk": 9.26,
      "rain_6h_mm": 0.0,
      "humidity_avg": 41.8,
      "soil_moisture_avg": 0.0,
      "rain_mult": 0.0,
      "soil_mult": 0.95,
      "humidity_mult": 1.021,
      "raw_dynamic_score": 0.0,
      "dynamic_level": "None"
    },
    {
      "id": "431",
      "country": "China",
      "name": "Qinhuangdao",
      "latitude": 39.9317,
      "longitude": 119.5883,
      "base_risk": 9.2,
      "rain_6h_mm": 0.0,
      "humidity_avg": 61.7,
      "soil_moisture_avg": 0.0,
      "rain_mult": 0.0,
      "soil_mult": 0.95,
      "humidity_mult": 1.031,
      "raw_dynamic_score": 0.0,
      "dynamic_level": "None"
    },
    {
      "id": "436",
      "country": "China",
      "name": "Qufu",
      "latitude": 35.5967,
      "longitude": 116.9911,
      "base_risk": 9.04,
      "rain_6h_mm": 0.0,
      "humidity_avg": 63.0,
      "soil_moisture_avg": 0.0,
      "rain_mult": 0.0,
      "soil_mult": 0.95,
      "humidity_mult": 1.032,
      "raw_dynamic_score": 0.0,
      "dynamic_level": "None"
    },
    {
      "id": "437",
      "country": "China",
      "name": "Qujing",
      "latitude": 25.4894,
      "longitude": 103.7977,
      "base_risk": 9.48,
      "rain_6h_mm": 0.0,
      "humidity_avg": 69.5,
      "soil_moisture_avg": 0.0,
      "rain_mult": 0.0,
      "soil_mult": 0.95,
      "humidity_mult": 1.035,
      "raw_dynamic_score": 0.0,
      "dynamic_level": "None"
    },
    {
      "id": "438",
      "country": "China",
      "name": "Quzhou",
      "latitude": 28.9594,
      "longitude": 118.8686,
      "base_risk": 8.67,
      "rain_6h_mm": 0.2,
      "humidity_avg": 81.7,
      "soil_moisture_avg": 0.0,
      "rain_mult": 0.002,
      "soil_mult": 0.95,
      "humidity_mult": 1.041,
      "raw_dynamic_score": 0.017,
      "dynamic_level": "Low"
    },
    {
      "id": "439",
      "country": "China",
      "name": "Renqiu",
      "latitude": 38.6989,
      "longitude": 116.0936,
      "base_risk": 9.46,
      "rain_6h_mm": 0.0,
      "humidity_avg": 64.0,
      "soil_moisture_avg": 0.0,
      "rain_mult": 0.0,
      "soil_mult": 0.95,
      "humidity_mult": 1.032,
      "raw_dynamic_score": 0.0,
      "dynamic_level": "None"
    },
    {
      "id": "440",
      "country": "China",
      "name": "Rizhao",
      "latitude": 35.4034,
      "longitude": 119.512,
      "base_risk": 9.46,
      "rain_6h_mm": 0.0,
      "humidity_avg": 53.0,
      "soil_moisture_avg": 0.0,
      "rain_mult": 0.0,
      "soil_mult": 0.95,
      "humidity_mult": 1.026,
      "raw_dynamic_score": 0.0,
      "dynamic_level": "None"
    },
    {
      "id": "445",
      "country": "China",
      "name": "Sanhe",
      "latitude": 39.9819,
      "longitude": 117.0713,
      "base_risk": 9.26,
      "rain_6h_mm": 0.0,
      "humidity_avg": 62.0,
      "soil_moisture_avg": 0.0,
      "rain_mult": 0.0,
      "soil_mult": 0.95,
      "humidity_mult": 1.031,
      "raw_dynamic_score": 0.0,
      "dynamic_level": "None"
    },
    {
      "id": "446",
      "country": "China",
      "name": "Sanmenxia",
      "latitude": 34.7715,
      "longitude": 111.2038,
      "base_risk": 9.0,
      "rain_6h_mm": 0.0,
      "humidity_avg": 60.5,
      "soil_moisture_avg": 0.0,
      "rain_mult": 0.0,
      "soil_mult": 0.95,
      "humidity_mult": 1.03,
      "raw_dynamic_score": 0.0,
      "dynamic_level": "None"
    },
    {
      "id": "447",
      "country": "China",
      "name": "Sanming",
      "latitude": 26.2641,
      "longitude": 117.6191,
      "base_risk": 9.19,
      "rain_6h_mm": 0.0,
      "humidity_avg": 85.8,
      "soil_moisture_avg": 0.0,
      "rain_mult": 0.0,
      "soil_mult": 0.95,
      "humidity_mult": 1.043,
      "raw_dynamic_score": 0.0,
      "dynamic_level": "None"
    },
    {
      "id": "448",
      "country": "China",
      "name": "Sanya",
      "latitude": 18.2676,
      "longitude": 109.5034,
      "base_risk": 9.41,
      "rain_6h_mm": 0.0,
      "humidity_avg": 68.7,
      "soil_moisture_avg": 0.0,
      "rain_mult": 0.0,
      "soil_mult": 0.95,
      "humidity_mult": 1.034,
      "raw_dynamic_score": 0.0,
      "dynamic_level": "None"
    },
    {
      "id": "449",
      "country": "China",
      "name": "Shanghai",
      "latitude": 31.2222,
      "longitude": 121.4581,
      "base_risk": 8.76,
      "rain_6h_mm": 0.0,
      "humidity_avg": 64.2,
      "soil_moisture_avg": 0.0,
      "rain_mult": 0.0,
      "soil_mult": 0.95,
      "humidity_mult": 1.032,
      "raw_dynamic_score": 0.0,
      "dynamic_level": "None"
    },
    {
      "id": "455",
      "country": "China",
      "name": "Shaoguan",
      "latitude": 24.8,
      "longitude": 113.5833,
      "base_risk": 9.11,
      "rain_6h_mm": 0.0,
      "humidity_avg": 64.5,
      "soil_moisture_avg": 0.0,
      "rain_mult": 0.0,
      "soil_mult": 0.95,
      "humidity_mult": 1.032,
      "raw_dynamic_score": 0.0,
      "dynamic_level": "None"
    },
    {
      "id": "456",
      "country": "China",
      "name": "Shaoxing",
      "latitude": 30.011,
      "longitude": 120.5715,
      "base_risk": 9.32,
      "rain_6h_mm": 1.8,
      "humidity_avg": 88.7,
      "soil_moisture_avg": 0.0,
      "rain_mult": 0.018,
      "soil_mult": 0.95,
      "humidity_mult": 1.044,
      "raw_dynamic_score": 0.166,
      "dynamic_level": "Low"
    },
    {
      "id": "457",
      "country": "China",
      "name": "Shaoyang",
      "latitude": 27.2403,
      "longitude": 111.4709,
      "base_risk": 9.08,
      "rain_6h_mm": 0.0,
      "humidity_avg": 59.5,
      "soil_moisture_avg": 0.0,
      "rain_mult": 0.0,
      "soil_mult": 0.95,
      "humidity_mult": 1.03,
      "raw_dynamic_score": 0.0,
      "dynamic_level": "None"
    },
    {
      "id": "458",
      "country": "China",
      "name": "Shengzhou",
      "latitude": 29.593,
      "longitude": 120.8214,
      "base_risk": 9.02,
      "rain_6h_mm": 9.7,
      "humidity_avg": 91.3,
      "soil_moisture_avg": 0.0,
      "rain_mult": 0.097,
      "soil_mult": 0.95,
      "humidity_mult": 1.046,
      "raw_dynamic_score": 0.869,
      "dynamic_level": "Low"
    },
    {
      "id": "459",
      "country": "China",
      "name": "Shenmu",
      "latitude": 38.8341,
      "longitude": 110.4847,
      "base_risk": 9.2,
      "rain_6h_mm": 0.0,
      "humidity_avg": 32.7,
      "soil_moisture_avg": 0.0,
      "rain_mult": 0.0,
      "soil_mult": 0.95,
      "humidity_mult": 1.016,
      "raw_dynamic_score": 0.0,
      "dynamic_level": "None"
    },
    {
      "id": "465",
      "country": "China",
      "name": "Shiyan",
      "latitude": 32.6445,
      "longitude": 110.7836,
      "base_risk": 9.33,
      "rain_6h_mm": 0.0,
      "humidity_avg": 52.8,
      "soil_moisture_avg": 0.0,
      "rain_mult": 0.0,
      "soil_mult": 0.95,
      "humidity_mult": 1.026,
      "raw_dynamic_score": 0.0,
      "dynamic_level": "None"
    },
    {
      "id": "466",
      "country": "China",
      "name": "Shizuishan",
      "latitude": 39.2333,
      "longitude": 106.7694,
      "base_risk": 8.88,
      "rain_6h_mm": 0.0,
      "humidity_avg": 30.3,
      "soil_moisture_avg": 0.0,
      "rain_mult": 0.0,
      "soil_mult": 0.95,
      "humidity_mult": 1.015,
      "raw_dynamic_score": 0.0,
      "dynamic_level": "None"
    },
    {
      "id": "467",
      "country": "China",
      "name": "Shouguang",
      "latitude": 36.8788,
      "longitude": 118.7482,
      "base_risk": 9.08,
      "rain_6h_mm": 0.0,
      "humidity_avg": 51.8,
      "soil_moisture_avg": 0.0,
      "rain_mult": 0.0,
      "soil_mult": 0.95,
      "humidity_mult": 1.026,
      "raw_dynamic_score": 0.0,
      "dynamic_level": "None"
    },
    {
      "id": "468",
      "country": "China",
      "name": "Shuangyashan",
      "latitude": 46.6361,
      "longitude": 131.1539,
      "base_risk": 8.94,
      "rain_6h_mm": 0.0,
      "humidity_avg": 35.2,
      "soil_moisture_avg": 0.0,
      "rain_mult": 0.0,
      "soil_mult": 0.95,
      "humidity_mult": 1.018,
      "raw_dynamic_score": 0.0,
      "dynamic_level": "None"
    },
    {
      "id": "469",
      "country": "China",
      "name": "Shuozhou",
      "latitude": 39.3158,
      "longitude": 112.4225,
      "base_risk": 9.24,
      "rain_6h_mm": 0.0,
      "humidity_avg": 31.0,
      "soil_moisture_avg": 0.0,
      "rain_mult": 0.0,
      "soil_mult": 0.95,
      "humidity_mult": 1.016,
      "raw_dynamic_score": 0.0,
      "dynamic_level": "None"
    },
    {
      "id": "475",
      "country": "China",
      "name": "Suining, Sichuan",
      "latitude": 30.5236,
      "longitude": 105.5639,
      "base_risk": 9.16,
      "rain_6h_mm": 0.0,
      "humidity_avg": 86.5,
      "soil_moisture_avg": 0.0,
      "rain_mult": 0.0,
      "soil_mult": 0.95,
      "humidity_mult": 1.043,
      "raw_dynamic_score": 0.0,
      "dynamic_level": "None"
    },
    {
      "id": "476",
      "country": "China",
      "name": "Suizhou",
      "latitude": 31.7111,
      "longitude": 113.3631,
      "base_risk": 9.25,
      "rain_6h_mm": 0.0,
      "humidity_avg": 49.7,
      "soil_moisture_avg": 0.0,
      "rain_mult": 0.0,
      "soil_mult": 0.95,
      "humidity_mult": 1.025,
      "raw_dynamic_score": 0.0,
      "dynamic_level": "None"
    },
    {
      "id": "477",
      "country": "China",
      "name": "Suqian",
      "latitude": 33.9681,
      "longitude": 118.2924,
      "base_risk": 9.15,
      "rain_6h_mm": 0.0,
      "humidity_avg": 64.7,
      "soil_moisture_avg": 0.0,
      "rain_mult": 0.0,
      "soil_mult": 0.95,
      "humidity_mult": 1.032,
      "raw_dynamic_score": 0.0,
      "dynamic_level": "None"
    },
    {
      "id": "478",
      "country": "China",
      "name": "Suzhou, Anhui",
      "latitude": 33.6359,
      "longitude": 116.9747,
      "base_risk": 9.3,
      "rain_6h_mm": 0.0,
      "humidity_avg": 65.0,
      "soil_moisture_avg": 0.0,
      "rain_mult": 0.0,
      "soil_mult": 0.95,
      "humidity_mult": 1.032,
      "raw_dynamic_score": 0.0,
      "dynamic_level": "None"
    },
    {
      "id": "479",
      "country": "China",
      "name": "Suzhou, Jiangsu",
      "latitude": 31.3021,
      "longitude": 120.5853,
      "base_risk": 9.34,
      "rain_6h_mm": 0.0,
      "humidity_avg": 66.2,
      "soil_moisture_avg": 0.0,
      "rain_mult": 0.0,
      "soil_mult": 0.95,
      "humidity_mult": 1.033,
      "raw_dynamic_score": 0.0,
      "dynamic_level": "None"
    },
    {
      "id": "485",
      "country": "China",
      "name": "Taizhou, Jiangsu",
      "latitude": 32.4945,
      "longitude": 119.9029,
      "base_risk": 8.55,
      "rain_6h_mm": 0.0,
      "humidity_avg": 55.3,
      "soil_moisture_avg": 0.0,
      "rain_mult": 0.0,
      "soil_mult": 0.95,
      "humidity_mult": 1.028,
      "raw_dynamic_score": 0.0,
      "dynamic_level": "None"
    },
    {
      "id": "486",
      "country": "China",
      "name": "Taizhou, Zhejiang",
      "latitude": 28.6372,
      "longitude": 121.4185,
      "base_risk": 9.22,
      "rain_6h_mm": 7.7,
      "humidity_avg": 86.2,
      "soil_moisture_avg": 0.0,
      "rain_mult": 0.077,
      "soil_mult": 0.95,
      "humidity_mult": 1.043,
      "raw_dynamic_score": 0.704,
      "dynamic_level": "Low"
    },
    {
      "id": "487",
      "country": "China",
      "name": "Tangshan, Hebei",
      "latitude": 39.6285,
      "longitude": 118.1799,
      "base_risk": 8.71,
      "rain_6h_mm": 0.0,
      "humidity_avg": 57.7,
      "soil_moisture_avg": 0.0,
      "rain_mult": 0.0,
      "soil_mult": 0.95,
      "humidity_mult": 1.029,
      "raw_dynamic_score": 0.0,
      "dynamic_level": "None"
    },
    {
      "id": "488",
      "country": "China",
      "name": "Tengzhou",
      "latitude": 35.0845,
      "longitude": 117.1624,
      "base_risk": 9.32,
      "rain_6h_mm": 0.0,
      "humidity_avg": 59.0,
      "soil_moisture_avg": 0.0,
      "rain_mult": 0.0,
      "soil_mult": 0.95,
      "humidity_mult": 1.03,
      "raw_dynamic_score": 0.0,
      "dynamic_level": "None"
    },
    {
      "id": "489",
      "country": "China",
      "name": "Tianjin",
      "latitude": 39.1088,
      "longitude": 117.1886,
      "base_risk": 8.93,
      "rain_6h_mm": 0.0,
      "humidity_avg": 60.7,
      "soil_moisture_avg": 0.0,
      "rain_mult": 0.0,
      "soil_mult": 0.95,
      "humidity_mult": 1.03,
      "raw_dynamic_score": 0.0,
      "dynamic_level": "None"
    },
    {
      "id": "495",
      "country": "China",
      "name": "Tonghua",
      "latitude": 41.7201,
      "longitude": 125.9281,
      "base_risk": 9.22,
      "rain_6h_mm": 0.0,
      "humidity_avg": 70.3,
      "soil_moisture_avg": 0.0,
      "rain_mult": 0.0,
      "soil_mult": 0.95,
      "humidity_mult": 1.035,
      "raw_dynamic_score": 0.0,
      "dynamic_level": "None"
    },
    {
      "id": "496",
      "country": "China",
      "name": "Tongliao",
      "latitude": 43.6125,
      "longitude": 122.2653,
      "base_risk": 9.22,
      "rain_6h_mm": 0.0,
      "humidity_avg": 25.2,
      "soil_moisture_avg": 0.0,
      "rain_mult": 0.0,
      "soil_mult": 0.95,
      "humidity_mult": 1.013,
      "raw_dynamic_score": 0.0,
      "dynamic_level": "None"
    },
    {
      "id": "497",
      "country": "China",
      "name": "Tongling",
      "latitude": 30.9363,
      "longitude": 117.8109,
      "base_risk": 9.19,
      "rain_6h_mm": 0.0,
      "humidity_avg": 64.8,
      "soil_moisture_avg": 0.0,
      "rain_mult": 0.0,
      "soil_mult": 0.95,
      "humidity_mult": 1.032,
      "raw_dynamic_score": 0.0,
      "dynamic_level": "None"
    },
    {
      "id": "498",
      "country": "China",
      "name": "Tongxiang",
      "latitude": 30.6296,
      "longitude": 120.5536,
      "base_risk": 9.12,
      "rain_6h_mm": 0.0,
      "humidity_avg": 73.3,
      "soil_moisture_avg": 0.0,
      "rain_mult": 0.0,
      "soil_mult": 0.95,
      "humidity_mult": 1.037,
      "raw_dynamic_score": 0.0,
      "dynamic_level": "None"
    },
    {
      "id": "499",
      "country": "China",
      "name": "Ürümqi (Wulumqi)",
      "latitude": 43.8253,
      "longitude": 87.6038,
      "base_risk": 9.45,
      "rain_6h_mm": 0.0,
      "humidity_avg": 52.2,
      "soil_moisture_avg": 0.0,
      "rain_mult": 0.0,
      "soil_mult": 0.95,
      "humidity_mult": 1.026,
      "raw_dynamic_score": 0.0,
      "dynamic_level": "None"
    },
    {
      "id": "505",
      "country": "China",
      "name": "Wenchang",
      "latitude": 19.614,
      "longitude": 110.7505,
      "base_risk": 9.5,
      "rain_6h_mm": 0.0,
      "humidity_avg": 71.7,
      "soil_moisture_avg": 0.0,
      "rain_mult": 0.0,
      "soil_mult": 0.95,
      "humidity_mult": 1.036,
      "raw_dynamic_score": 0.0,
      "dynamic_level": "None"
    },
    {
      "id": "506",
      "country": "China",
      "name": "Wenling",
      "latitude": 28.3758,
      "longitude": 121.3781,
      "base_risk": 9.23,
      "rain_6h_mm": 8.5,
      "humidity_avg": 86.0,
      "soil_moisture_avg": 0.0,
      "rain_mult": 0.085,
      "soil_mult": 0.95,
      "humidity_mult": 1.043,
      "raw_dynamic_score": 0.777,
      "dynamic_level": "Low"
    },