{
  "timestamp": "2025-11-12T15:25:17.478638Z",
  "source": "Open-Meteo",
  "forecast_window_hours": 6,
  "features_evaluated": 939,
  "alerts": [
    {
      "id": "1",
      "country": "Afghanistan",
      "name": "Herat",
      "latitude": 34.3482,
      "longitude": 62.1997,
      "base_risk": 9.5,
      "rain_6h_mm": 0.0,
      "humidity_avg": 27.0,
      "soil_moisture_avg": 0.0,
      "rain_mult": 0.0,
      "soil_mult": 0.95,
      "humidity_mult": 1.014,
      "raw_dynamic_score": 0.0,
      "dynamic_level": "None"
    },
    {
      "id": "2",
      "country": "Afghanistan",
      "name": "Kabul",
      "latitude": 34.5289,
      "longitude": 69.1725,
      "base_risk": 9.13,
      "rain_6h_mm": 0.0,
      "humidity_avg": 22.3,
      "soil_moisture_avg": 0.0,
      "rain_mult": 0.0,
      "soil_mult": 0.95,
      "humidity_mult": 1.011,
      "raw_dynamic_score": 0.0,
      "dynamic_level": "None"
    },
    {
      "id": "3",
      "country": "Afghanistan",
      "name": "Kandahar",
      "latitude": 31.6133,
      "longitude": 65.7101,
      "base_risk": 9.39,
      "rain_6h_mm": 0.0,
      "humidity_avg": 18.2,
      "soil_moisture_avg": 0.0,
      "rain_mult": 0.0,
      "soil_mult": 0.95,
      "humidity_mult": 1.009,
      "raw_dynamic_score": 0.0,
      "dynamic_level": "None"
    },
    {
      "id": "4",
      "country": "Afghanistan",
      "name": "Mazar-e Sharif",
      "latitude": 36.709,
      "longitude": 67.1109,
      "base_risk": 9.23,
      "rain_6h_mm": 0.0,
      "humidity_avg": 48.0,
      "soil_moisture_avg": 0.0,
      "rain_mult": 0.0,
      "soil_mult": 0.95,
      "humidity_mult": 1.024,
      "raw_dynamic_score": 0.0,
      "dynamic_level": "None"
    },
    {
      "id": "5",
      "country": "Albania",
      "name": "Tiranë (Tirana)",
      "latitude": 41.3275,
      "longitude": 19.8189,
      "base_risk": 9.32,
      "rain_6h_mm": 0.0,
      "humidity_avg": 72.5,
      "soil_moisture_avg": 0.0,
      "rain_mult": 0.0,
      "soil_mult": 0.95,
      "humidity_mult": 1.036,
      "raw_dynamic_score": 0.0,
      "dynamic_level": "None"
    },
    {
      "id": "11",
      "country": "Algeria",
      "name": "Qacentina",
      "latitude": 36.3549,
      "longitude": 6.6073,
      "base_risk": 9.09,
      "rain_6h_mm": 0.0,
      "humidity_avg": 40.7,
      "soil_moisture_avg": 0.0,
      "rain_mult": 0.0,
      "soil_mult": 0.95,
      "humidity_mult": 1.02,
      "raw_dynamic_score": 0.0,
      "dynamic_level": "None"
    },
    {
      "id": "12",
      "country": "Algeria",
      "name": "Sétif",
      "latitude": 36.1911,
      "longitude": 5.4137,
      "base_risk": 9.3,
      "rain_6h_mm": 0.0,
      "humidity_avg": 40.8,
      "soil_moisture_avg": 0.0,
      "rain_mult": 0.0,
      "soil_mult": 0.95,
      "humidity_mult": 1.02,
      "raw_dynamic_score": 0.0,
      "dynamic_level": "None"
    },
    {
      "id": "13",
      "country": "Algeria",
      "name": "Wahran (Oran)",
      "latitude": 35.6911,
      "longitude": -0.6417,
      "base_risk": 9.15,
      "rain_6h_mm": 0.0,
      "humidity_avg": 33.3,
      "soil_moisture_avg": 0.0,
      "rain_mult": 0.0,
      "soil_mult": 0.95,
      "humidity_mult": 1.017,
      "raw_dynamic_score": 0.0,
      "dynamic_level": "None"
    },
    {
      "id": "14",
      "country": "Angola",
      "name": "Benguela",
      "latitude": -12.576,
      "longitude": 13.405,
      "base_risk": 9.33,
      "rain_6h_mm": 0.0,
      "humidity_avg": 66.8,
      "soil_moisture_avg": 0.0,
      "rain_mult": 0.0,
      "soil_mult": 0.95,
      "humidity_mult": 1.033,
      "raw_dynamic_score": 0.0,
      "dynamic_level": "None"
    },
    {
      "id": "15",
      "country": "Angola",
      "name": "Cabinda",
      "latitude": -5.55,
      "longitude": 12.2,
      "base_risk": 9.14,
      "rain_6h_mm": 1.4,
      "humidity_avg": 85.5,
      "soil_moisture_avg": 0.0,
      "rain_mult": 0.014,
      "soil_mult": 0.95,
      "humidity_mult": 1.043,
      "raw_dynamic_score": 0.127,
      "dynamic_level": "Low"
    },
    {
      "id": "21",
      "country": "Angola",
      "name": "Malanje",
      "latitude": -9.54,
      "longitude": 16.341,
      "base_risk": 9.23,
      "rain_6h_mm": 4.9,
      "humidity_avg": 72.2,
      "soil_moisture_avg": 0.0,
      "rain_mult": 0.049,
      "soil_mult": 0.95,
      "humidity_mult": 1.036,
      "raw_dynamic_score": 0.445,
      "dynamic_level": "Low"
    },
    {
      "id": "22",
      "country": "Angola",
      "name": "Uige",
      "latitude": -7.1069,
      "longitude": 15.4406,
      "base_risk": 9.45,
      "rain_6h_mm": 1.4,
      "humidity_avg": 81.8,
      "soil_moisture_avg": 0.0,
      "rain_mult": 0.014,
      "soil_mult": 0.95,
      "humidity_mult": 1.041,
      "raw_dynamic_score": 0.131,
      "dynamic_level": "Low"
    },
    {
      "id": "23",
      "country": "Argentina",
      "name": "Bahia Blanca",
      "latitude": -38.7196,
      "longitude": -62.2724,
      "base_risk": 9.12,
      "rain_6h_mm": 0.0,
      "humidity_avg": 45.2,
      "soil_moisture_avg": 0.0,
      "rain_mult": 0.0,
      "soil_mult": 0.95,
      "humidity_mult": 1.023,
      "raw_dynamic_score": 0.0,
      "dynamic_level": "None"
    },
    {
      "id": "24",
      "country": "Argentina",
      "name": "Buenos Aires",
      "latitude": -34.6051,
      "longitude": -58.4004,
      "base_risk": 9.05,
      "rain_6h_mm": 0.0,
      "humidity_avg": 47.7,
      "soil_moisture_avg": 0.0,
      "rain_mult": 0.0,
      "soil_mult": 0.95,
      "humidity_mult": 1.024,
      "raw_dynamic_score": 0.0,
      "dynamic_level": "None"
    },
    {
      "id": "25",
      "country": "Argentina",
      "name": "Córdoba",
      "latitude": -31.4135,
      "longitude": -64.1811,
      "base_risk": 9.23,
      "rain_6h_mm": 0.0,
      "humidity_avg": 37.3,
      "soil_moisture_avg": 0.0,
      "rain_mult": 0.0,
      "soil_mult": 0.95,
      "humidity_mult": 1.019,
      "raw_dynamic_score": 0.0,
      "dynamic_level": "None"
    },
    {
      "id": "31",
      "country": "Argentina",
      "name": "Posadas",
      "latitude": -27.3671,
      "longitude": -55.8961,
      "base_risk": 9.29,
      "rain_6h_mm": 2.0,
      "humidity_avg": 74.7,
      "soil_moisture_avg": 0.0,
      "rain_mult": 0.02,
      "soil_mult": 0.95,
      "humidity_mult": 1.037,
      "raw_dynamic_score": 0.183,
      "dynamic_level": "Low"
    },
    {
      "id": "32",
      "country": "Argentina",
      "name": "Resistencia",
      "latitude": -27.4606,
      "longitude": -58.9839,
      "base_risk": 9.42,
      "rain_6h_mm": 8.6,
      "humidity_avg": 78.3,
      "soil_moisture_avg": 0.0,
      "rain_mult": 0.086,
      "soil_mult": 0.95,
      "humidity_mult": 1.039,
      "raw_dynamic_score": 0.8,
      "dynamic_level": "Low"
    },
    {
      "id": "33",
      "country": "Argentina",
      "name": "Rosario",
      "latitude": -32.9468,
      "longitude": -60.6393,
      "base_risk": 9.16,
      "rain_6h_mm": 0.0,
      "humidity_avg": 57.0,
      "soil_moisture_avg": 0.0,
      "rain_mult": 0.0,
      "soil_mult": 0.95,
      "humidity_mult": 1.028,
      "raw_dynamic_score": 0.0,
      "dynamic_level": "None"
    },
    {
      "id": "34",
      "country": "Argentina",
      "name": "Salta",
      "latitude": -24.7859,
      "longitude": -65.4117,
      "base_risk": 9.39,
      "rain_6h_mm": 0.0,
      "humidity_avg": 42.5,
      "soil_moisture_avg": 0.0,
      "rain_mult": 0.0,
      "soil_mult": 0.95,
      "humidity_mult": 1.021,
      "raw_dynamic_score": 0.0,
      "dynamic_level": "None"
    },
    {
      "id": "35",
      "country": "Argentina",
      "name": "San Juan",
      "latitude": -31.5375,
      "longitude": -68.5364,
      "base_risk": 8.8,
      "rain_6h_mm": 0.0,
      "humidity_avg": 32.2,
      "soil_moisture_avg": 0.0,
      "rain_mult": 0.0,
      "soil_mult": 0.95,
      "humidity_mult": 1.016,
      "raw_dynamic_score": 0.0,
      "dynamic_level": "None"
    },
    {
      "id": "41",
      "country": "Australia",
      "name": "Adelaide",
      "latitude": -34.9287,
      "longitude": 138.5986,
      "base_risk": 9.32,
      "rain_6h_mm": 0.0,
      "humidity_avg": 50.5,
      "soil_moisture_avg": 0.0,
      "rain_mult": 0.0,
      "soil_mult": 0.95,
      "humidity_mult": 1.025,
      "raw_dynamic_score": 0.0,
      "dynamic_level": "None"
    },
    {
      "id": "42",
      "country": "Australia",
      "name": "Brisbane",
      "latitude": -27.4679,
      "longitude": 153.0281,
      "base_risk": 8.99,
      "rain_6h_mm": 0.0,
      "humidity_avg": 78.0,
      "soil_moisture_avg": 0.0,
      "rain_mult": 0.0,
      "soil_mult": 0.95,
      "humidity_mult": 1.039,
      "raw_dynamic_score": 0.0,
      "dynamic_level": "None"
    },
    {
      "id": "43",
      "country": "Australia",
      "name": "Canberra",
      "latitude": -35.2835,
      "longitude": 149.1281,
      "base_risk": 8.88,
      "rain_6h_mm": 0.0,
      "humidity_avg": 74.5,
      "soil_moisture_avg": 0.0,
      "rain_mult": 0.0,
      "soil_mult": 0.95,
      "humidity_mult": 1.037,
      "raw_dynamic_score": 0.0,
      "dynamic_level": "None"
    },
    {
      "id": "44",
      "country": "Australia",
      "name": "Central Coast",
      "latitude": -33.42,
      "longitude": 151.3958,
      "base_risk": 9.28,
      "rain_6h_mm": 0.0,
      "humidity_avg": 69.2,
      "soil_moisture_avg": 0.0,
      "rain_mult": 0.0,
      "soil_mult": 0.95,
      "humidity_mult": 1.035,
      "raw_dynamic_score": 0.0,
      "dynamic_level": "None"
    },
    {
      "id": "45",
      "country": "Australia",
      "name": "Gold Coast-Tweed Head",
      "latitude": -28.0003,
      "longitude": 153.4309,
      "base_risk": 9.38,
      "rain_6h_mm": 0.0,
      "humidity_avg": 82.5,
      "soil_moisture_avg": 0.0,
      "rain_mult": 0.0,
      "soil_mult": 0.95,
      "humidity_mult": 1.041,
      "raw_dynamic_score": 0.0,
      "dynamic_level": "None"
    },
    {
      "id": "51",
      "country": "Australia",
      "name": "Wollongong",
      "latitude": -34.424,
      "longitude": 150.8935,
      "base_risk": 9.37,
      "rain_6h_mm": 0.0,
      "humidity_avg": 70.3,
      "soil_moisture_avg": 0.0,
      "rain_mult": 0.0,
      "soil_mult": 0.95,
      "humidity_mult": 1.035,
      "raw_dynamic_score": 0.0,
      "dynamic_level": "None"
    },
    {
      "id": "52",
      "country": "Austria",
      "name": "Wien (Vienna)",
      "latitude": 48.2064,
      "longitude": 16.3707,
      "base_risk": 8.75,
      "rain_6h_mm": 0.0,
      "humidity_avg": 95.0,
      "soil_moisture_avg": 0.0,
      "rain_mult": 0.0,
      "soil_mult": 0.95,
      "humidity_mult": 1.048,
      "raw_dynamic_score": 0.0,
      "dynamic_level": "None"
    },
    {
      "id": "53",
      "country": "Azerbaijan",
      "name": "Baku",
      "latitude": 40.3777,
      "longitude": 49.892,
      "base_risk": 8.82,
      "rain_6h_mm": 0.0,
      "humidity_avg": 80.7,
      "soil_moisture_avg": 0.0,
      "rain_mult": 0.0,
      "soil_mult": 0.95,
      "humidity_mult": 1.04,
      "raw_dynamic_score": 0.0,
      "dynamic_level": "None"
    },
    {
      "id": "54",
      "country": "Azerbaijan",
      "name": "Gäncä",
      "latitude": 40.6828,
      "longitude": 46.3606,
      "base_risk": 9.07,
      "rain_6h_mm": 0.0,
      "humidity_avg": 74.5,
      "soil_moisture_avg": 0.0,
      "rain_mult": 0.0,
      "soil_mult": 0.95,
      "humidity_mult": 1.037,
      "raw_dynamic_score": 0.0,
      "dynamic_level": "None"
    },
    {
      "id": "55",
      "country": "Azerbaijan",
      "name": "Sumquayit",
      "latitude": 40.5897,
      "longitude": 49.6686,
      "base_risk": 9.08,
      "rain_6h_mm": 0.0,
      "humidity_avg": 82.0,
      "soil_moisture_avg": 0.0,
      "rain_mult": 0.0,
      "soil_mult": 0.95,
      "humidity_mult": 1.041,
      "raw_dynamic_score": 0.0,
      "dynamic_level": "None"
    },
    {
      "id": "61",
      "country": "Bangladesh",
      "name": "Dhaka",
      "latitude": 23.7104,
      "longitude": 90.4074,
      "base_risk": 9.43,
      "rain_6h_mm": 0.0,
      "humidity_avg": 77.7,
      "soil_moisture_avg": 0.0,
      "rain_mult": 0.0,
      "soil_mult": 0.95,
      "humidity_mult": 1.039,
      "raw_dynamic_score": 0.0,
      "dynamic_level": "None"
    },
    {
      "id": "62",
      "country": "Bangladesh",
      "name": "Khulna",
      "latitude": 22.8098,
      "longitude": 89.5644,
      "base_risk": 9.5,
      "rain_6h_mm": 0.0,
      "humidity_avg": 79.0,
      "soil_moisture_avg": 0.0,
      "rain_mult": 0.0,
      "soil_mult": 0.95,
      "humidity_mult": 1.04,
      "raw_dynamic_score": 0.0,
      "dynamic_level": "None"
    },
    {
      "id": "63",
      "country": "Bangladesh",
      "name": "Mymensingh",
      "latitude": 24.75,
      "longitude": 90.4,
      "base_risk": 9.34,
      "rain_6h_mm": 0.0,
      "humidity_avg": 81.7,
      "soil_moisture_avg": 0.0,
      "rain_mult": 0.0,
      "soil_mult": 0.95,
      "humidity_mult": 1.041,
      "raw_dynamic_score": 0.0,
      "dynamic_level": "None"
    },
    {
      "id": "64",
      "country": "Bangladesh",
      "name": "Rajshahi",
      "latitude": 24.3667,
      "longitude": 88.6,
      "base_risk": 9.04,
      "rain_6h_mm": 0.0,
      "humidity_avg": 76.8,
      "soil_moisture_avg": 0.0,
      "rain_mult": 0.0,
      "soil_mult": 0.95,
      "humidity_mult": 1.038,
      "raw_dynamic_score": 0.0,
      "dynamic_level": "None"
    },
    {
      "id": "65",
      "country": "Bangladesh",
      "name": "Rangpur",
      "latitude": 25.75,
      "longitude": 89.25,
      "base_risk": 8.62,
      "rain_6h_mm": 0.0,
      "humidity_avg": 76.0,
      "soil_moisture_avg": 0.0,
      "rain_mult": 0.0,
      "soil_mult": 0.95,
      "humidity_mult": 1.038,
      "raw_dynamic_score": 0.0,
      "dynamic_level": "None"
    },
    {
      "id": "71",
      "country": "Belarus",
      "name": "Minsk",
      "latitude": 53.9,
      "longitude": 27.5667,
      "base_risk": 8.74,
      "rain_6h_mm": 0.0,
      "humidity_avg": 77.8,
      "soil_moisture_avg": 0.46,
      "rain_mult": 0.0,
      "soil_mult": 1.341,
      "humidity_mult": 1.039,
      "raw_dynamic_score": 0.0,
      "dynamic_level": "None"
    },
    {
      "id": "72",
      "country": "Belarus",
      "name": "Mogilev",
      "latitude": 53.9141,
      "longitude": 30.3376,
      "base_risk": 8.6,
      "rain_6h_mm": 0.0,
      "humidity_avg": 93.3,
      "soil_moisture_avg": 0.0,
      "rain_mult": 0.0,
      "soil_mult": 0.95,
      "humidity_mult": 1.047,
      "raw_dynamic_score": 0.0,
      "dynamic_level": "None"
    },
    {
      "id": "73",
      "country": "Belarus",
      "name": "Vitebsk",
      "latitude": 55.1905,
      "longitude": 30.2033,
      "base_risk": 8.87,
      "rain_6h_mm": 0.0,
      "humidity_avg": 87.0,
      "soil_moisture_avg": 0.0,
      "rain_mult": 0.0,
      "soil_mult": 0.95,
      "humidity_mult": 1.044,
      "raw_dynamic_score": 0.0,
      "dynamic_level": "None"
    },
    {
      "id": "74",
      "country": "Belgium",
      "name": "Antwerpen",
      "latitude": 51.2199,
      "longitude": 4.4035,
      "base_risk": 9.16,
      "rain_6h_mm": 0.0,
      "humidity_avg": 65.5,
      "soil_moisture_avg": 0.343,
      "rain_mult": 0.0,
      "soil_mult": 1.242,
      "humidity_mult": 1.033,
      "raw_dynamic_score": 0.0,
      "dynamic_level": "None"
    },
    {
      "id": "79",
      "country": "Benin",
      "name": "Abomey-Calavi",
      "latitude": 6.4485,
      "longitude": 2.3557,
      "base_risk": 9.06,
      "rain_6h_mm": 0.8,
      "humidity_avg": 74.2,
      "soil_moisture_avg": 0.0,
      "rain_mult": 0.008,
      "soil_mult": 0.95,
      "humidity_mult": 1.037,
      "raw_dynamic_score": 0.071,
      "dynamic_level": "Low"
    },
    {
      "id": "80",
      "country": "Benin",
      "name": "Cotonou",
      "latitude": 6.3654,
      "longitude": 2.4183,
      "base_risk": 9.5,
      "rain_6h_mm": 0.9,
      "humidity_avg": 77.2,
      "soil_moisture_avg": 0.0,
      "rain_mult": 0.009,
      "soil_mult": 0.95,
      "humidity_mult": 1.039,
      "raw_dynamic_score": 0.084,
      "dynamic_level": "Low"
    },
    {
      "id": "81",
      "country": "Benin",
      "name": "Djougou",
      "latitude": 9.7085,
      "longitude": 1.666,
      "base_risk": 9.46,
      "rain_6h_mm": 0.1,
      "humidity_avg": 43.7,
      "soil_moisture_avg": 0.0,
      "rain_mult": 0.001,
      "soil_mult": 0.95,
      "humidity_mult": 1.022,
      "raw_dynamic_score": 0.009,
      "dynamic_level": "Low"
    },
    {
      "id": "82",
      "country": "Benin",
      "name": "Parakou",
      "latitude": 9.3372,
      "longitude": 2.6303,
      "base_risk": 9.5,
      "rain_6h_mm": 0.0,
      "humidity_avg": 45.0,
      "soil_moisture_avg": 0.0,
      "rain_mult": 0.0,
      "soil_mult": 0.95,
      "humidity_mult": 1.022,
      "raw_dynamic_score": 0.0,
      "dynamic_level": "None"
    },
    {
      "id": "83",
      "country": "Bolivia (Plurinational State of)",
      "name": "Cochabamba",
      "latitude": -17.3895,
      "longitude": -66.1568,
      "base_risk": 8.93,
      "rain_6h_mm": 0.0,
      "humidity_avg": 50.7,
      "soil_moisture_avg": 0.0,
      "rain_mult": 0.0,
      "soil_mult": 0.95,
      "humidity_mult": 1.025,
      "raw_dynamic_score": 0.0,
      "dynamic_level": "None"
    },
    {
      "id": "89",
      "country": "Brazil",
      "name": "Aracaju",
      "latitude": -10.9111,
      "longitude": -37.0717,
      "base_risk": 9.4,
      "rain_6h_mm": 0.0,
      "humidity_avg": 57.8,
      "soil_moisture_avg": 0.0,
      "rain_mult": 0.0,
      "soil_mult": 0.95,
      "humidity_mult": 1.029,
      "raw_dynamic_score": 0.0,
      "dynamic_level": "None"
    },
    {
      "id": "90",
      "country": "Brazil",
      "name": "Baixada Santista",
      "latitude": -23.957,
      "longitude": -46.3266,
      "base_risk": 9.48,
      "rain_6h_mm": 0.0,
      "humidity_avg": 66.8,
      "soil_moisture_avg": 0.0,
      "rain_mult": 0.0,
      "soil_mult": 0.95,
      "humidity_mult": 1.033,
      "raw_dynamic_score": 0.0,
      "dynamic_level": "None"
    },
    {
      "id": "91",
      "country": "Brazil",
      "name": "Bauru",
      "latitude": -22.3147,
      "longitude": -49.0606,
      "base_risk": 9.5,
      "rain_6h_mm": 0.0,
      "humidity_avg": 48.3,
      "soil_moisture_avg": 0.0,
      "rain_mult": 0.0,
      "soil_mult": 0.95,
      "humidity_mult": 1.024,
      "raw_dynamic_score": 0.0,
      "dynamic_level": "None"
    },
    {
      "id": "92",
      "country": "Brazil",
      "name": "Belém",
      "latitude": -1.4561,
      "longitude": -48.479,
      "base_risk": 9.14,
      "rain_6h_mm": 0.0,
      "humidity_avg": 60.2,
      "soil_moisture_avg": 0.0,
      "rain_mult": 0.0,
      "soil_mult": 0.95,
      "humidity_mult": 1.03,
      "raw_dynamic_score": 0.0,
      "dynamic_level": "None"
    },
    {
      "id": "93",
      "country": "Brazil",
      "name": "Belo Horizonte",
      "latitude": -19.9208,
      "longitude": -43.9378,
      "base_risk": 9.19,
      "rain_6h_mm": 0.0,
      "humidity_avg": 53.7,
      "soil_moisture_avg": 0.0,
      "rain_mult": 0.0,
      "soil_mult": 0.95,
      "humidity_mult": 1.027,
      "raw_dynamic_score": 0.0,
      "dynamic_level": "None"
    },
    {
      "id": "99",
      "country": "Brazil",
      "name": "Campo Grande",
      "latitude": -20.4567,
      "longitude": -54.6185,
      "base_risk": 9.07,
      "rain_6h_mm": 0.3,
      "humidity_avg": 47.2,
      "soil_moisture_avg": 0.0,
      "rain_mult": 0.003,
      "soil_mult": 0.95,
      "humidity_mult": 1.024,
      "raw_dynamic_score": 0.026,
      "dynamic_level": "Low"
    },
    {
      "id": "100",
      "country": "Brazil",
      "name": "Campos dos Goytacazes",
      "latitude": -21.7664,
      "longitude": -41.3196,
      "base_risk": 9.41,
      "rain_6h_mm": 0.0,
      "humidity_avg": 48.0,
      "soil_moisture_avg": 0.0,
      "rain_mult": 0.0,
      "soil_mult": 0.95,
      "humidity_mult": 1.024,
      "raw_dynamic_score": 0.0,
      "dynamic_level": "None"
    },
    {
      "id": "101",
      "country": "Brazil",
      "name": "Caruaru",
      "latitude": -8.2833,
      "longitude": -35.9761,
      "base_risk": 9.37,
      "rain_6h_mm": 0.0,
      "humidity_avg": 47.5,
      "soil_moisture_avg": 0.0,
      "rain_mult": 0.0,
      "soil_mult": 0.95,
      "humidity_mult": 1.024,
      "raw_dynamic_score": 0.0,
      "dynamic_level": "None"
    },
    {
      "id": "102",
      "country": "Brazil",
      "name": "Cascavel",
      "latitude": -24.9558,
      "longitude": -53.4553,
      "base_risk": 9.33,
      "rain_6h_mm": 0.0,
      "humidity_avg": 55.5,
      "soil_moisture_avg": 0.0,
      "rain_mult": 0.0,
      "soil_mult": 0.95,
      "humidity_mult": 1.028,
      "raw_dynamic_score": 0.0,
      "dynamic_level": "None"
    },
    {
      "id": "103",
      "country": "Brazil",
      "name": "Caxias Do Sul",
      "latitude": -29.1681,
      "longitude": -51.1794,
      "base_risk": 8.82,
      "rain_6h_mm": 0.0,
      "humidity_avg": 55.5,
      "soil_moisture_avg": 0.0,
      "rain_mult": 0.0,
      "soil_mult": 0.95,
      "humidity_mult": 1.028,
      "raw_dynamic_score": 0.0,
      "dynamic_level": "None"
    },
    {
      "id": "109",
      "country": "Brazil",
      "name": "Franca",
      "latitude": -20.5386,
      "longitude": -47.4008,
      "base_risk": 9.15,
      "rain_6h_mm": 0.0,
      "humidity_avg": 42.5,
      "soil_moisture_avg": 0.0,
      "rain_mult": 0.0,
      "soil_mult": 0.95,
      "humidity_mult": 1.021,
      "raw_dynamic_score": 0.0,
      "dynamic_level": "None"
    },
    {
      "id": "110",
      "country": "Brazil",
      "name": "Goiânia",
      "latitude": -16.6786,
      "longitude": -49.2539,
      "base_risk": 9.02,
      "rain_6h_mm": 0.0,
      "humidity_avg": 48.8,
      "soil_moisture_avg": 0.0,
      "rain_mult": 0.0,
      "soil_mult": 0.95,
      "humidity_mult": 1.024,
      "raw_dynamic_score": 0.0,
      "dynamic_level": "None"
    },
    {
      "id": "111",
      "country": "Brazil",
      "name": "Grande São Luís",
      "latitude": -2.5385,
      "longitude": -44.2832,
      "base_risk": 8.97,
      "rain_6h_mm": 0.3,
      "humidity_avg": 66.0,
      "soil_moisture_avg": 0.0,
      "rain_mult": 0.003,
      "soil_mult": 0.95,
      "humidity_mult": 1.033,
      "raw_dynamic_score": 0.026,
      "dynamic_level": "Low"
    },
    {
      "id": "112",
      "country": "Brazil",
      "name": "Grande Vitória",
      "latitude": -20.3054,
      "longitude": -40.3079,
      "base_risk": 9.5,
      "rain_6h_mm": 0.0,
      "humidity_avg": 45.3,
      "soil_moisture_avg": 0.0,
      "rain_mult": 0.0,
      "soil_mult": 0.95,
      "humidity_mult": 1.023,
      "raw_dynamic_score": 0.0,
      "dynamic_level": "None"
    },
    {
      "id": "113",
      "country": "Brazil",
      "name": "João Pessoa",
      "latitude": -7.115,
      "longitude": -34.8631,
      "base_risk": 9.3,
      "rain_6h_mm": 0.0,
      "humidity_avg": 49.5,
      "soil_moisture_avg": 0.0,
      "rain_mult": 0.0,
      "soil_mult": 0.95,
      "humidity_mult": 1.025,
      "raw_dynamic_score": 0.0,
      "dynamic_level": "None"
    },
    {
      "id": "119",
      "country": "Brazil",
      "name": "Macapá",
      "latitude": 0.0389,
      "longitude": -51.0664,
      "base_risk": 9.04,
      "rain_6h_mm": 0.6,
      "humidity_avg": 67.3,
      "soil_moisture_avg": 0.0,
      "rain_mult": 0.006,
      "soil_mult": 0.95,
      "humidity_mult": 1.034,
      "raw_dynamic_score": 0.053,
      "dynamic_level": "Low"
    },
    {
      "id": "120",
      "country": "Brazil",
      "name": "Maceió",
      "latitude": -9.6658,
      "longitude": -35.7353,
      "base_risk": 9.5,
      "rain_6h_mm": 0.0,
      "humidity_avg": 57.0,
      "soil_moisture_avg": 0.0,
      "rain_mult": 0.0,
      "soil_mult": 0.95,
      "humidity_mult": 1.028,
      "raw_dynamic_score": 0.0,
      "dynamic_level": "None"
    },
    {
      "id": "121",
      "country": "Brazil",
      "name": "Manaus",
      "latitude": -3.1019,
      "longitude": -60.025,
      "base_risk": 9.01,
      "rain_6h_mm": 0.1,
      "humidity_avg": 75.5,
      "soil_moisture_avg": 0.0,
      "rain_mult": 0.001,
      "soil_mult": 0.95,
      "humidity_mult": 1.038,
      "raw_dynamic_score": 0.009,
      "dynamic_level": "Low"
    },
    {
      "id": "122",
      "country": "Brazil",
      "name": "Maringá",
      "latitude": -23.4253,
      "longitude": -51.9386,
      "base_risk": 9.32,
      "rain_6h_mm": 0.0,
      "humidity_avg": 39.7,
      "soil_moisture_avg": 0.0,
      "rain_mult": 0.0,
      "soil_mult": 0.95,
      "humidity_mult": 1.02,
      "raw_dynamic_score": 0.0,
      "dynamic_level": "None"
    },
    {
      "id": "123",
      "country": "Brazil",
      "name": "Montes Claros",
      "latitude": -16.735,
      "longitude": -43.8617,
      "base_risk": 9.5,
      "rain_6h_mm": 0.0,
      "humidity_avg": 45.5,
      "soil_moisture_avg": 0.0,
      "rain_mult": 0.0,
      "soil_mult": 0.95,
      "humidity_mult": 1.023,
      "raw_dynamic_score": 0.0,
      "dynamic_level": "None"
    },
    {
      "id": "129",
      "country": "Brazil",
      "name": "Pôrto Alegre",
      "latitude": -30.0331,
      "longitude": -51.23,
      "base_risk": 9.11,
      "rain_6h_mm": 0.0,
      "humidity_avg": 50.5,
      "soil_moisture_avg": 0.0,
      "rain_mult": 0.0,
      "soil_mult": 0.95,
      "humidity_mult": 1.025,
      "raw_dynamic_score": 0.0,
      "dynamic_level": "None"
    },
    {
      "id": "130",
      "country": "Brazil",
      "name": "Pôrto Velho",
      "latitude": -8.7619,
      "longitude": -63.9039,
      "base_risk": 8.9,
      "rain_6h_mm": 1.4,
      "humidity_avg": 79.8,
      "soil_moisture_avg": 0.0,
      "rain_mult": 0.014,
      "soil_mult": 0.95,
      "humidity_mult": 1.04,
      "raw_dynamic_score": 0.123,
      "dynamic_level": "Low"
    },
    {
      "id": "131",
      "country": "Brazil",
      "name": "Recife",
      "latitude": -8.0539,
      "longitude": -34.8811,
      "base_risk": 9.18,
      "rain_6h_mm": 0.0,
      "humidity_avg": 55.2,
      "soil_moisture_avg": 0.0,
      "rain_mult": 0.0,
      "soil_mult": 0.95,
      "humidity_mult": 1.028,
      "raw_dynamic_score": 0.0,
      "dynamic_level": "None"
    },
    {
      "id": "132",
      "country": "Brazil",
      "name": "Ribeirão  Preto",
      "latitude": -21.1775,
      "longitude": -47.8103,
      "base_risk": 9.07,
      "rain_6h_mm": 0.0,
      "humidity_avg": 42.8,
      "soil_moisture_avg": 0.0,
      "rain_mult": 0.0,
      "soil_mult": 0.95,
      "humidity_mult": 1.021,
      "raw_dynamic_score": 0.0,
      "dynamic_level": "None"
    },
    {
      "id": "133",
      "country": "Brazil",
      "name": "Rio Branco",
      "latitude": -9.9747,
      "longitude": -67.81,
      "base_risk": 8.92,
      "rain_6h_mm": 2.6,
      "humidity_avg": 85.8,
      "soil_moisture_avg": 0.0,
      "rain_mult": 0.026,
      "soil_mult": 0.95,
      "humidity_mult": 1.043,
      "raw_dynamic_score": 0.23,
      "dynamic_level": "Low"
    },
    {
      "id": "136",
      "country": "Brazil",
      "name": "São José do Rio Preto",
      "latitude": -20.8197,
      "longitude": -49.3794,
      "base_risk": 9.32,
      "rain_6h_mm": 0.0,
      "humidity_avg": 43.8,
      "soil_moisture_avg": 0.0,
      "rain_mult": 0.0,
      "soil_mult": 0.95,
      "humidity_mult": 1.022,
      "raw_dynamic_score": 0.0,
      "dynamic_level": "None"
    },
    {
      "id": "137",
      "country": "Brazil",
      "name": "São José dos Campos",
      "latitude": -23.1794,
      "longitude": -45.8869,
      "base_risk": 9.27,
      "rain_6h_mm": 0.0,
      "humidity_avg": 60.0,
      "soil_moisture_avg": 0.0,
      "rain_mult": 0.0,
      "soil_mult": 0.95,
      "humidity_mult": 1.03,
      "raw_dynamic_score": 0.0,
      "dynamic_level": "None"
    },
    {
      "id": "139",
      "country": "Brazil",
      "name": "Sorocaba",
      "latitude": -23.5017,
      "longitude": -47.4581,
      "base_risk": 9.22,
      "rain_6h_mm": 0.0,
      "humidity_avg": 53.5,
      "soil_moisture_avg": 0.0,
      "rain_mult": 0.0,
      "soil_mult": 0.95,
      "humidity_mult": 1.027,
      "raw_dynamic_score": 0.0,
      "dynamic_level": "None"
    },
    {
      "id": "143",
      "country": "Brazil",
      "name": "Uberlândia",
      "latitude": -18.9186,
      "longitude": -48.2772,
      "base_risk": 9.5,
      "rain_6h_mm": 0.0,
      "humidity_avg": 50.0,
      "soil_moisture_avg": 0.0,
      "rain_mult": 0.0,
      "soil_mult": 0.95,
      "humidity_mult": 1.025,
      "raw_dynamic_score": 0.0,
      "dynamic_level": "None"
    },
    {
      "id": "144",
      "country": "Brazil",
      "name": "Vale do Aço",
      "latitude": -19.9405,
      "longitude": -43.9354,
      "base_risk": 9.42,
      "rain_6h_mm": 0.0,
      "humidity_avg": 50.5,
      "soil_moisture_avg": 0.0,
      "rain_mult": 0.0,
      "soil_mult": 0.95,
      "humidity_mult": 1.025,
      "raw_dynamic_score": 0.0,
      "dynamic_level": "None"
    },
    {
      "id": "145",
      "country": "Brazil",
      "name": "Vitória da Conquista",
      "latitude": -14.8661,
      "longitude": -40.8394,
      "base_risk": 9.09,
      "rain_6h_mm": 0.0,
      "humidity_avg": 69.3,
      "soil_moisture_avg": 0.0,
      "rain_mult": 0.0,
      "soil_mult": 0.95,
      "humidity_mult": 1.035,
      "raw_dynamic_score": 0.0,
      "dynamic_level": "None"
    },
    {
      "id": "150",
      "country": "Burkina Faso",
      "name": "Bobo-Dioulasso",
      "latitude": 11.1772,
      "longitude": -4.2979,
      "base_risk": 9.23,
      "rain_6h_mm": 0.0,
      "humidity_avg": 33.0,
      "soil_moisture_avg": 0.0,
      "rain_mult": 0.0,
      "soil_mult": 0.95,
      "humidity_mult": 1.016,
      "raw_dynamic_score": 0.0,
      "dynamic_level": "None"
    },
    {
      "id": "151",
      "country": "Burkina Faso",
      "name": "Ouagadougou",
      "latitude": 12.3642,
      "longitude": -1.5383,
      "base_risk": 9.5,
      "rain_6h_mm": 0.0,
      "humidity_avg": 23.5,
      "soil_moisture_avg": 0.0,
      "rain_mult": 0.0,
      "soil_mult": 0.95,
      "humidity_mult": 1.012,
      "raw_dynamic_score": 0.0,
      "dynamic_level": "None"
    },
    {
      "id": "152",
      "country": "Burundi",
      "name": "Bujumbura",
      "latitude": -3.3822,
      "longitude": 29.3644,
      "base_risk": 9.39,
      "rain_6h_mm": 0.2,
      "humidity_avg": 67.5,
      "soil_moisture_avg": 0.0,
      "rain_mult": 0.002,
      "soil_mult": 0.95,
      "humidity_mult": 1.034,
      "raw_dynamic_score": 0.018,
      "dynamic_level": "Low"
    },
    {
      "id": "157",
      "country": "Cameroon",
      "name": "Garoua",
      "latitude": 9.3,
      "longitude": 13.4,
      "base_risk": 9.09,
      "rain_6h_mm": 0.0,
      "humidity_avg": 20.7,
      "soil_moisture_avg": 0.0,
      "rain_mult": 0.0,
      "soil_mult": 0.95,
      "humidity_mult": 1.01,
      "raw_dynamic_score": 0.0,
      "dynamic_level": "None"
    },
    {
      "id": "158",
      "country": "Cameroon",
      "name": "Loum",
      "latitude": 4.7182,
      "longitude": 9.7351,
      "base_risk": 9.16,
      "rain_6h_mm": 4.3,
      "humidity_avg": 86.5,
      "soil_moisture_avg": 0.0,
      "rain_mult": 0.043,
      "soil_mult": 0.95,
      "humidity_mult": 1.043,
      "raw_dynamic_score": 0.39,
      "dynamic_level": "Low"
    },
    {
      "id": "159",
      "country": "Cameroon",
      "name": "Mbouda",
      "latitude": 5.6258,
      "longitude": 10.2552,
      "base_risk": 9.33,
      "rain_6h_mm": 0.0,
      "humidity_avg": 39.0,
      "soil_moisture_avg": 0.0,
      "rain_mult": 0.0,
      "soil_mult": 0.95,
      "humidity_mult": 1.02,
      "raw_dynamic_score": 0.0,
      "dynamic_level": "None"
    },
    {
      "id": "160",
      "country": "Cameroon",
      "name": "Yaoundé",
      "latitude": 3.8667,
      "longitude": 11.5167,
      "base_risk": 9.5,
      "rain_6h_mm": 2.2,
      "humidity_avg": 77.8,
      "soil_moisture_avg": 0.0,
      "rain_mult": 0.022,
      "soil_mult": 0.95,
      "humidity_mult": 1.039,
      "raw_dynamic_score": 0.206,
      "dynamic_level": "Low"
    },
    {
      "id": "161",
      "country": "Canada",
      "name": "Calgary",
      "latitude": 51.0441,
      "longitude": -114.0593,
      "base_risk": 9.29,
      "rain_6h_mm": 0.0,
      "humidity_avg": 70.2,
      "soil_moisture_avg": 0.0,
      "rain_mult": 0.0,
      "soil_mult": 0.95,
      "humidity_mult": 1.035,
      "raw_dynamic_score": 0.0,
      "dynamic_level": "None"
    },
    {
      "id": "166",
      "country": "Canada",
      "name": "London",
      "latitude": 42.9834,
      "longitude": -81.233,
      "base_risk": 9.01,
      "rain_6h_mm": 0.7,
      "humidity_avg": 85.2,
      "soil_moisture_avg": 0.0,
      "rain_mult": 0.007,
      "soil_mult": 0.95,
      "humidity_mult": 1.043,
      "raw_dynamic_score": 0.062,
      "dynamic_level": "Low"
    },
    {
      "id": "167",
      "country": "Canada",
      "name": "Montréal",
      "latitude": 45.5088,
      "longitude": -73.5878,
      "base_risk": 9.19,
      "rain_6h_mm": 1.8,
      "humidity_avg": 94.2,
      "soil_moisture_avg": 0.0,
      "rain_mult": 0.018,
      "soil_mult": 0.95,
      "humidity_mult": 1.047,
      "raw_dynamic_score": 0.165,
      "dynamic_level": "Low"
    },
    {
      "id": "168",
      "country": "Canada",
      "name": "Oshawa",
      "latitude": 43.9001,
      "longitude": -78.8496,
      "base_risk": 9.17,
      "rain_6h_mm": 0.6,
      "humidity_avg": 85.8,
      "soil_moisture_avg": 0.0,
      "rain_mult": 0.006,
      "soil_mult": 0.95,
      "humidity_mult": 1.043,
      "raw_dynamic_score": 0.055,
      "dynamic_level": "Low"
    },
    {
      "id": "169",
      "country": "Canada",
      "name": "Ottawa-Gatineau",
      "latitude": 45.4166,
      "longitude": -75.698,
      "base_risk": 9.43,
      "rain_6h_mm": 0.2,
      "humidity_avg": 92.3,
      "soil_moisture_avg": 0.0,
      "rain_mult": 0.002,
      "soil_mult": 0.95,
      "humidity_mult": 1.046,
      "raw_dynamic_score": 0.019,
      "dynamic_level": "Low"
    },
    {
      "id": "170",
      "country": "Canada",
      "name": "Québec",
      "latitude": 46.8123,
      "longitude": -71.2145,
      "base_risk": 8.95,
      "rain_6h_mm": 0.0,
      "humidity_avg": 86.8,
      "soil_moisture_avg": 0.0,
      "rain_mult": 0.0,
      "soil_mult": 0.95,
      "humidity_mult": 1.043,
      "raw_dynamic_score": 0.0,
      "dynamic_level": "None"
    },
    {
      "id": "176",
      "country": "Canada",
      "name": "Windsor",
      "latitude": 42.2811,
      "longitude": -83.0079,
      "base_risk": 9.01,
      "rain_6h_mm": 0.0,
      "humidity_avg": 72.5,
      "soil_moisture_avg": 0.0,
      "rain_mult": 0.0,
      "soil_mult": 0.95,
      "humidity_mult": 1.036,
      "raw_dynamic_score": 0.0,
      "dynamic_level": "None"
    },
    {
      "id": "177",
      "country": "Canada",
      "name": "Winnipeg",
      "latitude": 49.8955,
      "longitude": -97.1294,
      "base_risk": 9.38,
      "rain_6h_mm": 0.0,
      "humidity_avg": 70.3,
      "soil_moisture_avg": 0.0,
      "rain_mult": 0.0,
      "soil_mult": 0.95,
      "humidity_mult": 1.035,
      "raw_dynamic_score": 0.0,
      "dynamic_level": "None"
    },
    {
      "id": "178",
      "country": "Central African Republic",
      "name": "Bangui",
      "latitude": 4.3612,
      "longitude": 18.555,
      "base_risk": 9.42,
      "rain_6h_mm": 0.3,
      "humidity_avg": 56.7,
      "soil_moisture_avg": 0.0,
      "rain_mult": 0.003,
      "soil_mult": 0.95,
      "humidity_mult": 1.028,
      "raw_dynamic_score": 0.028,
      "dynamic_level": "Low"
    },
    {
      "id": "179",
      "country": "Chad",
      "name": "N'Djaména",
      "latitude": 12.1067,
      "longitude": 15.0444,
      "base_risk": 9.5,
      "rain_6h_mm": 0.0,
      "humidity_avg": 15.5,
      "soil_moisture_avg": 0.0,
      "rain_mult": 0.0,
      "soil_mult": 0.95,
      "humidity_mult": 1.008,
      "raw_dynamic_score": 0.0,
      "dynamic_level": "None"
    },
    {
      "id": "180",
      "country": "Chile",
      "name": "Antofagasta",
      "latitude": -23.65,
      "longitude": -70.4,
      "base_risk": 9.14,
      "rain_6h_mm": 0.0,
      "humidity_avg": 71.7,
      "soil_moisture_avg": 0.0,
      "rain_mult": 0.0,
      "soil_mult": 0.95,
      "humidity_mult": 1.036,
      "raw_dynamic_score": 0.0,
      "dynamic_level": "None"
    },
    {
      "id": "186",
      "country": "China",
      "name": "Akesu",
      "latitude": 41.1695,
      "longitude": 80.2626,
      "base_risk": 8.89,
      "rain_6h_mm": 0.0,
      "humidity_avg": 51.0,
      "soil_moisture_avg": 0.0,
      "rain_mult": 0.0,
      "soil_mult": 0.95,
      "humidity_mult": 1.026,
      "raw_dynamic_score": 0.0,
      "dynamic_level": "None"
    },
    {
      "id": "187",
      "country": "China",
      "name": "Ankang",
      "latitude": 32.6912,
      "longitude": 109.0297,
      "base_risk": 9.33,
      "rain_6h_mm": 0.0,
      "humidity_avg": 82.3,
      "soil_moisture_avg": 0.0,
      "rain_mult": 0.0,
      "soil_mult": 0.95,
      "humidity_mult": 1.041,
      "raw_dynamic_score": 0.0,
      "dynamic_level": "None"
    },
    {
      "id": "188",
      "country": "China",
      "name": "Anlu",
      "latitude": 31.2575,
      "longitude": 113.6783,
      "base_risk": 9.31,
      "rain_6h_mm": 0.0,
      "humidity_avg": 64.0,
      "soil_moisture_avg": 0.0,
      "rain_mult": 0.0,
      "soil_mult": 0.95,
      "humidity_mult": 1.032,
      "raw_dynamic_score": 0.0,
      "dynamic_level": "None"
    },
    {
      "id": "189",
      "country": "China",
      "name": "Anning",
      "latitude": 24.9211,
      "longitude": 102.4784,
      "base_risk": 8.75,
      "rain_6h_mm": 0.0,
      "humidity_avg": 89.5,
      "soil_moisture_avg": 0.0,
      "rain_mult": 0.0,
      "soil_mult": 0.95,
      "humidity_mult": 1.045,
      "raw_dynamic_score": 0.0,
      "dynamic_level": "None"
    },
    {
      "id": "190",
      "country": "China",
      "name": "Anqing",
      "latitude": 30.543,
      "longitude": 117.0533,
      "base_risk": 8.83,
      "rain_6h_mm": 0.0,
      "humidity_avg": 69.3,
      "soil_moisture_avg": 0.0,
      "rain_mult": 0.0,
      "soil_mult": 0.95,
      "humidity_mult": 1.035,
      "raw_dynamic_score": 0.0,
      "dynamic_level": "None"
    },
    {
      "id": "196",
      "country": "China",
      "name": "Baishan",
      "latitude": 41.9373,
      "longitude": 126.4229,
      "base_risk": 9.41,
      "rain_6h_mm": 0.6,
      "humidity_avg": 95.5,
      "soil_moisture_avg": 0.0,
      "rain_mult": 0.006,
      "soil_mult": 0.95,
      "humidity_mult": 1.048,
      "raw_dynamic_score": 0.056,
      "dynamic_level": "Low"
    },
    {
      "id": "197",
      "country": "China",
      "name": "Baiyin",
      "latitude": 36.5487,
      "longitude": 104.1831,
      "base_risk": 9.14,
      "rain_6h_mm": 0.0,
      "humidity_avg": 52.8,
      "soil_moisture_avg": 0.0,
      "rain_mult": 0.0,
      "soil_mult": 0.95,
      "humidity_mult": 1.026,
      "raw_dynamic_score": 0.0,
      "dynamic_level": "None"
    },
    {
      "id": "198",
      "country": "China",
      "name": "Baoding",
      "latitude": 38.8511,
      "longitude": 115.4903,
      "base_risk": 9.47,
      "rain_6h_mm": 0.0,
      "humidity_avg": 79.2,
      "soil_moisture_avg": 0.0,
      "rain_mult": 0.0,
      "soil_mult": 0.95,
      "humidity_mult": 1.04,
      "raw_dynamic_score": 0.0,
      "dynamic_level": "None"
    },
    {
      "id": "199",
      "country": "China",
      "name": "Baoji",
      "latitude": 34.3651,
      "longitude": 107.2004,
      "base_risk": 9.41,
      "rain_6h_mm": 0.0,
      "humidity_avg": 74.0,
      "soil_moisture_avg": 0.0,
      "rain_mult": 0.0,
      "soil_mult": 0.95,
      "humidity_mult": 1.037,
      "raw_dynamic_score": 0.0,
      "dynamic_level": "None"
    },
    {
      "id": "204",
      "country": "China",
      "name": "Beijing",
      "latitude": 39.9075,
      "longitude": 116.3972,
      "base_risk": 8.96,
      "rain_6h_mm": 0.0,
      "humidity_avg": 40.7,
      "soil_moisture_avg": 0.0,
      "rain_mult": 0.0,
      "soil_mult": 0.95,
      "humidity_mult": 1.02,
      "raw_dynamic_score": 0.0,
      "dynamic_level": "None"
    },
    {
      "id": "205",
      "country": "China",
      "name": "Bengbu",
      "latitude": 32.9408,
      "longitude": 117.3608,
      "base_risk": 9.19,
      "rain_6h_mm": 0.0,
      "humidity_avg": 81.8,
      "soil_moisture_avg": 0.0,
      "rain_mult": 0.0,
      "soil_mult": 0.95,
      "humidity_mult": 1.041,
      "raw_dynamic_score": 0.0,
      "dynamic_level": "None"
    },
    {
      "id": "206",
      "country": "China",
      "name": "Benxi",
      "latitude": 41.2886,
      "longitude": 123.765,
      "base_risk": 8.95,
      "rain_6h_mm": 0.2,
      "humidity_avg": 67.2,
      "soil_moisture_avg": 0.0,
      "rain_mult": 0.002,
      "soil_mult": 0.95,
      "humidity_mult": 1.034,
      "raw_dynamic_score": 0.018,
      "dynamic_level": "Low"
    },
    {
      "id": "207",
      "country": "China",
      "name": "Bijie",
      "latitude": 27.307,
      "longitude": 105.2837,
      "base_risk": 9.1,
      "rain_6h_mm": 0.0,
      "humidity_avg": 95.0,
      "soil_moisture_avg": 0.0,
      "rain_mult": 0.0,
      "soil_mult": 0.95,
      "humidity_mult": 1.048,
      "raw_dynamic_score": 0.0,
      "dynamic_level": "None"
    },
    {
      "id": "208",
      "country": "China",
      "name": "Binzhou",
      "latitude": 37.3811,
      "longitude": 118.0109,
      "base_risk": 8.83,
      "rain_6h_mm": 0.0,
      "humidity_avg": 70.0,
      "soil_moisture_avg": 0.0,
      "rain_mult": 0.0,
      "soil_mult": 0.95,
      "humidity_mult": 1.035,
      "raw_dynamic_score": 0.0,
      "dynamic_level": "None"
    },
    {
      "id": "214",
      "country": "China",
      "name": "Changde",
      "latitude": 29.0464,
      "longitude": 111.6783,
      "base_risk": 9.11,
      "rain_6h_mm": 0.0,
      "humidity_avg": 66.5,
      "soil_moisture_avg": 0.0,
      "rain_mult": 0.0,
      "soil_mult": 0.95,
      "humidity_mult": 1.033,
      "raw_dynamic_score": 0.0,
      "dynamic_level": "None"
    },
    {
      "id": "215",
      "country": "China",
      "name": "Changge",
      "latitude": 34.2224,
      "longitude": 113.7736,
      "base_risk": 9.5,
      "rain_6h_mm": 0.0,
      "humidity_avg": 80.7,
      "soil_moisture_avg": 0.0,
      "rain_mult": 0.0,
      "soil_mult": 0.95,
      "humidity_mult": 1.04,
      "raw_dynamic_score": 0.0,
      "dynamic_level": "None"
    },
    {
      "id": "216",
      "country": "China",
      "name": "Changji",
      "latitude": 44.0117,
      "longitude": 87.3038,
      "base_risk": 9.32,
      "rain_6h_mm": 0.0,
      "humidity_avg": 77.0,
      "soil_moisture_avg": 0.0,
      "rain_mult": 0.0,
      "soil_mult": 0.95,
      "humidity_mult": 1.038,
      "raw_dynamic_score": 0.0,
      "dynamic_level": "None"
    },
    {
      "id": "217",
      "country": "China",
      "name": "Changning",
      "latitude": 26.4078,
      "longitude": 112.3957,
      "base_risk": 9.45,
      "rain_6h_mm": 0.0,
      "humidity_avg": 74.3,
      "soil_moisture_avg": 0.0,
      "rain_mult": 0.0,
      "soil_mult": 0.95,
      "humidity_mult": 1.037,
      "raw_dynamic_score": 0.0,
      "dynamic_level": "None"
    },
    {
      "id": "218",
      "country": "China",
      "name": "Changsha",
      "latitude": 28.2274,
      "longitude": 112.9383,
      "base_risk": 9.47,
      "rain_6h_mm": 0.0,
      "humidity_avg": 79.7,
      "soil_moisture_avg": 0.0,
      "rain_mult": 0.0,
      "soil_mult": 0.95,
      "humidity_mult": 1.04,
      "raw_dynamic_score": 0.0,
      "dynamic_level": "None"
    },
    {
      "id": "224",
      "country": "China",
      "name": "Chaoyang",
      "latitude": 41.5773,
      "longitude": 120.4511,
      "base_risk": 9.05,
      "rain_6h_mm": 0.0,
      "humidity_avg": 50.5,
      "soil_moisture_avg": 0.0,
      "rain_mult": 0.0,
      "soil_mult": 0.95,
      "humidity_mult": 1.025,
      "raw_dynamic_score": 0.0,
      "dynamic_level": "None"
    },
    {
      "id": "225",
      "country": "China",
      "name": "Chaozhou",
      "latitude": 23.6651,
      "longitude": 116.6379,
      "base_risk": 9.41,
      "rain_6h_mm": 0.0,
      "humidity_avg": 65.2,
      "soil_moisture_avg": 0.0,
      "rain_mult": 0.0,
      "soil_mult": 0.95,
      "humidity_mult": 1.033,
      "raw_dynamic_score": 0.0,
      "dynamic_level": "None"
    },
    {
      "id": "226",
      "country": "China",
      "name": "Chengde",
      "latitude": 40.9672,
      "longitude": 117.9322,
      "base_risk": 9.08,
      "rain_6h_mm": 0.0,
      "humidity_avg": 44.5,
      "soil_moisture_avg": 0.0,
      "rain_mult": 0.0,
      "soil_mult": 0.95,
      "humidity_mult": 1.022,
      "raw_dynamic_score": 0.0,
      "dynamic_level": "None"
    },
    {
      "id": "227",
      "country": "China",
      "name": "Chengdu",
      "latitude": 30.6667,
      "longitude": 104.0667,
      "base_risk": 9.37,
      "rain_6h_mm": 0.1,
      "humidity_avg": 90.7,
      "soil_moisture_avg": 0.0,
      "rain_mult": 0.001,
      "soil_mult": 0.95,
      "humidity_mult": 1.045,
      "raw_dynamic_score": 0.009,
      "dynamic_level": "Low"
    },
    {
      "id": "228",
      "country": "China",
      "name": "Chenzhou",
      "latitude": 25.8,
      "longitude": 113.0333,
      "base_risk": 9.28,
      "rain_6h_mm": 0.0,
      "humidity_avg": 83.2,
      "soil_moisture_avg": 0.0,
      "rain_mult": 0.0,
      "soil_mult": 0.95,
      "humidity_mult": 1.042,
      "raw_dynamic_score": 0.0,
      "dynamic_level": "None"
    },
    {
      "id": "234",
      "country": "China",
      "name": "Cixi",
      "latitude": 30.1761,
      "longitude": 121.2524,
      "base_risk": 9.31,
      "rain_6h_mm": 7.4,
      "humidity_avg": 94.8,
      "soil_moisture_avg": 0.0,
      "rain_mult": 0.074,
      "soil_mult": 0.95,
      "humidity_mult": 1.047,
      "raw_dynamic_score": 0.686,
      "dynamic_level": "Low"
    },
    {
      "id": "235",
      "country": "China",
      "name": "Dali",
      "latitude": 25.59,
      "longitude": 100.2235,
      "base_risk": 9.37,
      "rain_6h_mm": 0.0,
      "humidity_avg": 77.7,
      "soil_moisture_avg": 0.0,
      "rain_mult": 0.0,
      "soil_mult": 0.95,
      "humidity_mult": 1.039,
      "raw_dynamic_score": 0.0,
      "dynamic_level": "None"
    },
    {
      "id": "236",
      "country": "China",
      "name": "Dalian",
      "latitude": 38.9138,
      "longitude": 121.6023,
      "base_risk": 9.38,
      "rain_6h_mm": 0.0,
      "humidity_avg": 65.2,
      "soil_moisture_avg": 0.0,
      "rain_mult": 0.0,
      "soil_mult": 0.95,
      "humidity_mult": 1.033,
      "raw_dynamic_score": 0.0,
      "dynamic_level": "None"
    },
    {
      "id": "237",
      "country": "China",
      "name": "Dandong",
      "latitude": 40.1198,
      "longitude": 124.3739,
      "base_risk": 9.13,
      "rain_6h_mm": 0.0,
      "humidity_avg": 84.7,
      "soil_moisture_avg": 0.0,
      "rain_mult": 0.0,
      "soil_mult": 0.95,
      "humidity_mult": 1.042,
      "raw_dynamic_score": 0.0,
      "dynamic_level": "None"
    },
    {
      "id": "238",
      "country": "China",
      "name": "Danyang",
      "latitude": 32.0008,
      "longitude": 119.5745,
      "base_risk": 9.3,
      "rain_6h_mm": 0.0,
      "humidity_avg": 86.7,
      "soil_moisture_avg": 0.0,
      "rain_mult": 0.0,
      "soil_mult": 0.95,
      "humidity_mult": 1.043,
      "raw_dynamic_score": 0.0,
      "dynamic_level": "None"
    },
    {
      "id": "244",
      "country": "China",
      "name": "Dazhou",
      "latitude": 31.2159,
      "longitude": 107.5009,
      "base_risk": 8.61,
      "rain_6h_mm": 0.0,
      "humidity_avg": 92.0,
      "soil_moisture_avg": 0.0,
      "rain_mult": 0.0,
      "soil_mult": 0.95,
      "humidity_mult": 1.046,
      "raw_dynamic_score": 0.0,
      "dynamic_level": "None"
    },
    {
      "id": "245",
      "country": "China",
      "name": "Dengfeng",
      "latitude": 34.4553,
      "longitude": 113.0281,
      "base_risk": 9.43,
      "rain_6h_mm": 0.0,
      "humidity_avg": 67.5,
      "soil_moisture_avg": 0.0,
      "rain_mult": 0.0,
      "soil_mult": 0.95,
      "humidity_mult": 1.034,
      "raw_dynamic_score": 0.0,
      "dynamic_level": "None"
    },
    {
      "id": "246",
      "country": "China",
      "name": "Dengzhou",
      "latitude": 32.6822,
      "longitude": 112.0819,
      "base_risk": 8.84,
      "rain_6h_mm": 0.0,
      "humidity_avg": 67.0,
      "soil_moisture_avg": 0.0,
      "rain_mult": 0.0,
      "soil_mult": 0.95,
      "humidity_mult": 1.034,
      "raw_dynamic_score": 0.0,
      "dynamic_level": "None"
    },
    {
      "id": "247",
      "country": "China",
      "name": "Deyang",
      "latitude": 31.1302,
      "longitude": 104.382,
      "base_risk": 8.94,
      "rain_6h_mm": 0.0,
      "humidity_avg": 87.3,
      "soil_moisture_avg": 0.0,
      "rain_mult": 0.0,
      "soil_mult": 0.95,
      "humidity_mult": 1.044,
      "raw_dynamic_score": 0.0,
      "dynamic_level": "None"
    },
    {
      "id": "248",
      "country": "China",
      "name": "Dezhou",
      "latitude": 37.4518,
      "longitude": 116.301,
      "base_risk": 9.16,
      "rain_6h_mm": 0.0,
      "humidity_avg": 64.8,
      "soil_moisture_avg": 0.0,
      "rain_mult": 0.0,
      "soil_mult": 0.95,
      "humidity_mult": 1.032,
      "raw_dynamic_score": 0.0,
      "dynamic_level": "None"
    },
    {
      "id": "254",
      "country": "China",
      "name": "Dongying",
      "latitude": 37.4533,
      "longitude": 118.5785,
      "base_risk": 8.79,
      "rain_6h_mm": 0.0,
      "humidity_avg": 71.3,
      "soil_moisture_avg": 0.0,
      "rain_mult": 0.0,
      "soil_mult": 0.95,
      "humidity_mult": 1.036,
      "raw_dynamic_score": 0.0,
      "dynamic_level": "None"
    },
    {
      "id": "255",
      "country": "China",
      "name": "Dujiangyan",
      "latitude": 30.9966,
      "longitude": 103.6281,
      "base_risk": 8.88,
      "rain_6h_mm": 0.0,
      "humidity_avg": 78.0,
      "soil_moisture_avg": 0.0,
      "rain_mult": 0.0,
      "soil_mult": 0.95,
      "humidity_mult": 1.039,
      "raw_dynamic_score": 0.0,
      "dynamic_level": "None"
    },
    {
      "id": "256",
      "country": "China",
      "name": "Emeishan",
      "latitude": 29.6007,
      "longitude": 103.4856,
      "base_risk": 9.4,
      "rain_6h_mm": 0.8,
      "humidity_avg": 80.2,
      "soil_moisture_avg": 0.0,
      "rain_mult": 0.008,
      "soil_mult": 0.95,
      "humidity_mult": 1.04,
      "raw_dynamic_score": 0.074,
      "dynamic_level": "Low"
    },
    {
      "id": "257",
      "country": "China",
      "name": "Enping",
      "latitude": 22.1853,
      "longitude": 112.3048,
      "base_risk": 8.94,
      "rain_6h_mm": 0.0,
      "humidity_avg": 85.5,
      "soil_moisture_avg": 0.0,
      "rain_mult": 0.0,
      "soil_mult": 0.95,
      "humidity_mult": 1.043,
      "raw_dynamic_score": 0.0,
      "dynamic_level": "None"
    },
    {
      "id": "258",
      "country": "China",
      "name": "Enshi",
      "latitude": 30.2902,
      "longitude": 109.4785,
      "base_risk": 9.13,
      "rain_6h_mm": 0.0,
      "humidity_avg": 77.7,
      "soil_moisture_avg": 0.0,
      "rain_mult": 0.0,
      "soil_mult": 0.95,
      "humidity_mult": 1.039,
      "raw_dynamic_score": 0.0,
      "dynamic_level": "None"
    },
    {
      "id": "261",
      "country": "China",
      "name": "Fangchenggang",
      "latitude": 21.7659,
      "longitude": 108.354,
      "base_risk": 9.27,
      "rain_6h_mm": 0.0,
      "humidity_avg": 67.8,
      "soil_moisture_avg": 0.0,
      "rain_mult": 0.0,
      "soil_mult": 0.95,
      "humidity_mult": 1.034,
      "raw_dynamic_score": 0.0,
      "dynamic_level": "None"
    },
    {
      "id": "265",
      "country": "China",
      "name": "Fuan",
      "latitude": 27.0881,
      "longitude": 119.6454,
      "base_risk": 9.2,
      "rain_6h_mm": 0.0,
      "humidity_avg": 83.0,
      "soil_moisture_avg": 0.0,
      "rain_mult": 0.0,
      "soil_mult": 0.95,
      "humidity_mult": 1.042,
      "raw_dynamic_score": 0.0,
      "dynamic_level": "None"
    },
    {
      "id": "267",
      "country": "China",
      "name": "Fuqing",
      "latitude": 25.725,
      "longitude": 119.3794,
      "base_risk": 9.43,
      "rain_6h_mm": 0.0,
      "humidity_avg": 71.7,
      "soil_moisture_avg": 0.0,
      "rain_mult": 0.0,
      "soil_mult": 0.95,
      "humidity_mult": 1.036,
      "raw_dynamic_score": 0.0,
      "dynamic_level": "None"
    },
    {
      "id": "269",
      "country": "China",
      "name": "Fuxin",
      "latitude": 42.0156,
      "longitude": 121.6589,
      "base_risk": 9.31,
      "rain_6h_mm": 0.0,
      "humidity_avg": 48.7,
      "soil_moisture_avg": 0.0,
      "rain_mult": 0.0,
      "soil_mult": 0.95,
      "humidity_mult": 1.024,
      "raw_dynamic_score": 0.0,
      "dynamic_level": "None"
    },
    {
      "id": "272",
      "country": "China",
      "name": "Fuzhou, Jiangxi",
      "latitude": 27.9812,
      "longitude": 116.3557,
      "base_risk": 9.36,
      "rain_6h_mm": 0.0,
      "humidity_avg": 74.5,
      "soil_moisture_avg": 0.0,
      "rain_mult": 0.0,
      "soil_mult": 0.95,
      "humidity_mult": 1.037,
      "raw_dynamic_score": 0.0,
      "dynamic_level": "None"
    },
    {
      "id": "273",
      "country": "China",
      "name": "Ganzhou",
      "latitude": 25.85,
      "longitude": 114.9333,
      "base_risk": 8.63,
      "rain_6h_mm": 0.0,
      "humidity_avg": 63.7,
      "soil_moisture_avg": 0.0,
      "rain_mult": 0.0,
      "soil_mult": 0.95,
      "humidity_mult": 1.032,
      "raw_dynamic_score": 0.0,
      "dynamic_level": "None"
    },
    {
      "id": "274",
      "country": "China",
      "name": "Gaoan",
      "latitude": 28.4271,
      "longitude": 115.3722,
      "base_risk": 9.0,
      "rain_6h_mm": 0.0,
      "humidity_avg": 61.8,
      "soil_moisture_avg": 0.0,
      "rain_mult": 0.0,
      "soil_mult": 0.95,
      "humidity_mult": 1.031,
      "raw_dynamic_score": 0.0,
      "dynamic_level": "None"
    },
    {
      "id": "275",
      "country": "China",
      "name": "Gaomi",
      "latitude": 36.3833,
      "longitude": 119.7528,
      "base_risk": 9.13,
      "rain_6h_mm": 0.0,
      "humidity_avg": 68.8,
      "soil_moisture_avg": 0.0,
      "rain_mult": 0.0,
      "soil_mult": 0.95,
      "humidity_mult": 1.034,
      "raw_dynamic_score": 0.0,
      "dynamic_level": "None"
    },
    {
      "id": "276",
      "country": "China",
      "name": "Gaoping",
      "latitude": 35.7977,
      "longitude": 112.923,
      "base_risk": 9.41,
      "rain_6h_mm": 0.0,
      "humidity_avg": 82.7,
      "soil_moisture_avg": 0.0,
      "rain_mult": 0.0,
      "soil_mult": 0.95,
      "humidity_mult": 1.041,
      "raw_dynamic_score": 0.0,
      "dynamic_level": "None"
    },
    {
      "id": "281",
      "country": "China",
      "name": "Guang'an",
      "latitude": 30.4639,
      "longitude": 106.6351,
      "base_risk": 9.03,
      "rain_6h_mm": 0.1,
      "humidity_avg": 98.7,
      "soil_moisture_avg": 0.0,
      "rain_mult": 0.001,
      "soil_mult": 0.95,
      "humidity_mult": 1.049,
      "raw_dynamic_score": 0.009,
      "dynamic_level": "Low"
    },
    {
      "id": "282",
      "country": "China",
      "name": "Guangyuan",
      "latitude": 32.442,
      "longitude": 105.823,
      "base_risk": 9.36,
      "rain_6h_mm": 0.0,
      "humidity_avg": 77.2,
      "soil_moisture_avg": 0.0,
      "rain_mult": 0.0,
      "soil_mult": 0.95,
      "humidity_mult": 1.039,
      "raw_dynamic_score": 0.0,
      "dynamic_level": "None"
    },
    {
      "id": "283",
      "country": "China",
      "name": "Guangzhou, Guangdong",
      "latitude": 23.1255,
      "longitude": 113.2574,
      "base_risk": 9.5,
      "rain_6h_mm": 0.0,
      "humidity_avg": 73.8,
      "soil_moisture_avg": 0.0,
      "rain_mult": 0.0,
      "soil_mult": 0.95,
      "humidity_mult": 1.037,
      "raw_dynamic_score": 0.0,
      "dynamic_level": "None"
    },
    {
      "id": "284",
      "country": "China",
      "name": "Guigang",
      "latitude": 23.0964,
      "longitude": 109.6092,
      "base_risk": 9.29,
      "rain_6h_mm": 0.0,
      "humidity_avg": 63.0,
      "soil_moisture_avg": 0.0,
      "rain_mult": 0.0,
      "soil_mult": 0.95,
      "humidity_mult": 1.032,
      "raw_dynamic_score": 0.0,
      "dynamic_level": "None"
    },
    {
      "id": "291",
      "country": "China",
      "name": "Hailin",
      "latitude": 44.5769,
      "longitude": 129.3896,
      "base_risk": 8.59,
      "rain_6h_mm": 0.0,
      "humidity_avg": 76.5,
      "soil_moisture_avg": 0.0,
      "rain_mult": 0.0,
      "soil_mult": 0.95,
      "humidity_mult": 1.038,
      "raw_dynamic_score": 0.0,
      "dynamic_level": "None"
    },
    {
      "id": "292",
      "country": "China",
      "name": "Haimen",
      "latitude": 31.8952,
      "longitude": 121.1684,
      "base_risk": 9.39,
      "rain_6h_mm": 0.0,
      "humidity_avg": 90.0,
      "soil_moisture_avg": 0.0,
      "rain_mult": 0.0,
      "soil_mult": 0.95,
      "humidity_mult": 1.045,
      "raw_dynamic_score": 0.0,
      "dynamic_level": "None"
    },
    {
      "id": "293",
      "country": "China",
      "name": "Haining",
      "latitude": 30.5273,
      "longitude": 120.6897,
      "base_risk": 9.13,
      "rain_6h_mm": 0.1,
      "humidity_avg": 86.0,
      "soil_moisture_avg": 0.0,
      "rain_mult": 0.001,
      "soil_mult": 0.95,
      "humidity_mult": 1.043,
      "raw_dynamic_score": 0.009,
      "dynamic_level": "Low"
    },
    {
      "id": "294",
      "country": "China",
      "name": "Haiyang",
      "latitude": 36.7823,
      "longitude": 121.1703,
      "base_risk": 8.9,
      "rain_6h_mm": 0.0,
      "humidity_avg": 78.5,
      "soil_moisture_avg": 0.0,
      "rain_mult": 0.0,
      "soil_mult": 0.95,
      "humidity_mult": 1.039,
      "raw_dynamic_score": 0.0,
      "dynamic_level": "None"
    },
    {
      "id": "295",
      "country": "China",
      "name": "Hami",
      "latitude": 42.8259,
      "longitude": 93.5169,
      "base_risk": 9.0,
      "rain_6h_mm": 0.0,
      "humidity_avg": 66.7,
      "soil_moisture_avg": 0.0,
      "rain_mult": 0.0,
      "soil_mult": 0.95,
      "humidity_mult": 1.033,
      "raw_dynamic_score": 0.0,
      "dynamic_level": "None"
    },
    {
      "id": "300",
      "country": "China",
      "name": "Hebi",
      "latitude": 35.747,
      "longitude": 114.2956,
      "base_risk": 9.38,
      "rain_6h_mm": 0.0,
      "humidity_avg": 69.7,
      "soil_moisture_avg": 0.0,
      "rain_mult": 0.0,
      "soil_mult": 0.95,
      "humidity_mult": 1.035,
      "raw_dynamic_score": 0.0,
      "dynamic_level": "None"
    },
    {
      "id": "301",
      "country": "China",
      "name": "Hechi",
      "latitude": 24.6977,
      "longitude": 108.0808,
      "base_risk": 8.68,
      "rain_6h_mm": 0.0,
      "humidity_avg": 66.0,
      "soil_moisture_avg": 0.0,
      "rain_mult": 0.0,
      "soil_mult": 0.95,
      "humidity_mult": 1.033,
      "raw_dynamic_score": 0.0,
      "dynamic_level": "None"
    },
    {
      "id": "302",
      "country": "China",
      "name": "Hefei",
      "latitude": 31.8639,
      "longitude": 117.2808,
      "base_risk": 9.12,
      "rain_6h_mm": 0.0,
      "humidity_avg": 82.2,
      "soil_moisture_avg": 0.0,
      "rain_mult": 0.0,
      "soil_mult": 0.95,
      "humidity_mult": 1.041,
      "raw_dynamic_score": 0.0,
      "dynamic_level": "None"
    },
    {
      "id": "303",
      "country": "China",
      "name": "Hegang",
      "latitude": 47.3443,
      "longitude": 130.2937,
      "base_risk": 9.4,
      "rain_6h_mm": 0.0,
      "humidity_avg": 70.8,
      "soil_moisture_avg": 0.0,
      "rain_mult": 0.0,
      "soil_mult": 0.95,
      "humidity_mult": 1.035,
      "raw_dynamic_score": 0.0,
      "dynamic_level": "None"
    },
    {
      "id": "308",
      "country": "China",
      "name": "Heyuan",
      "latitude": 23.7509,
      "longitude": 114.6992,
      "base_risk": 9.5,
      "rain_6h_mm": 0.0,
      "humidity_avg": 65.3,
      "soil_moisture_avg": 0.0,
      "rain_mult": 0.0,
      "soil_mult": 0.95,
      "humidity_mult": 1.033,
      "raw_dynamic_score": 0.0,
      "dynamic_level": "None"
    },
    {
      "id": "309",
      "country": "China",
      "name": "Heze",
      "latitude": 35.2451,
      "longitude": 115.4598,
      "base_risk": 9.23,
      "rain_6h_mm": 0.0,
      "humidity_avg": 75.7,
      "soil_moisture_avg": 0.0,
      "rain_mult": 0.0,
      "soil_mult": 0.95,
      "humidity_mult": 1.038,
      "raw_dynamic_score": 0.0,
      "dynamic_level": "None"
    },
    {
      "id": "310",
      "country": "China",
      "name": "Hezhou",
      "latitude": 24.4152,
      "longitude": 111.554,
      "base_risk": 9.29,
      "rain_6h_mm": 0.0,
      "humidity_avg": 62.5,
      "soil_moisture_avg": 0.0,
      "rain_mult": 0.0,
      "soil_mult": 0.95,
      "humidity_mult": 1.031,
      "raw_dynamic_score": 0.0,
      "dynamic_level": "None"
    },
    {
      "id": "311",
      "country": "China",
      "name": "Hohhot",
      "latitude": 40.8106,
      "longitude": 111.6522,
      "base_risk": 8.99,
      "rain_6h_mm": 0.0,
      "humidity_avg": 62.2,
      "soil_moisture_avg": 0.0,
      "rain_mult": 0.0,
      "soil_mult": 0.95,
      "humidity_mult": 1.031,
      "raw_dynamic_score": 0.0,
      "dynamic_level": "None"
    },
    {
      "id": "316",
      "country": "China",
      "name": "Huangshan",
      "latitude": 29.7127,
      "longitude": 118.3225,
      "base_risk": 9.05,
      "rain_6h_mm": 0.0,
      "humidity_avg": 74.7,
      "soil_moisture_avg": 0.0,
      "rain_mult": 0.0,
      "soil_mult": 0.95,
      "humidity_mult": 1.037,
      "raw_dynamic_score": 0.0,
      "dynamic_level": "None"
    },
    {
      "id": "317",
      "country": "China",
      "name": "Huangshi",
      "latitude": 30.2068,
      "longitude": 115.0855,
      "base_risk": 9.45,
      "rain_6h_mm": 0.0,
      "humidity_avg": 70.8,
      "soil_moisture_avg": 0.0,
      "rain_mult": 0.0,
      "soil_mult": 0.95,
      "humidity_mult": 1.035,
      "raw_dynamic_score": 0.0,
      "dynamic_level": "None"
    },
    {
      "id": "318",
      "country": "China",
      "name": "Huazhou",
      "latitude": 21.6572,
      "longitude": 110.6391,
      "base_risk": 8.68,
      "rain_6h_mm": 0.0,
      "humidity_avg": 68.2,
      "soil_moisture_avg": 0.0,
      "rain_mult": 0.0,
      "soil_mult": 0.95,
      "humidity_mult": 1.034,
      "raw_dynamic_score": 0.0,
      "dynamic_level": "None"
    },
    {
      "id": "319",
      "country": "China",
      "name": "Huixian",
      "latitude": 35.4672,
      "longitude": 113.8013,
      "base_risk": 9.16,
      "rain_6h_mm": 0.0,
      "humidity_avg": 56.8,
      "soil_moisture_avg": 0.0,
      "rain_mult": 0.0,
      "soil_mult": 0.95,
      "humidity_mult": 1.028,
      "raw_dynamic_score": 0.0,
      "dynamic_level": "None"
    },
    {
      "id": "320",
      "country": "China",
      "name": "Huizhou",
      "latitude": 23.0833,
      "longitude": 114.4,
      "base_risk": 9.06,
      "rain_6h_mm": 0.0,
      "humidity_avg": 67.3,
      "soil_moisture_avg": 0.0,
      "rain_mult": 0.0,
      "soil_mult": 0.95,
      "humidity_mult": 1.034,
      "raw_dynamic_score": 0.0,
      "dynamic_level": "None"
    },
    {
      "id": "326",
      "country": "China",
      "name": "Jiangyin",
      "latitude": 31.9157,
      "longitude": 120.281,
      "base_risk": 9.09,
      "rain_6h_mm": 0.0,
      "humidity_avg": 86.5,
      "soil_moisture_avg": 0.0,
      "rain_mult": 0.0,
      "soil_mult": 0.95,
      "humidity_mult": 1.043,
      "raw_dynamic_score": 0.0,
      "dynamic_level": "None"
    },
    {
      "id": "327",
      "country": "China",
      "name": "Jianyang",
      "latitude": 30.3921,
      "longitude": 104.5448,
      "base_risk": 9.39,
      "rain_6h_mm": 0.3,
      "humidity_avg": 94.8,
      "soil_moisture_avg": 0.0,
      "rain_mult": 0.003,
      "soil_mult": 0.95,
      "humidity_mult": 1.047,
      "raw_dynamic_score": 0.028,
      "dynamic_level": "Low"
    },
    {
      "id": "328",
      "country": "China",
      "name": "Jiaozhou",
      "latitude": 36.2839,
      "longitude": 120.0033,
      "base_risk": 9.02,
      "rain_6h_mm": 0.0,
      "humidity_avg": 73.5,
      "soil_moisture_avg": 0.0,
      "rain_mult": 0.0,
      "soil_mult": 0.95,
      "humidity_mult": 1.037,
      "raw_dynamic_score": 0.0,
      "dynamic_level": "None"
    },
    {
      "id": "329",
      "country": "China",
      "name": "Jiaozuo",
      "latitude": 35.2397,
      "longitude": 113.2331,
      "base_risk": 8.72,
      "rain_6h_mm": 0.0,
      "humidity_avg": 52.5,
      "soil_moisture_avg": 0.0,
      "rain_mult": 0.0,
      "soil_mult": 0.95,
      "humidity_mult": 1.026,
      "raw_dynamic_score": 0.0,
      "dynamic_level": "None"
    },
    {
      "id": "335",
      "country": "China",
      "name": "Jincheng",
      "latitude": 35.4865,
      "longitude": 112.8515,
      "base_risk": 9.38,
      "rain_6h_mm": 0.0,
      "humidity_avg": 72.5,
      "soil_moisture_avg": 0.0,
      "rain_mult": 0.0,
      "soil_mult": 0.95,
      "humidity_mult": 1.036,
      "raw_dynamic_score": 0.0,
      "dynamic_level": "None"
    },
    {
      "id": "336",
      "country": "China",
      "name": "Jingdezhen",
      "latitude": 29.2947,
      "longitude": 117.2079,
      "base_risk": 9.23,
      "rain_6h_mm": 0.0,
      "humidity_avg": 67.8,
      "soil_moisture_avg": 0.0,
      "rain_mult": 0.0,
      "soil_mult": 0.95,
      "humidity_mult": 1.034,
      "raw_dynamic_score": 0.0,
      "dynamic_level": "None"
    },
    {
      "id": "337",
      "country": "China",
      "name": "Jingjiang",
      "latitude": 32.012,
      "longitude": 120.2627,
      "base_risk": 9.47,
      "rain_6h_mm": 0.0,
      "humidity_avg": 89.2,
      "soil_moisture_avg": 0.0,
      "rain_mult": 0.0,
      "soil_mult": 0.95,
      "humidity_mult": 1.045,
      "raw_dynamic_score": 0.0,
      "dynamic_level": "None"
    },
    {
      "id": "338",
      "country": "China",
      "name": "Jingmen",
      "latitude": 31.0417,
      "longitude": 112.2003,
      "base_risk": 9.46,
      "rain_6h_mm": 0.0,
      "humidity_avg": 63.0,
      "soil_moisture_avg": 0.0,
      "rain_mult": 0.0,
      "soil_mult": 0.95,
      "humidity_mult": 1.032,
      "raw_dynamic_score": 0.0,
      "dynamic_level": "None"
    },
    {
      "id": "339",
      "country": "China",
      "name": "Jingzhou, Hubei",
      "latitude": 30.3276,
      "longitude": 112.2484,
      "base_risk": 9.25,
      "rain_6h_mm": 0.0,
      "humidity_avg": 61.3,
      "soil_moisture_avg": 0.0,
      "rain_mult": 0.0,
      "soil_mult": 0.95,
      "humidity_mult": 1.031,
      "raw_dynamic_score": 0.0,
      "dynamic_level": "None"
    },
    {
      "id": "345",
      "country": "China",
      "name": "Jiujiang",
      "latitude": 29.7041,
      "longitude": 116.0013,
      "base_risk": 8.61,
      "rain_6h_mm": 0.0,
      "humidity_avg": 65.5,
      "soil_moisture_avg": 0.0,
      "rain_mult": 0.0,
      "soil_mult": 0.95,
      "humidity_mult": 1.033,
      "raw_dynamic_score": 0.0,
      "dynamic_level": "None"
    },
    {
      "id": "346",
      "country": "China",
      "name": "Jiuquan",
      "latitude": 39.738,
      "longitude": 98.5042,
      "base_risk": 9.25,
      "rain_6h_mm": 0.0,
      "humidity_avg": 48.5,
      "soil_moisture_avg": 0.0,
      "rain_mult": 0.0,
      "soil_mult": 0.95,
      "humidity_mult": 1.024,
      "raw_dynamic_score": 0.0,
      "dynamic_level": "None"
    },
    {
      "id": "347",
      "country": "China",
      "name": "Jixi, Heilongjiang",
      "latitude": 45.2958,
      "longitude": 130.9701,
      "base_risk": 8.96,
      "rain_6h_mm": 0.0,
      "humidity_avg": 66.5,
      "soil_moisture_avg": 0.0,
      "rain_mult": 0.0,
      "soil_mult": 0.95,
      "humidity_mult": 1.033,
      "raw_dynamic_score": 0.0,
      "dynamic_level": "None"
    },
    {
      "id": "348",
      "country": "China",
      "name": "Jiyuan",
      "latitude": 35.0926,
      "longitude": 112.5833,
      "base_risk": 9.41,
      "rain_6h_mm": 0.0,
      "humidity_avg": 63.5,
      "soil_moisture_avg": 0.0,
      "rain_mult": 0.0,
      "soil_mult": 0.95,
      "humidity_mult": 1.032,
      "raw_dynamic_score": 0.0,
      "dynamic_level": "None"
    },
    {
      "id": "349",
      "country": "China",
      "name": "Jurong",
      "latitude": 31.9498,
      "longitude": 119.1609,
      "base_risk": 8.84,
      "rain_6h_mm": 0.0,
      "humidity_avg": 85.5,
      "soil_moisture_avg": 0.0,
      "rain_mult": 0.0,
      "soil_mult": 0.95,
      "humidity_mult": 1.043,
      "raw_dynamic_score": 0.0,
      "dynamic_level": "None"
    },
    {
      "id": "355",
      "country": "China",
      "name": "Kunming",
      "latitude": 25.0389,
      "longitude": 102.7183,
      "base_risk": 9.25,
      "rain_6h_mm": 0.0,
      "humidity_avg": 83.7,
      "soil_moisture_avg": 0.0,
      "rain_mult": 0.0,
      "soil_mult": 0.95,
      "humidity_mult": 1.042,
      "raw_dynamic_score": 0.0,
      "dynamic_level": "None"
    },
    {
      "id": "356",
      "country": "China",
      "name": "Kunshan ",
      "latitude": 31.3881,
      "longitude": 120.9629,
      "base_risk": 9.16,
      "rain_6h_mm": 0.0,
      "humidity_avg": 86.2,
      "soil_moisture_avg": 0.0,
      "rain_mult": 0.0,
      "soil_mult": 0.95,
      "humidity_mult": 1.043,
      "raw_dynamic_score": 0.0,
      "dynamic_level": "None"
    },
    {
      "id": "357",
      "country": "China",
      "name": "Laibin",
      "latitude": 23.738,
      "longitude": 109.2268,
      "base_risk": 9.27,
      "rain_6h_mm": 0.0,
      "humidity_avg": 60.8,
      "soil_moisture_avg": 0.0,
      "rain_mult": 0.0,
      "soil_mult": 0.95,
      "humidity_mult": 1.03,
      "raw_dynamic_score": 0.0,
      "dynamic_level": "None"
    },
    {
      "id": "358",
      "country": "China",
      "name": "Laiwu",
      "latitude": 36.2074,
      "longitude": 117.672,
      "base_risk": 9.07,
      "rain_6h_mm": 0.0,
      "humidity_avg": 78.8,
      "soil_moisture_avg": 0.0,
      "rain_mult": 0.0,
      "soil_mult": 0.95,
      "humidity_mult": 1.039,
      "raw_dynamic_score": 0.0,
      "dynamic_level": "None"
    },
    {
      "id": "359",
      "country": "China",
      "name": "Laixi",
      "latitude": 36.8651,
      "longitude": 120.5238,
      "base_risk": 9.39,
      "rain_6h_mm": 0.0,
      "humidity_avg": 77.8,
      "soil_moisture_avg": 0.0,
      "rain_mult": 0.0,
      "soil_mult": 0.95,
      "humidity_mult": 1.039,
      "raw_dynamic_score": 0.0,
      "dynamic_level": "None"
    },
    {
      "id": "365",
      "country": "China",
      "name": "Lengshuijiang",
      "latitude": 27.6879,
      "longitude": 111.4374,
      "base_risk": 9.24,
      "rain_6h_mm": 0.0,
      "humidity_avg": 56.3,
      "soil_moisture_avg": 0.0,
      "rain_mult": 0.0,
      "soil_mult": 0.95,
      "humidity_mult": 1.028,
      "raw_dynamic_score": 0.0,
      "dynamic_level": "None"
    },
    {
      "id": "366",
      "country": "China",
      "name": "Leping",
      "latitude": 28.972,
      "longitude": 117.1283,
      "base_risk": 9.5,
      "rain_6h_mm": 0.0,
      "humidity_avg": 70.8,
      "soil_moisture_avg": 0.0,
      "rain_mult": 0.0,
      "soil_mult": 0.95,
      "humidity_mult": 1.035,
      "raw_dynamic_score": 0.0,
      "dynamic_level": "None"
    },
    {
      "id": "367",
      "country": "China",
      "name": "Leshan",
      "latitude": 29.5762,
      "longitude": 103.759,
      "base_risk": 8.97,
      "rain_6h_mm": 0.0,
      "humidity_avg": 92.0,
      "soil_moisture_avg": 0.0,
      "rain_mult": 0.0,
      "soil_mult": 0.95,
      "humidity_mult": 1.046,
      "raw_dynamic_score": 0.0,
      "dynamic_level": "None"
    },
    {
      "id": "368",
      "country": "China",
      "name": "Lianyungang",
      "latitude": 34.5969,
      "longitude": 119.1758,
      "base_risk": 9.49,
      "rain_6h_mm": 0.0,
      "humidity_avg": 89.0,
      "soil_moisture_avg": 0.0,
      "rain_mult": 0.0,
      "soil_mult": 0.95,
      "humidity_mult": 1.044,
      "raw_dynamic_score": 0.0,
      "dynamic_level": "None"
    },
    {
      "id": "369",
      "country": "China",
      "name": "Liaocheng",
      "latitude": 36.4551,
      "longitude": 115.9826,
      "base_risk": 9.39,
      "rain_6h_mm": 0.0,
      "humidity_avg": 76.5,
      "soil_moisture_avg": 0.0,
      "rain_mult": 0.0,
      "soil_mult": 0.95,
      "humidity_mult": 1.038,
      "raw_dynamic_score": 0.0,
      "dynamic_level": "None"
    },
    {
      "id": "375",
      "country": "China",
      "name": "Linqing",
      "latitude": 36.8456,
      "longitude": 115.7117,
      "base_risk": 9.39,
      "rain_6h_mm": 0.0,
      "humidity_avg": 72.5,
      "soil_moisture_avg": 0.0,
      "rain_mult": 0.0,
      "soil_mult": 0.95,
      "humidity_mult": 1.036,
      "raw_dynamic_score": 0.0,
      "dynamic_level": "None"
    },
    {
      "id": "376",
      "country": "China",
      "name": "Linyi, Shandong",
      "latitude": 35.0541,
      "longitude": 118.3334,
      "base_risk": 9.35,
      "rain_6h_mm": 0.0,
      "humidity_avg": 74.0,
      "soil_moisture_avg": 0.0,
      "rain_mult": 0.0,
      "soil_mult": 0.95,
      "humidity_mult": 1.037,
      "raw_dynamic_score": 0.0,
      "dynamic_level": "None"
    },
    {
      "id": "377",
      "country": "China",
      "name": "Linzhou",
      "latitude": 36.071,
      "longitude": 113.8156,
      "base_risk": 8.67,
      "rain_6h_mm": 0.0,
      "humidity_avg": 54.5,
      "soil_moisture_avg": 0.0,
      "rain_mult": 0.0,
      "soil_mult": 0.95,
      "humidity_mult": 1.027,
      "raw_dynamic_score": 0.0,
      "dynamic_level": "None"
    },
    {
      "id": "378",
      "country": "China",
      "name": "Lishui, Zhejiang",
      "latitude": 28.457,
      "longitude": 119.9192,
      "base_risk": 9.47,
      "rain_6h_mm": 0.7,
      "humidity_avg": 94.5,
      "soil_moisture_avg": 0.0,
      "rain_mult": 0.007,
      "soil_mult": 0.95,
      "humidity_mult": 1.047,
      "raw_dynamic_score": 0.066,
      "dynamic_level": "Low"
    },
    {
      "id": "379",
      "country": "China",
      "name": "Liuan",
      "latitude": 31.7543,
      "longitude": 116.4981,
      "base_risk": 9.27,
      "rain_6h_mm": 0.0,
      "humidity_avg": 74.2,
      "soil_moisture_avg": 0.0,
      "rain_mult": 0.0,
      "soil_mult": 0.95,
      "humidity_mult": 1.037,
      "raw_dynamic_score": 0.0,
      "dynamic_level": "None"
    },
    {
      "id": "384",
      "country": "China",
      "name": "Longchang",
      "latitude": 29.3394,
      "longitude": 105.2876,
      "base_risk": 9.36,
      "rain_6h_mm": 0.4,
      "humidity_avg": 96.0,
      "soil_moisture_avg": 0.0,
      "rain_mult": 0.004,
      "soil_mult": 0.95,
      "humidity_mult": 1.048,
      "raw_dynamic_score": 0.037,
      "dynamic_level": "Low"
    },
    {
      "id": "385",
      "country": "China",
      "name": "Longhai",
      "latitude": 24.4462,
      "longitude": 117.809,
      "base_risk": 9.37,
      "rain_6h_mm": 0.0,
      "humidity_avg": 77.8,
      "soil_moisture_avg": 0.0,
      "rain_mult": 0.0,
      "soil_mult": 0.95,
      "humidity_mult": 1.039,
      "raw_dynamic_score": 0.0,
      "dynamic_level": "None"
    },
    {
      "id": "386",
      "country": "China",
      "name": "Longkou",
      "latitude": 37.6417,
      "longitude": 120.5199,
      "base_risk": 8.69,
      "rain_6h_mm": 0.0,
      "humidity_avg": 78.0,
      "soil_moisture_avg": 0.0,
      "rain_mult": 0.0,
      "soil_mult": 0.95,
      "humidity_mult": 1.039,
      "raw_dynamic_score": 0.0,
      "dynamic_level": "None"
    },
    {
      "id": "387",
      "country": "China",
      "name": "Longyan",
      "latitude": 25.1072,
      "longitude": 117.0225,
      "base_risk": 9.17,
      "rain_6h_mm": 0.0,
      "humidity_avg": 85.5,
      "soil_moisture_avg": 0.0,
      "rain_mult": 0.0,
      "soil_mult": 0.95,
      "humidity_mult": 1.043,
      "raw_dynamic_score": 0.0,
      "dynamic_level": "None"
    },
    {
      "id": "388",
      "country": "China",
      "name": "Loudi",
      "latitude": 27.7344,
      "longitude": 111.9944,
      "base_risk": 9.5,
      "rain_6h_mm": 0.0,
      "humidity_avg": 71.8,
      "soil_moisture_avg": 0.0,
      "rain_mult": 0.0,
      "soil_mult": 0.95,
      "humidity_mult": 1.036,
      "raw_dynamic_score": 0.0,
      "dynamic_level": "None"
    },
    {
      "id": "391",
      "country": "China",
      "name": "Luoyang",
      "latitude": 34.6186,
      "longitude": 112.4562,
      "base_risk": 9.35,
      "rain_6h_mm": 0.0,
      "humidity_avg": 61.8,
      "soil_moisture_avg": 0.0,
      "rain_mult": 0.0,
      "soil_mult": 0.95,
      "humidity_mult": 1.031,
      "raw_dynamic_score": 0.0,
      "dynamic_level": "None"
    },
    {
      "id": "395",
      "country": "China",
      "name": "Macheng",
      "latitude": 31.1783,
      "longitude": 115.0319,
      "base_risk": 9.26,
      "rain_6h_mm": 0.0,
      "humidity_avg": 65.8,
      "soil_moisture_avg": 0.0,
      "rain_mult": 0.0,
      "soil_mult": 0.95,
      "humidity_mult": 1.033,
      "raw_dynamic_score": 0.0,
      "dynamic_level": "None"
    },
    {
      "id": "398",
      "country": "China",
      "name": "Meishan",
      "latitude": 30.0761,
      "longitude": 103.8456,
      "base_risk": 8.72,
      "rain_6h_mm": 0.4,
      "humidity_avg": 92.7,
      "soil_moisture_avg": 0.0,
      "rain_mult": 0.004,
      "soil_mult": 0.95,
      "humidity_mult": 1.046,
      "raw_dynamic_score": 0.035,
      "dynamic_level": "Low"
    },
    {
      "id": "399",
      "country": "China",
      "name": "Meizhou",
      "latitude": 24.2989,
      "longitude": 116.1214,
      "base_risk": 9.45,
      "rain_6h_mm": 0.0,
      "humidity_avg": 74.5,
      "soil_moisture_avg": 0.0,
      "rain_mult": 0.0,
      "soil_mult": 0.95,
      "humidity_mult": 1.037,
      "raw_dynamic_score": 0.0,
      "dynamic_level": "None"
    },
    {
      "id": "400",
      "country": "China",
      "name": "Mianyang, Sichuan",
      "latitude": 31.4839,
      "longitude": 104.737,
      "base_risk": 9.43,
      "rain_6h_mm": 0.0,
      "humidity_avg": 89.3,
      "soil_moisture_avg": 0.0,
      "rain_mult": 0.0,
      "soil_mult": 0.95,
      "humidity_mult": 1.045,
      "raw_dynamic_score": 0.0,
      "dynamic_level": "None"
    },
    {
      "id": "401",
      "country": "China",
      "name": "Miluo",
      "latitude": 28.8069,
      "longitude": 113.0721,
      "base_risk": 8.82,
      "rain_6h_mm": 0.0,
      "humidity_avg": 78.7,
      "soil_moisture_avg": 0.0,
      "rain_mult": 0.0,
      "soil_mult": 0.95,
      "humidity_mult": 1.039,
      "raw_dynamic_score": 0.0,
      "dynamic_level": "None"
    },
    {
      "id": "405",
      "country": "China",
      "name": "Nanjing, Jiangsu",
      "latitude": 32.0482,
      "longitude": 118.7898,
      "base_risk": 8.64,
      "rain_6h_mm": 0.0,
      "humidity_avg": 85.8,
      "soil_moisture_avg": 0.0,
      "rain_mult": 0.0,
      "soil_mult": 0.95,
      "humidity_mult": 1.043,
      "raw_dynamic_score": 0.0,
      "dynamic_level": "None"
    },
    {
      "id": "407",
      "country": "China",
      "name": "Nanning",
      "latitude": 22.8167,
      "longitude": 108.3167,
      "base_risk": 9.5,
      "rain_6h_mm": 0.0,
      "humidity_avg": 79.0,
      "soil_moisture_avg": 0.0,
      "rain_mult": 0.0,
      "soil_mult": 0.95,
      "humidity_mult": 1.04,
      "raw_dynamic_score": 0.0,
      "dynamic_level": "None"
    },
    {
      "id": "409",
      "country": "China",
      "name": "Nantong",
      "latitude": 31.9904,
      "longitude": 120.8655,
      "base_risk": 8.72,
      "rain_6h_mm": 0.0,
      "humidity_avg": 84.3,
      "soil_moisture_avg": 0.0,
      "rain_mult": 0.0,
      "soil_mult": 0.95,
      "humidity_mult": 1.042,
      "raw_dynamic_score": 0.0,
      "dynamic_level": "None"
    },
    {
      "id": "411",
      "country": "China",
      "name": "Neijiang",
      "latitude": 29.5835,
      "longitude": 105.0622,
      "base_risk": 9.49,
      "rain_6h_mm": 0.8,
      "humidity_avg": 94.5,
      "soil_moisture_avg": 0.0,
      "rain_mult": 0.008,
      "soil_mult": 0.95,
      "humidity_mult": 1.047,
      "raw_dynamic_score": 0.076,
      "dynamic_level": "Low"
    },
    {
      "id": "413",
      "country": "China",
      "name": "Ningde",
      "latitude": 26.6617,
      "longitude": 119.5228,
      "base_risk": 9.12,
      "rain_6h_mm": 0.1,
      "humidity_avg": 87.2,
      "soil_moisture_avg": 0.0,
      "rain_mult": 0.001,
      "soil_mult": 0.95,
      "humidity_mult": 1.044,
      "raw_dynamic_score": 0.009,
      "dynamic_level": "Low"
    },
    {
      "id": "414",
      "country": "China",
      "name": "Ningguo",
      "latitude": 30.6209,
      "longitude": 118.9796,
      "base_risk": 9.37,
      "rain_6h_mm": 0.0,
      "humidity_avg": 78.2,
      "soil_moisture_avg": 0.0,
      "rain_mult": 0.0,
      "soil_mult": 0.95,
      "humidity_mult": 1.039,
      "raw_dynamic_score": 0.0,
      "dynamic_level": "None"
    },
    {
      "id": "418",
      "country": "China",
      "name": "Pingdu",
      "latitude": 36.7808,
      "longitude": 119.9592,
      "base_risk": 9.42,
      "rain_6h_mm": 0.0,
      "humidity_avg": 75.7,
      "soil_moisture_avg": 0.0,
      "rain_mult": 0.0,
      "soil_mult": 0.95,
      "humidity_mult": 1.038,
      "raw_dynamic_score": 0.0,
      "dynamic_level": "None"
    },
    {
      "id": "419",
      "country": "China",
      "name": "Pinghu",
      "latitude": 30.7037,
      "longitude": 121.0097,
      "base_risk": 9.41,
      "rain_6h_mm": 0.0,
      "humidity_avg": 86.5,
      "soil_moisture_avg": 0.0,
      "rain_mult": 0.0,
      "soil_mult": 0.95,
      "humidity_mult": 1.043,
      "raw_dynamic_score": 0.0,
      "dynamic_level": "None"
    },
    {
      "id": "423",
      "country": "China",
      "name": "Puning",
      "latitude": 23.2967,
      "longitude": 116.1647,
      "base_risk": 9.4,
      "rain_6h_mm": 0.0,
      "humidity_avg": 73.2,
      "soil_moisture_avg": 0.0,
      "rain_mult": 0.0,
      "soil_mult": 0.95,
      "humidity_mult": 1.037,
      "raw_dynamic_score": 0.0,
      "dynamic_level": "None"
    },
    {
      "id": "424",
      "country": "China",
      "name": "Putian",
      "latitude": 25.4394,
      "longitude": 119.0103,
      "base_risk": 9.12,
      "rain_6h_mm": 0.0,
      "humidity_avg": 73.5,
      "soil_moisture_avg": 0.0,
      "rain_mult": 0.0,
      "soil_mult": 0.95,
      "humidity_mult": 1.037,
      "raw_dynamic_score": 0.0,
      "dynamic_level": "None"
    },
    {
      "id": "425",
      "country": "China",
      "name": "Puyang",
      "latitude": 35.7705,
      "longitude": 115.0438,
      "base_risk": 9.13,
      "rain_6h_mm": 0.0,
      "humidity_avg": 78.0,
      "soil_moisture_avg": 0.0,
      "rain_mult": 0.0,
      "soil_mult": 0.95,
      "humidity_mult": 1.039,
      "raw_dynamic_score": 0.0,
      "dynamic_level": "None"
    },
    {
      "id": "426",
      "country": "China",
      "name": "Qianjiang",
      "latitude": 30.4221,
      "longitude": 112.8925,
      "base_risk": 9.44,
      "rain_6h_mm": 0.0,
      "humidity_avg": 65.3,
      "soil_moisture_avg": 0.0,
      "rain_mult": 0.0,
      "soil_mult": 0.95,
      "humidity_mult": 1.033,
      "raw_dynamic_score": 0.0,
      "dynamic_level": "None"
    },
    {
      "id": "427",
      "country": "China",
      "name": "Qidong",
      "latitude": 31.8134,
      "longitude": 121.6577,
      "base_risk": 9.13,
      "rain_6h_mm": 0.0,
      "humidity_avg": 87.0,
      "soil_moisture_avg": 0.0,
      "rain_mult": 0.0,
      "soil_mult": 0.95,
      "humidity_mult": 1.044,
      "raw_dynamic_score": 0.0,
      "dynamic_level": "None"
    },
    {
      "id": "432",
      "country": "China",
      "name": "Qinzhou",
      "latitude": 21.9681,
      "longitude": 108.6214,
      "base_risk": 8.82,
      "rain_6h_mm": 0.0,
      "humidity_avg": 65.5,
      "soil_moisture_avg": 0.0,
      "rain_mult": 0.0,
      "soil_mult": 0.95,
      "humidity_mult": 1.033,
      "raw_dynamic_score": 0.0,
      "dynamic_level": "None"
    },
    {
      "id": "433",
      "country": "China",
      "name": "Qiqihaer",
      "latitude": 47.3408,
      "longitude": 123.9672,
      "base_risk": 9.01,
      "rain_6h_mm": 0.0,
      "humidity_avg": 46.5,
      "soil_moisture_avg": 0.0,
      "rain_mult": 0.0,
      "soil_mult": 0.95,
      "humidity_mult": 1.023,
      "raw_dynamic_score": 0.0,
      "dynamic_level": "None"
    },
    {
      "id": "434",
      "country": "China",
      "name": "Qitaihe",
      "latitude": 45.7671,
      "longitude": 130.975,
      "base_risk": 9.1,
      "rain_6h_mm": 0.0,
      "humidity_avg": 64.3,
      "soil_moisture_avg": 0.0,
      "rain_mult": 0.0,
      "soil_mult": 0.95,
      "humidity_mult": 1.032,
      "raw_dynamic_score": 0.0,
      "dynamic_level": "None"
    },
    {
      "id": "439",
      "country": "China",
      "name": "Renqiu",
      "latitude": 38.6989,
      "longitude": 116.0936,
      "base_risk": 9.46,
      "rain_6h_mm": 0.0,
      "humidity_avg": 53.8,
      "soil_moisture_avg": 0.0,
      "rain_mult": 0.0,
      "soil_mult": 0.95,
      "humidity_mult": 1.027,
      "raw_dynamic_score": 0.0,
      "dynamic_level": "None"
    },
    {
      "id": "440",
      "country": "China",
      "name": "Rizhao",
      "latitude": 35.4034,
      "longitude": 119.512,
      "base_risk": 9.46,
      "rain_6h_mm": 0.0,
      "humidity_avg": 84.3,
      "soil_moisture_avg": 0.0,
      "rain_mult": 0.0,
      "soil_mult": 0.95,
      "humidity_mult": 1.042,
      "raw_dynamic_score": 0.0,
      "dynamic_level": "None"
    },
    {
      "id": "441",
      "country": "China",
      "name": "Rongcheng",
      "latitude": 37.154,
      "longitude": 122.4363,
      "base_risk": 9.41,
      "rain_6h_mm": 0.0,
      "humidity_avg": 78.8,
      "soil_moisture_avg": 0.0,
      "rain_mult": 0.0,
      "soil_mult": 0.95,
      "humidity_mult": 1.039,
      "raw_dynamic_score": 0.0,
      "dynamic_level": "None"
    },
    {
      "id": "442",
      "country": "China",
      "name": "Rugao",
      "latitude": 32.3977,
      "longitude": 120.5604,
      "base_risk": 9.42,
      "rain_6h_mm": 0.0,
      "humidity_avg": 90.7,
      "soil_moisture_avg": 0.0,
      "rain_mult": 0.0,
      "soil_mult": 0.95,
      "humidity_mult": 1.045,
      "raw_dynamic_score": 0.0,
      "dynamic_level": "None"
    },
    {
      "id": "443",
      "country": "China",
      "name": "Ruian",
      "latitude": 27.7808,
      "longitude": 120.6755,
      "base_risk": 9.08,
      "rain_6h_mm": 0.3,
      "humidity_avg": 79.2,
      "soil_moisture_avg": 0.0,
      "rain_mult": 0.003,
      "soil_mult": 0.95,
      "humidity_mult": 1.04,
      "raw_dynamic_score": 0.027,
      "dynamic_level": "Low"
    },
    {
      "id": "449",
      "country": "China",
      "name": "Shanghai",
      "latitude": 31.2222,
      "longitude": 121.4581,
      "base_risk": 8.76,
      "rain_6h_mm": 0.0,
      "humidity_avg": 85.7,
      "soil_moisture_avg": 0.0,
      "rain_mult": 0.0,
      "soil_mult": 0.95,
      "humidity_mult": 1.043,
      "raw_dynamic_score": 0.0,
      "dynamic_level": "None"
    },
    {
      "id": "450",
      "country": "China",
      "name": "Shangqiu",
      "latitude": 34.4244,
      "longitude": 115.6514,
      "base_risk": 8.85,
      "rain_6h_mm": 0.0,
      "humidity_avg": 77.5,
      "soil_moisture_avg": 0.0,
      "rain_mult": 0.0,
      "soil_mult": 0.95,
      "humidity_mult": 1.039,
      "raw_dynamic_score": 0.0,
      "dynamic_level": "None"
    },
    {
      "id": "451",
      "country": "China",
      "name": "Shangrao",
      "latitude": 28.4604,
      "longitude": 117.9531,
      "base_risk": 9.2,
      "rain_6h_mm": 0.0,
      "humidity_avg": 76.0,
      "soil_moisture_avg": 0.0,
      "rain_mult": 0.0,
      "soil_mult": 0.95,
      "humidity_mult": 1.038,
      "raw_dynamic_score": 0.0,
      "dynamic_level": "None"
    },
    {
      "id": "452",
      "country": "China",
      "name": "Shangyu",
      "latitude": 30.0311,
      "longitude": 120.8722,
      "base_risk": 9.11,
      "rain_6h_mm": 4.5,
      "humidity_avg": 90.7,
      "soil_moisture_avg": 0.0,
      "rain_mult": 0.045,
      "soil_mult": 0.95,
      "humidity_mult": 1.045,
      "raw_dynamic_score": 0.407,
      "dynamic_level": "Low"
    },
    {
      "id": "453",
      "country": "China",
      "name": "Shantou",
      "latitude": 23.3681,
      "longitude": 116.7148,
      "base_risk": 8.88,
      "rain_6h_mm": 0.0,
      "humidity_avg": 67.0,
      "soil_moisture_avg": 0.0,
      "rain_mult": 0.0,
      "soil_mult": 0.95,
      "humidity_mult": 1.034,
      "raw_dynamic_score": 0.0,
      "dynamic_level": "None"
    },
    {
      "id": "459",
      "country": "China",
      "name": "Shenmu",
      "latitude": 38.8341,
      "longitude": 110.4847,
      "base_risk": 9.2,
      "rain_6h_mm": 0.0,
      "humidity_avg": 57.3,
      "soil_moisture_avg": 0.0,
      "rain_mult": 0.0,
      "soil_mult": 0.95,
      "humidity_mult": 1.029,
      "raw_dynamic_score": 0.0,
      "dynamic_level": "None"
    },
    {
      "id": "460",
      "country": "China",
      "name": "Shenyang",
      "latitude": 41.7922,
      "longitude": 123.4328,
      "base_risk": 8.86,
      "rain_6h_mm": 0.0,
      "humidity_avg": 57.3,
      "soil_moisture_avg": 0.0,
      "rain_mult": 0.0,
      "soil_mult": 0.95,
      "humidity_mult": 1.029,
      "raw_dynamic_score": 0.0,
      "dynamic_level": "None"
    },
    {
      "id": "461",
      "country": "China",
      "name": "Shenzhen",
      "latitude": 22.5415,
      "longitude": 114.0634,
      "base_risk": 9.49,
      "rain_6h_mm": 0.0,
      "humidity_avg": 67.0,
      "soil_moisture_avg": 0.0,
      "rain_mult": 0.0,
      "soil_mult": 0.95,
      "humidity_mult": 1.034,
      "raw_dynamic_score": 0.0,
      "dynamic_level": "None"
    },
    {
      "id": "462",
      "country": "China",
      "name": "Shihezi",
      "latitude": 44.3075,
      "longitude": 86.032,
      "base_risk": 9.21,
      "rain_6h_mm": 0.0,
      "humidity_avg": 79.5,
      "soil_moisture_avg": 0.0,
      "rain_mult": 0.0,
      "soil_mult": 0.95,
      "humidity_mult": 1.04,
      "raw_dynamic_score": 0.0,
      "dynamic_level": "None"
    },
    {
      "id": "463",
      "country": "China",
      "name": "Shijiazhuang",
      "latitude": 38.0418,
      "longitude": 114.5108,
      "base_risk": 9.15,
      "rain_6h_mm": 0.0,
      "humidity_avg": 53.2,
      "soil_moisture_avg": 0.0,
      "rain_mult": 0.0,
      "soil_mult": 0.95,
      "humidity_mult": 1.027,
      "raw_dynamic_score": 0.0,
      "dynamic_level": "None"
    },
    {
      "id": "468",
      "country": "China",
      "name": "Shuangyashan",
      "latitude": 46.6361,
      "longitude": 131.1539,
      "base_risk": 8.94,
      "rain_6h_mm": 0.0,
      "humidity_avg": 67.5,
      "soil_moisture_avg": 0.0,
      "rain_mult": 0.0,
      "soil_mult": 0.95,
      "humidity_mult": 1.034,
      "raw_dynamic_score": 0.0,
      "dynamic_level": "None"
    },
    {
      "id": "469",
      "country": "China",
      "name": "Shuozhou",
      "latitude": 39.3158,
      "longitude": 112.4225,
      "base_risk": 9.24,
      "rain_6h_mm": 0.0,
      "humidity_avg": 55.0,
      "soil_moisture_avg": 0.0,
      "rain_mult": 0.0,
      "soil_mult": 0.95,
      "humidity_mult": 1.028,
      "raw_dynamic_score": 0.0,
      "dynamic_level": "None"
    },
    {
      "id": "470",
      "country": "China",
      "name": "Sihui",
      "latitude": 23.3462,
      "longitude": 112.6958,
      "base_risk": 8.91,
      "rain_6h_mm": 0.0,
      "humidity_avg": 79.2,
      "soil_moisture_avg": 0.0,
      "rain_mult": 0.0,
      "soil_mult": 0.95,
      "humidity_mult": 1.04,
      "raw_dynamic_score": 0.0,
      "dynamic_level": "None"
    },
    {
      "id": "471",
      "country": "China",
      "name": "Siping",
      "latitude": 43.1633,
      "longitude": 124.3686,
      "base_risk": 9.4,
      "rain_6h_mm": 0.0,
      "humidity_avg": 57.7,
      "soil_moisture_avg": 0.0,
      "rain_mult": 0.0,
      "soil_mult": 0.95,
      "humidity_mult": 1.029,
      "raw_dynamic_score": 0.0,
      "dynamic_level": "None"
    },
    {
      "id": "476",
      "country": "China",
      "name": "Suizhou",
      "latitude": 31.7111,
      "longitude": 113.3631,
      "base_risk": 9.25,
      "rain_6h_mm": 0.0,
      "humidity_avg": 68.8,
      "soil_moisture_avg": 0.0,
      "rain_mult": 0.0,
      "soil_mult": 0.95,
      "humidity_mult": 1.034,
      "raw_dynamic_score": 0.0,
      "dynamic_level": "None"
    },
    {
      "id": "477",
      "country": "China",
      "name": "Suqian",
      "latitude": 33.9681,
      "longitude": 118.2924,
      "base_risk": 9.15,
      "rain_6h_mm": 0.0,
      "humidity_avg": 77.0,
      "soil_moisture_avg": 0.0,
      "rain_mult": 0.0,
      "soil_mult": 0.95,
      "humidity_mult": 1.038,
      "raw_dynamic_score": 0.0,
      "dynamic_level": "None"
    },
    {
      "id": "478",
      "country": "China",
      "name": "Suzhou, Anhui",
      "latitude": 33.6359,
      "longitude": 116.9747,
      "base_risk": 9.3,
      "rain_6h_mm": 0.0,
      "humidity_avg": 79.7,
      "soil_moisture_avg": 0.0,
      "rain_mult": 0.0,
      "soil_mult": 0.95,
      "humidity_mult": 1.04,
      "raw_dynamic_score": 0.0,
      "dynamic_level": "None"
    },
    {
      "id": "479",
      "country": "China",
      "name": "Suzhou, Jiangsu",
      "latitude": 31.3021,
      "longitude": 120.5853,
      "base_risk": 9.34,
      "rain_6h_mm": 0.0,
      "humidity_avg": 82.8,
      "soil_moisture_avg": 0.0,
      "rain_mult": 0.0,
      "soil_mult": 0.95,
      "humidity_mult": 1.041,
      "raw_dynamic_score": 0.0,
      "dynamic_level": "None"
    },
    {
      "id": "480",
      "country": "China",
      "name": "Taian, Shandong",
      "latitude": 36.1904,
      "longitude": 117.1191,
      "base_risk": 9.43,
      "rain_6h_mm": 0.0,
      "humidity_avg": 63.3,
      "soil_moisture_avg": 0.0,
      "rain_mult": 0.0,
      "soil_mult": 0.95,
      "humidity_mult": 1.032,
      "raw_dynamic_score": 0.0,
      "dynamic_level": "None"
    },
    {
      "id": "486",
      "country": "China",
      "name": "Taizhou, Zhejiang",
      "latitude": 28.6372,
      "longitude": 121.4185,
      "base_risk": 9.22,
      "rain_6h_mm": 5.1,
      "humidity_avg": 85.7,
      "soil_moisture_avg": 0.0,
      "rain_mult": 0.051,
      "soil_mult": 0.95,
      "humidity_mult": 1.043,
      "raw_dynamic_score": 0.466,
      "dynamic_level": "Low"
    },
    {
      "id": "487",
      "country": "China",
      "name": "Tangshan, Hebei",
      "latitude": 39.6285,
      "longitude": 118.1799,
      "base_risk": 8.71,
      "rain_6h_mm": 0.0,
      "humidity_avg": 52.8,
      "soil_moisture_avg": 0.0,
      "rain_mult": 0.0,
      "soil_mult": 0.95,
      "humidity_mult": 1.026,
      "raw_dynamic_score": 0.0,
      "dynamic_level": "None"
    },
    {
      "id": "488",
      "country": "China",
      "name": "Tengzhou",
      "latitude": 35.0845,
      "longitude": 117.1624,
      "base_risk": 9.32,
      "rain_6h_mm": 0.0,
      "humidity_avg": 80.2,
      "soil_moisture_avg": 0.0,
      "rain_mult": 0.0,
      "soil_mult": 0.95,
      "humidity_mult": 1.04,
      "raw_dynamic_score": 0.0,
      "dynamic_level": "None"
    },
    {
      "id": "489",
      "country": "China",
      "name": "Tianjin",
      "latitude": 39.1088,
      "longitude": 117.1886,
      "base_risk": 8.93,
      "rain_6h_mm": 0.0,
      "humidity_avg": 39.2,
      "soil_moisture_avg": 0.0,
      "rain_mult": 0.0,
      "soil_mult": 0.95,
      "humidity_mult": 1.02,
      "raw_dynamic_score": 0.0,
      "dynamic_level": "None"
    },
    {
      "id": "495",
      "country": "China",
      "name": "Tonghua",
      "latitude": 41.7201,
      "longitude": 125.9281,
      "base_risk": 9.22,
      "rain_6h_mm": 0.3,
      "humidity_avg": 97.5,
      "soil_moisture_avg": 0.0,
      "rain_mult": 0.003,
      "soil_mult": 0.95,
      "humidity_mult": 1.049,
      "raw_dynamic_score": 0.028,
      "dynamic_level": "Low"
    },
    {
      "id": "496",
      "country": "China",
      "name": "Tongliao",
      "latitude": 43.6125,
      "longitude": 122.2653,
      "base_risk": 9.22,
      "rain_6h_mm": 0.0,
      "humidity_avg": 61.8,
      "soil_moisture_avg": 0.0,
      "rain_mult": 0.0,
      "soil_mult": 0.95,
      "humidity_mult": 1.031,
      "raw_dynamic_score": 0.0,
      "dynamic_level": "None"
    },
    {
      "id": "497",
      "country": "China",
      "name": "Tongling",
      "latitude": 30.9363,
      "longitude": 117.8109,
      "base_risk": 9.19,
      "rain_6h_mm": 0.0,
      "humidity_avg": 78.8,
      "soil_moisture_avg": 0.0,
      "rain_mult": 0.0,
      "soil_mult": 0.95,
      "humidity_mult": 1.039,
      "raw_dynamic_score": 0.0,
      "dynamic_level": "None"
    },
    {
      "id": "498",
      "country": "China",
      "name": "Tongxiang",
      "latitude": 30.6296,
      "longitude": 120.5536,
      "base_risk": 9.12,
      "rain_6h_mm": 0.0,
      "humidity_avg": 82.2,
      "soil_moisture_avg": 0.0,
      "rain_mult": 0.0,
      "soil_mult": 0.95,
      "humidity_mult": 1.041,
      "raw_dynamic_score": 0.0,
      "dynamic_level": "None"
    },
    {
      "id": "499",
      "country": "China",
      "name": "Ürümqi (Wulumqi)",
      "latitude": 43.8253,
      "longitude": 87.6038,
      "base_risk": 9.45,
      "rain_6h_mm": 0.0,
      "humidity_avg": 68.8,
      "soil_moisture_avg": 0.0,
      "rain_mult": 0.0,
      "soil_mult": 0.95,
      "humidity_mult": 1.034,
      "raw_dynamic_score": 0.0,
      "dynamic_level": "None"
    },
    {
      "id": "505",
      "country": "China",
      "name": "Wenchang",
      "latitude": 19.614,
      "longitude": 110.7505,
      "base_risk": 9.5,
      "rain_6h_mm": 0.0,
      "humidity_avg": 85.2,
      "soil_moisture_avg": 0.0,
      "rain_mult": 0.0,
      "soil_mult": 0.95,
      "humidity_mult": 1.043,
      "raw_dynamic_score": 0.0,
      "dynamic_level": "None"
    },
    {
      "id": "506",
      "country": "China",
      "name": "Wenling",
      "latitude": 28.3758,
      "longitude": 121.3781,
      "base_risk": 9.23,
      "rain_6h_mm": 4.9,
      "humidity_avg": 85.0,
      "soil_moisture_avg": 0.0,
      "rain_mult": 0.049,
      "soil_mult": 0.95,
      "humidity_mult": 1.042,
      "raw_dynamic_score": 0.448,
      "dynamic_level": "Low"
    },