{
  "timestamp": "2025-11-04T12:25:24.817117Z",
  "source": "Open-Meteo",
  "forecast_window_hours": 6,
  "features_evaluated": 938,
  "alerts": [
    {
      "id": "1",
      "country": "Afghanistan",
      "name": "Herat",
      "latitude": 34.3482,
      "longitude": 62.1997,
      "base_risk": 9.5,
      "rain_6h_mm": 0.0,
      "humidity_avg": 25.5,
      "soil_moisture_avg": 0.0,
      "rain_mult": 0.0,
      "soil_mult": 0.95,
      "humidity_mult": 1.013,
      "raw_dynamic_score": 0.0,
      "dynamic_level": "None"
    },
    {
      "id": "2",
      "country": "Afghanistan",
      "name": "Kabul",
      "latitude": 34.5289,
      "longitude": 69.1725,
      "base_risk": 9.13,
      "rain_6h_mm": 0.0,
      "humidity_avg": 12.8,
      "soil_moisture_avg": 0.0,
      "rain_mult": 0.0,
      "soil_mult": 0.95,
      "humidity_mult": 1.006,
      "raw_dynamic_score": 0.0,
      "dynamic_level": "None"
    },
    {
      "id": "3",
      "country": "Afghanistan",
      "name": "Kandahar",
      "latitude": 31.6133,
      "longitude": 65.7101,
      "base_risk": 9.39,
      "rain_6h_mm": 0.0,
      "humidity_avg": 8.5,
      "soil_moisture_avg": 0.0,
      "rain_mult": 0.0,
      "soil_mult": 0.95,
      "humidity_mult": 1.004,
      "raw_dynamic_score": 0.0,
      "dynamic_level": "None"
    },
    {
      "id": "4",
      "country": "Afghanistan",
      "name": "Mazar-e Sharif",
      "latitude": 36.709,
      "longitude": 67.1109,
      "base_risk": 9.23,
      "rain_6h_mm": 0.0,
      "humidity_avg": 48.8,
      "soil_moisture_avg": 0.0,
      "rain_mult": 0.0,
      "soil_mult": 0.95,
      "humidity_mult": 1.024,
      "raw_dynamic_score": 0.0,
      "dynamic_level": "None"
    },
    {
      "id": "5",
      "country": "Albania",
      "name": "Tiranë (Tirana)",
      "latitude": 41.3275,
      "longitude": 19.8189,
      "base_risk": 9.32,
      "rain_6h_mm": 0.0,
      "humidity_avg": 78.0,
      "soil_moisture_avg": 0.0,
      "rain_mult": 0.0,
      "soil_mult": 0.95,
      "humidity_mult": 1.039,
      "raw_dynamic_score": 0.0,
      "dynamic_level": "None"
    },
    {
      "id": "11",
      "country": "Algeria",
      "name": "Qacentina",
      "latitude": 36.3549,
      "longitude": 6.6073,
      "base_risk": 9.09,
      "rain_6h_mm": 0.0,
      "humidity_avg": 62.2,
      "soil_moisture_avg": 0.0,
      "rain_mult": 0.0,
      "soil_mult": 0.95,
      "humidity_mult": 1.031,
      "raw_dynamic_score": 0.0,
      "dynamic_level": "None"
    },
    {
      "id": "12",
      "country": "Algeria",
      "name": "Sétif",
      "latitude": 36.1911,
      "longitude": 5.4137,
      "base_risk": 9.3,
      "rain_6h_mm": 0.0,
      "humidity_avg": 60.8,
      "soil_moisture_avg": 0.0,
      "rain_mult": 0.0,
      "soil_mult": 0.95,
      "humidity_mult": 1.03,
      "raw_dynamic_score": 0.0,
      "dynamic_level": "None"
    },
    {
      "id": "13",
      "country": "Algeria",
      "name": "Wahran (Oran)",
      "latitude": 35.6911,
      "longitude": -0.6417,
      "base_risk": 9.15,
      "rain_6h_mm": 0.0,
      "humidity_avg": 62.7,
      "soil_moisture_avg": 0.0,
      "rain_mult": 0.0,
      "soil_mult": 0.95,
      "humidity_mult": 1.031,
      "raw_dynamic_score": 0.0,
      "dynamic_level": "None"
    },
    {
      "id": "14",
      "country": "Angola",
      "name": "Benguela",
      "latitude": -12.576,
      "longitude": 13.405,
      "base_risk": 9.33,
      "rain_6h_mm": 0.0,
      "humidity_avg": 70.7,
      "soil_moisture_avg": 0.0,
      "rain_mult": 0.0,
      "soil_mult": 0.95,
      "humidity_mult": 1.035,
      "raw_dynamic_score": 0.0,
      "dynamic_level": "None"
    },
    {
      "id": "15",
      "country": "Angola",
      "name": "Cabinda",
      "latitude": -5.55,
      "longitude": 12.2,
      "base_risk": 9.14,
      "rain_6h_mm": 1.6,
      "humidity_avg": 84.2,
      "soil_moisture_avg": 0.0,
      "rain_mult": 0.016,
      "soil_mult": 0.95,
      "humidity_mult": 1.042,
      "raw_dynamic_score": 0.145,
      "dynamic_level": "Low"
    },
    {
      "id": "21",
      "country": "Angola",
      "name": "Malanje",
      "latitude": -9.54,
      "longitude": 16.341,
      "base_risk": 9.23,
      "rain_6h_mm": 0.0,
      "humidity_avg": 59.7,
      "soil_moisture_avg": 0.0,
      "rain_mult": 0.0,
      "soil_mult": 0.95,
      "humidity_mult": 1.03,
      "raw_dynamic_score": 0.0,
      "dynamic_level": "None"
    },
    {
      "id": "22",
      "country": "Angola",
      "name": "Uige",
      "latitude": -7.1069,
      "longitude": 15.4406,
      "base_risk": 9.45,
      "rain_6h_mm": 0.3,
      "humidity_avg": 71.0,
      "soil_moisture_avg": 0.0,
      "rain_mult": 0.003,
      "soil_mult": 0.95,
      "humidity_mult": 1.036,
      "raw_dynamic_score": 0.028,
      "dynamic_level": "Low"
    },
    {
      "id": "23",
      "country": "Argentina",
      "name": "Bahia Blanca",
      "latitude": -38.7196,
      "longitude": -62.2724,
      "base_risk": 9.12,
      "rain_6h_mm": 0.2,
      "humidity_avg": 87.2,
      "soil_moisture_avg": 0.0,
      "rain_mult": 0.002,
      "soil_mult": 0.95,
      "humidity_mult": 1.044,
      "raw_dynamic_score": 0.018,
      "dynamic_level": "Low"
    },
    {
      "id": "24",
      "country": "Argentina",
      "name": "Buenos Aires",
      "latitude": -34.6051,
      "longitude": -58.4004,
      "base_risk": 9.05,
      "rain_6h_mm": 0.0,
      "humidity_avg": 72.5,
      "soil_moisture_avg": 0.0,
      "rain_mult": 0.0,
      "soil_mult": 0.95,
      "humidity_mult": 1.036,
      "raw_dynamic_score": 0.0,
      "dynamic_level": "None"
    },
    {
      "id": "25",
      "country": "Argentina",
      "name": "Córdoba",
      "latitude": -31.4135,
      "longitude": -64.1811,
      "base_risk": 9.23,
      "rain_6h_mm": 0.4,
      "humidity_avg": 69.0,
      "soil_moisture_avg": 0.0,
      "rain_mult": 0.004,
      "soil_mult": 0.95,
      "humidity_mult": 1.034,
      "raw_dynamic_score": 0.036,
      "dynamic_level": "Low"
    },
    {
      "id": "31",
      "country": "Argentina",
      "name": "Posadas",
      "latitude": -27.3671,
      "longitude": -55.8961,
      "base_risk": 9.29,
      "rain_6h_mm": 0.0,
      "humidity_avg": 76.0,
      "soil_moisture_avg": 0.0,
      "rain_mult": 0.0,
      "soil_mult": 0.95,
      "humidity_mult": 1.038,
      "raw_dynamic_score": 0.0,
      "dynamic_level": "None"
    },
    {
      "id": "32",
      "country": "Argentina",
      "name": "Resistencia",
      "latitude": -27.4606,
      "longitude": -58.9839,
      "base_risk": 9.42,
      "rain_6h_mm": 0.0,
      "humidity_avg": 78.2,
      "soil_moisture_avg": 0.0,
      "rain_mult": 0.0,
      "soil_mult": 0.95,
      "humidity_mult": 1.039,
      "raw_dynamic_score": 0.0,
      "dynamic_level": "None"
    },
    {
      "id": "33",
      "country": "Argentina",
      "name": "Rosario",
      "latitude": -32.9468,
      "longitude": -60.6393,
      "base_risk": 9.16,
      "rain_6h_mm": 4.2,
      "humidity_avg": 81.7,
      "soil_moisture_avg": 0.0,
      "rain_mult": 0.042,
      "soil_mult": 0.95,
      "humidity_mult": 1.041,
      "raw_dynamic_score": 0.38,
      "dynamic_level": "Low"
    },
    {
      "id": "34",
      "country": "Argentina",
      "name": "Salta",
      "latitude": -24.7859,
      "longitude": -65.4117,
      "base_risk": 9.39,
      "rain_6h_mm": 0.0,
      "humidity_avg": 74.7,
      "soil_moisture_avg": 0.0,
      "rain_mult": 0.0,
      "soil_mult": 0.95,
      "humidity_mult": 1.037,
      "raw_dynamic_score": 0.0,
      "dynamic_level": "None"
    },
    {
      "id": "35",
      "country": "Argentina",
      "name": "San Juan",
      "latitude": -31.5375,
      "longitude": -68.5364,
      "base_risk": 8.8,
      "rain_6h_mm": 0.0,
      "humidity_avg": 49.3,
      "soil_moisture_avg": 0.0,
      "rain_mult": 0.0,
      "soil_mult": 0.95,
      "humidity_mult": 1.025,
      "raw_dynamic_score": 0.0,
      "dynamic_level": "None"
    },
    {
      "id": "41",
      "country": "Australia",
      "name": "Adelaide",
      "latitude": -34.9287,
      "longitude": 138.5986,
      "base_risk": 9.32,
      "rain_6h_mm": 0.0,
      "humidity_avg": 65.8,
      "soil_moisture_avg": 0.0,
      "rain_mult": 0.0,
      "soil_mult": 0.95,
      "humidity_mult": 1.033,
      "raw_dynamic_score": 0.0,
      "dynamic_level": "None"
    },
    {
      "id": "42",
      "country": "Australia",
      "name": "Brisbane",
      "latitude": -27.4679,
      "longitude": 153.0281,
      "base_risk": 8.99,
      "rain_6h_mm": 0.0,
      "humidity_avg": 63.5,
      "soil_moisture_avg": 0.0,
      "rain_mult": 0.0,
      "soil_mult": 0.95,
      "humidity_mult": 1.032,
      "raw_dynamic_score": 0.0,
      "dynamic_level": "None"
    },
    {
      "id": "43",
      "country": "Australia",
      "name": "Canberra",
      "latitude": -35.2835,
      "longitude": 149.1281,
      "base_risk": 8.88,
      "rain_6h_mm": 0.6,
      "humidity_avg": 81.3,
      "soil_moisture_avg": 0.0,
      "rain_mult": 0.006,
      "soil_mult": 0.95,
      "humidity_mult": 1.041,
      "raw_dynamic_score": 0.053,
      "dynamic_level": "Low"
    },
    {
      "id": "44",
      "country": "Australia",
      "name": "Central Coast",
      "latitude": -33.42,
      "longitude": 151.3958,
      "base_risk": 9.28,
      "rain_6h_mm": 0.0,
      "humidity_avg": 46.8,
      "soil_moisture_avg": 0.0,
      "rain_mult": 0.0,
      "soil_mult": 0.95,
      "humidity_mult": 1.023,
      "raw_dynamic_score": 0.0,
      "dynamic_level": "None"
    },
    {
      "id": "45",
      "country": "Australia",
      "name": "Gold Coast-Tweed Head",
      "latitude": -28.0003,
      "longitude": 153.4309,
      "base_risk": 9.38,
      "rain_6h_mm": 0.0,
      "humidity_avg": 62.3,
      "soil_moisture_avg": 0.0,
      "rain_mult": 0.0,
      "soil_mult": 0.95,
      "humidity_mult": 1.031,
      "raw_dynamic_score": 0.0,
      "dynamic_level": "None"
    },
    {
      "id": "51",
      "country": "Australia",
      "name": "Wollongong",
      "latitude": -34.424,
      "longitude": 150.8935,
      "base_risk": 9.37,
      "rain_6h_mm": 0.0,
      "humidity_avg": 47.7,
      "soil_moisture_avg": 0.0,
      "rain_mult": 0.0,
      "soil_mult": 0.95,
      "humidity_mult": 1.024,
      "raw_dynamic_score": 0.0,
      "dynamic_level": "None"
    },
    {
      "id": "52",
      "country": "Austria",
      "name": "Wien (Vienna)",
      "latitude": 48.2064,
      "longitude": 16.3707,
      "base_risk": 8.75,
      "rain_6h_mm": 0.0,
      "humidity_avg": 60.5,
      "soil_moisture_avg": 0.0,
      "rain_mult": 0.0,
      "soil_mult": 0.95,
      "humidity_mult": 1.03,
      "raw_dynamic_score": 0.0,
      "dynamic_level": "None"
    },
    {
      "id": "53",
      "country": "Azerbaijan",
      "name": "Baku",
      "latitude": 40.3777,
      "longitude": 49.892,
      "base_risk": 8.82,
      "rain_6h_mm": 0.0,
      "humidity_avg": 72.0,
      "soil_moisture_avg": 0.0,
      "rain_mult": 0.0,
      "soil_mult": 0.95,
      "humidity_mult": 1.036,
      "raw_dynamic_score": 0.0,
      "dynamic_level": "None"
    },
    {
      "id": "54",
      "country": "Azerbaijan",
      "name": "Gäncä",
      "latitude": 40.6828,
      "longitude": 46.3606,
      "base_risk": 9.07,
      "rain_6h_mm": 0.0,
      "humidity_avg": 70.2,
      "soil_moisture_avg": 0.0,
      "rain_mult": 0.0,
      "soil_mult": 0.95,
      "humidity_mult": 1.035,
      "raw_dynamic_score": 0.0,
      "dynamic_level": "None"
    },
    {
      "id": "55",
      "country": "Azerbaijan",
      "name": "Sumquayit",
      "latitude": 40.5897,
      "longitude": 49.6686,
      "base_risk": 9.08,
      "rain_6h_mm": 0.0,
      "humidity_avg": 71.0,
      "soil_moisture_avg": 0.0,
      "rain_mult": 0.0,
      "soil_mult": 0.95,
      "humidity_mult": 1.036,
      "raw_dynamic_score": 0.0,
      "dynamic_level": "None"
    },
    {
      "id": "61",
      "country": "Bangladesh",
      "name": "Dhaka",
      "latitude": 23.7104,
      "longitude": 90.4074,
      "base_risk": 9.43,
      "rain_6h_mm": 0.0,
      "humidity_avg": 80.5,
      "soil_moisture_avg": 0.0,
      "rain_mult": 0.0,
      "soil_mult": 0.95,
      "humidity_mult": 1.04,
      "raw_dynamic_score": 0.0,
      "dynamic_level": "None"
    },
    {
      "id": "62",
      "country": "Bangladesh",
      "name": "Khulna",
      "latitude": 22.8098,
      "longitude": 89.5644,
      "base_risk": 9.5,
      "rain_6h_mm": 0.0,
      "humidity_avg": 76.2,
      "soil_moisture_avg": 0.0,
      "rain_mult": 0.0,
      "soil_mult": 0.95,
      "humidity_mult": 1.038,
      "raw_dynamic_score": 0.0,
      "dynamic_level": "None"
    },
    {
      "id": "63",
      "country": "Bangladesh",
      "name": "Mymensingh",
      "latitude": 24.75,
      "longitude": 90.4,
      "base_risk": 9.34,
      "rain_6h_mm": 0.0,
      "humidity_avg": 78.7,
      "soil_moisture_avg": 0.0,
      "rain_mult": 0.0,
      "soil_mult": 0.95,
      "humidity_mult": 1.039,
      "raw_dynamic_score": 0.0,
      "dynamic_level": "None"
    },
    {
      "id": "64",
      "country": "Bangladesh",
      "name": "Rajshahi",
      "latitude": 24.3667,
      "longitude": 88.6,
      "base_risk": 9.04,
      "rain_6h_mm": 0.0,
      "humidity_avg": 74.2,
      "soil_moisture_avg": 0.0,
      "rain_mult": 0.0,
      "soil_mult": 0.95,
      "humidity_mult": 1.037,
      "raw_dynamic_score": 0.0,
      "dynamic_level": "None"
    },
    {
      "id": "69",
      "country": "Belarus",
      "name": "Gomel",
      "latitude": 52.4345,
      "longitude": 30.9754,
      "base_risk": 9.21,
      "rain_6h_mm": 0.0,
      "humidity_avg": 87.7,
      "soil_moisture_avg": 0.0,
      "rain_mult": 0.0,
      "soil_mult": 0.95,
      "humidity_mult": 1.044,
      "raw_dynamic_score": 0.0,
      "dynamic_level": "None"
    },
    {
      "id": "70",
      "country": "Belarus",
      "name": "Grodno",
      "latitude": 53.6884,
      "longitude": 23.8258,
      "base_risk": 9.14,
      "rain_6h_mm": 0.0,
      "humidity_avg": 80.7,
      "soil_moisture_avg": 0.636,
      "rain_mult": 0.0,
      "soil_mult": 1.491,
      "humidity_mult": 1.04,
      "raw_dynamic_score": 0.0,
      "dynamic_level": "None"
    },
    {
      "id": "71",
      "country": "Belarus",
      "name": "Minsk",
      "latitude": 53.9,
      "longitude": 27.5667,
      "base_risk": 8.74,
      "rain_6h_mm": 0.0,
      "humidity_avg": 73.2,
      "soil_moisture_avg": 0.499,
      "rain_mult": 0.0,
      "soil_mult": 1.375,
      "humidity_mult": 1.037,
      "raw_dynamic_score": 0.0,
      "dynamic_level": "None"
    },
    {
      "id": "72",
      "country": "Belarus",
      "name": "Mogilev",
      "latitude": 53.9141,
      "longitude": 30.3376,
      "base_risk": 8.6,
      "rain_6h_mm": 0.0,
      "humidity_avg": 79.7,
      "soil_moisture_avg": 0.0,
      "rain_mult": 0.0,
      "soil_mult": 0.95,
      "humidity_mult": 1.04,
      "raw_dynamic_score": 0.0,
      "dynamic_level": "None"
    },
    {
      "id": "77",
      "country": "Belgium",
      "name": "Gent",
      "latitude": 51.05,
      "longitude": 3.7167,
      "base_risk": 8.99,
      "rain_6h_mm": 0.0,
      "humidity_avg": 74.8,
      "soil_moisture_avg": 0.392,
      "rain_mult": 0.0,
      "soil_mult": 1.283,
      "humidity_mult": 1.037,
      "raw_dynamic_score": 0.0,
      "dynamic_level": "None"
    },
    {
      "id": "78",
      "country": "Belgium",
      "name": "Liège",
      "latitude": 50.6337,
      "longitude": 5.5675,
      "base_risk": 9.43,
      "rain_6h_mm": 0.0,
      "humidity_avg": 68.3,
      "soil_moisture_avg": 0.551,
      "rain_mult": 0.0,
      "soil_mult": 1.418,
      "humidity_mult": 1.034,
      "raw_dynamic_score": 0.0,
      "dynamic_level": "None"
    },
    {
      "id": "79",
      "country": "Benin",
      "name": "Abomey-Calavi",
      "latitude": 6.4485,
      "longitude": 2.3557,
      "base_risk": 9.06,
      "rain_6h_mm": 1.7,
      "humidity_avg": 73.8,
      "soil_moisture_avg": 0.0,
      "rain_mult": 0.017,
      "soil_mult": 0.95,
      "humidity_mult": 1.037,
      "raw_dynamic_score": 0.152,
      "dynamic_level": "Low"
    },
    {
      "id": "80",
      "country": "Benin",
      "name": "Cotonou",
      "latitude": 6.3654,
      "longitude": 2.4183,
      "base_risk": 9.5,
      "rain_6h_mm": 0.6,
      "humidity_avg": 73.7,
      "soil_moisture_avg": 0.0,
      "rain_mult": 0.006,
      "soil_mult": 0.95,
      "humidity_mult": 1.037,
      "raw_dynamic_score": 0.056,
      "dynamic_level": "Low"
    },
    {
      "id": "81",
      "country": "Benin",
      "name": "Djougou",
      "latitude": 9.7085,
      "longitude": 1.666,
      "base_risk": 9.46,
      "rain_6h_mm": 0.0,
      "humidity_avg": 60.7,
      "soil_moisture_avg": 0.0,
      "rain_mult": 0.0,
      "soil_mult": 0.95,
      "humidity_mult": 1.03,
      "raw_dynamic_score": 0.0,
      "dynamic_level": "None"
    },
    {
      "id": "87",
      "country": "Bosnia and Herzegovina",
      "name": "Sarajevo",
      "latitude": 43.8486,
      "longitude": 18.3564,
      "base_risk": 9.35,
      "rain_6h_mm": 0.0,
      "humidity_avg": 76.2,
      "soil_moisture_avg": 0.0,
      "rain_mult": 0.0,
      "soil_mult": 0.95,
      "humidity_mult": 1.038,
      "raw_dynamic_score": 0.0,
      "dynamic_level": "None"
    },
    {
      "id": "88",
      "country": "Brazil",
      "name": "Anápolis",
      "latitude": -16.3267,
      "longitude": -48.9528,
      "base_risk": 9.37,
      "rain_6h_mm": 0.0,
      "humidity_avg": 76.5,
      "soil_moisture_avg": 0.0,
      "rain_mult": 0.0,
      "soil_mult": 0.95,
      "humidity_mult": 1.038,
      "raw_dynamic_score": 0.0,
      "dynamic_level": "None"
    },
    {
      "id": "89",
      "country": "Brazil",
      "name": "Aracaju",
      "latitude": -10.9111,
      "longitude": -37.0717,
      "base_risk": 9.4,
      "rain_6h_mm": 0.0,
      "humidity_avg": 68.8,
      "soil_moisture_avg": 0.0,
      "rain_mult": 0.0,
      "soil_mult": 0.95,
      "humidity_mult": 1.034,
      "raw_dynamic_score": 0.0,
      "dynamic_level": "None"
    },
    {
      "id": "90",
      "country": "Brazil",
      "name": "Baixada Santista",
      "latitude": -23.957,
      "longitude": -46.3266,
      "base_risk": 9.48,
      "rain_6h_mm": 0.0,
      "humidity_avg": 90.7,
      "soil_moisture_avg": 0.0,
      "rain_mult": 0.0,
      "soil_mult": 0.95,
      "humidity_mult": 1.045,
      "raw_dynamic_score": 0.0,
      "dynamic_level": "None"
    },
    {
      "id": "91",
      "country": "Brazil",
      "name": "Bauru",
      "latitude": -22.3147,
      "longitude": -49.0606,
      "base_risk": 9.5,
      "rain_6h_mm": 0.2,
      "humidity_avg": 79.7,
      "soil_moisture_avg": 0.0,
      "rain_mult": 0.002,
      "soil_mult": 0.95,
      "humidity_mult": 1.04,
      "raw_dynamic_score": 0.019,
      "dynamic_level": "Low"
    },
    {
      "id": "97",
      "country": "Brazil",
      "name": "Campina Grande",
      "latitude": -7.2306,
      "longitude": -35.8811,
      "base_risk": 9.5,
      "rain_6h_mm": 0.0,
      "humidity_avg": 71.7,
      "soil_moisture_avg": 0.0,
      "rain_mult": 0.0,
      "soil_mult": 0.95,
      "humidity_mult": 1.036,
      "raw_dynamic_score": 0.0,
      "dynamic_level": "None"
    },
    {
      "id": "98",
      "country": "Brazil",
      "name": "Campinas",
      "latitude": -22.9109,
      "longitude": -47.0656,
      "base_risk": 9.41,
      "rain_6h_mm": 0.4,
      "humidity_avg": 81.5,
      "soil_moisture_avg": 0.0,
      "rain_mult": 0.004,
      "soil_mult": 0.95,
      "humidity_mult": 1.041,
      "raw_dynamic_score": 0.037,
      "dynamic_level": "Low"
    },
    {
      "id": "99",
      "country": "Brazil",
      "name": "Campo Grande",
      "latitude": -20.4567,
      "longitude": -54.6185,
      "base_risk": 9.07,
      "rain_6h_mm": 0.1,
      "humidity_avg": 68.8,
      "soil_moisture_avg": 0.0,
      "rain_mult": 0.001,
      "soil_mult": 0.95,
      "humidity_mult": 1.034,
      "raw_dynamic_score": 0.009,
      "dynamic_level": "Low"
    },
    {
      "id": "100",
      "country": "Brazil",
      "name": "Campos dos Goytacazes",
      "latitude": -21.7664,
      "longitude": -41.3196,
      "base_risk": 9.41,
      "rain_6h_mm": 0.5,
      "humidity_avg": 75.5,
      "soil_moisture_avg": 0.0,
      "rain_mult": 0.005,
      "soil_mult": 0.95,
      "humidity_mult": 1.038,
      "raw_dynamic_score": 0.046,
      "dynamic_level": "Low"
    },
    {
      "id": "101",
      "country": "Brazil",
      "name": "Caruaru",
      "latitude": -8.2833,
      "longitude": -35.9761,
      "base_risk": 9.37,
      "rain_6h_mm": 0.0,
      "humidity_avg": 73.7,
      "soil_moisture_avg": 0.0,
      "rain_mult": 0.0,
      "soil_mult": 0.95,
      "humidity_mult": 1.037,
      "raw_dynamic_score": 0.0,
      "dynamic_level": "None"
    },
    {
      "id": "107",
      "country": "Brazil",
      "name": "Florianópolis",
      "latitude": -27.5967,
      "longitude": -48.5492,
      "base_risk": 9.19,
      "rain_6h_mm": 0.0,
      "humidity_avg": 84.3,
      "soil_moisture_avg": 0.0,
      "rain_mult": 0.0,
      "soil_mult": 0.95,
      "humidity_mult": 1.042,
      "raw_dynamic_score": 0.0,
      "dynamic_level": "None"
    },
    {
      "id": "108",
      "country": "Brazil",
      "name": "Fortaleza",
      "latitude": -3.7412,
      "longitude": -38.5436,
      "base_risk": 9.05,
      "rain_6h_mm": 0.0,
      "humidity_avg": 63.5,
      "soil_moisture_avg": 0.0,
      "rain_mult": 0.0,
      "soil_mult": 0.95,
      "humidity_mult": 1.032,
      "raw_dynamic_score": 0.0,
      "dynamic_level": "None"
    },
    {
      "id": "109",
      "country": "Brazil",
      "name": "Franca",
      "latitude": -20.5386,
      "longitude": -47.4008,
      "base_risk": 9.15,
      "rain_6h_mm": 0.6,
      "humidity_avg": 77.5,
      "soil_moisture_avg": 0.0,
      "rain_mult": 0.006,
      "soil_mult": 0.95,
      "humidity_mult": 1.039,
      "raw_dynamic_score": 0.054,
      "dynamic_level": "Low"
    },
    {
      "id": "110",
      "country": "Brazil",
      "name": "Goiânia",
      "latitude": -16.6786,
      "longitude": -49.2539,
      "base_risk": 9.02,
      "rain_6h_mm": 0.0,
      "humidity_avg": 76.2,
      "soil_moisture_avg": 0.0,
      "rain_mult": 0.0,
      "soil_mult": 0.95,
      "humidity_mult": 1.038,
      "raw_dynamic_score": 0.0,
      "dynamic_level": "None"
    },
    {
      "id": "111",
      "country": "Brazil",
      "name": "Grande São Luís",
      "latitude": -2.5385,
      "longitude": -44.2832,
      "base_risk": 8.97,
      "rain_6h_mm": 0.0,
      "humidity_avg": 73.3,
      "soil_moisture_avg": 0.0,
      "rain_mult": 0.0,
      "soil_mult": 0.95,
      "humidity_mult": 1.037,
      "raw_dynamic_score": 0.0,
      "dynamic_level": "None"
    },
    {
      "id": "117",
      "country": "Brazil",
      "name": "Jundiaí",
      "latitude": -23.1883,
      "longitude": -46.8913,
      "base_risk": 9.41,
      "rain_6h_mm": 0.0,
      "humidity_avg": 85.5,
      "soil_moisture_avg": 0.0,
      "rain_mult": 0.0,
      "soil_mult": 0.95,
      "humidity_mult": 1.043,
      "raw_dynamic_score": 0.0,
      "dynamic_level": "None"
    },
    {
      "id": "118",
      "country": "Brazil",
      "name": "Londrina",
      "latitude": -23.3103,
      "longitude": -51.1628,
      "base_risk": 9.17,
      "rain_6h_mm": 0.0,
      "humidity_avg": 83.5,
      "soil_moisture_avg": 0.0,
      "rain_mult": 0.0,
      "soil_mult": 0.95,
      "humidity_mult": 1.042,
      "raw_dynamic_score": 0.0,
      "dynamic_level": "None"
    },
    {
      "id": "119",
      "country": "Brazil",
      "name": "Macapá",
      "latitude": 0.0389,
      "longitude": -51.0664,
      "base_risk": 9.04,
      "rain_6h_mm": 0.0,
      "humidity_avg": 79.3,
      "soil_moisture_avg": 0.0,
      "rain_mult": 0.0,
      "soil_mult": 0.95,
      "humidity_mult": 1.04,
      "raw_dynamic_score": 0.0,
      "dynamic_level": "None"
    },
    {
      "id": "120",
      "country": "Brazil",
      "name": "Maceió",
      "latitude": -9.6658,
      "longitude": -35.7353,
      "base_risk": 9.5,
      "rain_6h_mm": 0.0,
      "humidity_avg": 70.0,
      "soil_moisture_avg": 0.0,
      "rain_mult": 0.0,
      "soil_mult": 0.95,
      "humidity_mult": 1.035,
      "raw_dynamic_score": 0.0,
      "dynamic_level": "None"
    },
    {
      "id": "121",
      "country": "Brazil",
      "name": "Manaus",
      "latitude": -3.1019,
      "longitude": -60.025,
      "base_risk": 9.01,
      "rain_6h_mm": 9.8,
      "humidity_avg": 87.5,
      "soil_moisture_avg": 0.0,
      "rain_mult": 0.098,
      "soil_mult": 0.95,
      "humidity_mult": 1.044,
      "raw_dynamic_score": 0.876,
      "dynamic_level": "Low"
    },
    {
      "id": "127",
      "country": "Brazil",
      "name": "Piracicaba",
      "latitude": -22.7253,
      "longitude": -47.6492,
      "base_risk": 9.19,
      "rain_6h_mm": 0.1,
      "humidity_avg": 83.2,
      "soil_moisture_avg": 0.0,
      "rain_mult": 0.001,
      "soil_mult": 0.95,
      "humidity_mult": 1.042,
      "raw_dynamic_score": 0.009,
      "dynamic_level": "Low"
    },
    {
      "id": "128",
      "country": "Brazil",
      "name": "Ponta Grossa",
      "latitude": -25.095,
      "longitude": -50.1619,
      "base_risk": 9.39,
      "rain_6h_mm": 0.0,
      "humidity_avg": 81.5,
      "soil_moisture_avg": 0.0,
      "rain_mult": 0.0,
      "soil_mult": 0.95,
      "humidity_mult": 1.041,
      "raw_dynamic_score": 0.0,
      "dynamic_level": "None"
    },
    {
      "id": "129",
      "country": "Brazil",
      "name": "Pôrto Alegre",
      "latitude": -30.0331,
      "longitude": -51.23,
      "base_risk": 9.11,
      "rain_6h_mm": 0.0,
      "humidity_avg": 79.5,
      "soil_moisture_avg": 0.0,
      "rain_mult": 0.0,
      "soil_mult": 0.95,
      "humidity_mult": 1.04,
      "raw_dynamic_score": 0.0,
      "dynamic_level": "None"
    },
    {
      "id": "130",
      "country": "Brazil",
      "name": "Pôrto Velho",
      "latitude": -8.7619,
      "longitude": -63.9039,
      "base_risk": 8.9,
      "rain_6h_mm": 0.4,
      "humidity_avg": 91.3,
      "soil_moisture_avg": 0.0,
      "rain_mult": 0.004,
      "soil_mult": 0.95,
      "humidity_mult": 1.046,
      "raw_dynamic_score": 0.035,
      "dynamic_level": "Low"
    },
    {
      "id": "131",
      "country": "Brazil",
      "name": "Recife",
      "latitude": -8.0539,
      "longitude": -34.8811,
      "base_risk": 9.18,
      "rain_6h_mm": 0.0,
      "humidity_avg": 66.7,
      "soil_moisture_avg": 0.0,
      "rain_mult": 0.0,
      "soil_mult": 0.95,
      "humidity_mult": 1.033,
      "raw_dynamic_score": 0.0,
      "dynamic_level": "None"
    },
    {
      "id": "135",
      "country": "Brazil",
      "name": "Salvador",
      "latitude": -12.9711,
      "longitude": -38.5108,
      "base_risk": 9.07,
      "rain_6h_mm": 0.0,
      "humidity_avg": 76.7,
      "soil_moisture_avg": 0.0,
      "rain_mult": 0.0,
      "soil_mult": 0.95,
      "humidity_mult": 1.038,
      "raw_dynamic_score": 0.0,
      "dynamic_level": "None"
    },
    {
      "id": "136",
      "country": "Brazil",
      "name": "São José do Rio Preto",
      "latitude": -20.8197,
      "longitude": -49.3794,
      "base_risk": 9.32,
      "rain_6h_mm": 1.0,
      "humidity_avg": 75.8,
      "soil_moisture_avg": 0.0,
      "rain_mult": 0.01,
      "soil_mult": 0.95,
      "humidity_mult": 1.038,
      "raw_dynamic_score": 0.092,
      "dynamic_level": "Low"
    },
    {
      "id": "138",
      "country": "Brazil",
      "name": "São Paulo",
      "latitude": -23.5475,
      "longitude": -46.6361,
      "base_risk": 9.5,
      "rain_6h_mm": 0.8,
      "humidity_avg": 82.7,
      "soil_moisture_avg": 0.0,
      "rain_mult": 0.008,
      "soil_mult": 0.95,
      "humidity_mult": 1.041,
      "raw_dynamic_score": 0.075,
      "dynamic_level": "Low"
    },
    {
      "id": "141",
      "country": "Brazil",
      "name": "Teresina",
      "latitude": -5.0892,
      "longitude": -42.8019,
      "base_risk": 9.39,
      "rain_6h_mm": 0.0,
      "humidity_avg": 62.2,
      "soil_moisture_avg": 0.0,
      "rain_mult": 0.0,
      "soil_mult": 0.95,
      "humidity_mult": 1.031,
      "raw_dynamic_score": 0.0,
      "dynamic_level": "None"
    },
    {
      "id": "142",
      "country": "Brazil",
      "name": "Uberaba",
      "latitude": -19.7483,
      "longitude": -47.9319,
      "base_risk": 9.32,
      "rain_6h_mm": 0.4,
      "humidity_avg": 71.0,
      "soil_moisture_avg": 0.0,
      "rain_mult": 0.004,
      "soil_mult": 0.95,
      "humidity_mult": 1.036,
      "raw_dynamic_score": 0.037,
      "dynamic_level": "Low"
    },
    {
      "id": "146",
      "country": "Brazil",
      "name": "Volta Redonda",
      "latitude": -22.5231,
      "longitude": -44.1042,
      "base_risk": 9.41,
      "rain_6h_mm": 0.2,
      "humidity_avg": 82.2,
      "soil_moisture_avg": 0.0,
      "rain_mult": 0.002,
      "soil_mult": 0.95,
      "humidity_mult": 1.041,
      "raw_dynamic_score": 0.019,
      "dynamic_level": "Low"
    },
    {
      "id": "148",
      "country": "Bulgaria",
      "name": "Sofia",
      "latitude": 42.6975,
      "longitude": 23.3242,
      "base_risk": 9.33,
      "rain_6h_mm": 2.9,
      "humidity_avg": 79.8,
      "soil_moisture_avg": 0.0,
      "rain_mult": 0.029,
      "soil_mult": 0.95,
      "humidity_mult": 1.04,
      "raw_dynamic_score": 0.267,
      "dynamic_level": "Low"
    },
    {
      "id": "150",
      "country": "Burkina Faso",
      "name": "Bobo-Dioulasso",
      "latitude": 11.1772,
      "longitude": -4.2979,
      "base_risk": 9.23,
      "rain_6h_mm": 0.0,
      "humidity_avg": 46.5,
      "soil_moisture_avg": 0.0,
      "rain_mult": 0.0,
      "soil_mult": 0.95,
      "humidity_mult": 1.023,
      "raw_dynamic_score": 0.0,
      "dynamic_level": "None"
    },
    {
      "id": "152",
      "country": "Burundi",
      "name": "Bujumbura",
      "latitude": -3.3822,
      "longitude": 29.3644,
      "base_risk": 9.39,
      "rain_6h_mm": 0.0,
      "humidity_avg": 46.2,
      "soil_moisture_avg": 0.0,
      "rain_mult": 0.0,
      "soil_mult": 0.95,
      "humidity_mult": 1.023,
      "raw_dynamic_score": 0.0,
      "dynamic_level": "None"
    },
    {
      "id": "154",
      "country": "Cameroon",
      "name": "Bafoussam",
      "latitude": 5.4737,
      "longitude": 10.4179,
      "base_risk": 9.5,
      "rain_6h_mm": 0.2,
      "humidity_avg": 64.0,
      "soil_moisture_avg": 0.0,
      "rain_mult": 0.002,
      "soil_mult": 0.95,
      "humidity_mult": 1.032,
      "raw_dynamic_score": 0.019,
      "dynamic_level": "Low"
    },
    {
      "id": "156",
      "country": "Cameroon",
      "name": "Douala",
      "latitude": 4.0483,
      "longitude": 9.7043,
      "base_risk": 9.5,
      "rain_6h_mm": 0.2,
      "humidity_avg": 76.5,
      "soil_moisture_avg": 0.0,
      "rain_mult": 0.002,
      "soil_mult": 0.95,
      "humidity_mult": 1.038,
      "raw_dynamic_score": 0.019,
      "dynamic_level": "Low"
    },
    {
      "id": "157",
      "country": "Cameroon",
      "name": "Garoua",
      "latitude": 9.3,
      "longitude": 13.4,
      "base_risk": 9.09,
      "rain_6h_mm": 0.0,
      "humidity_avg": 50.2,
      "soil_moisture_avg": 0.0,
      "rain_mult": 0.0,
      "soil_mult": 0.95,
      "humidity_mult": 1.025,
      "raw_dynamic_score": 0.0,
      "dynamic_level": "None"
    },
    {
      "id": "160",
      "country": "Cameroon",
      "name": "Yaoundé",
      "latitude": 3.8667,
      "longitude": 11.5167,
      "base_risk": 9.5,
      "rain_6h_mm": 0.6,
      "humidity_avg": 70.2,
      "soil_moisture_avg": 0.0,
      "rain_mult": 0.006,
      "soil_mult": 0.95,
      "humidity_mult": 1.035,
      "raw_dynamic_score": 0.056,
      "dynamic_level": "Low"
    },
    {
      "id": "161",
      "country": "Canada",
      "name": "Calgary",
      "latitude": 51.0441,
      "longitude": -114.0593,
      "base_risk": 9.29,
      "rain_6h_mm": 0.0,
      "humidity_avg": 49.8,
      "soil_moisture_avg": 0.0,
      "rain_mult": 0.0,
      "soil_mult": 0.95,
      "humidity_mult": 1.025,
      "raw_dynamic_score": 0.0,
      "dynamic_level": "None"
    },
    {
      "id": "164",
      "country": "Canada",
      "name": "Hamilton",
      "latitude": 43.2495,
      "longitude": -79.8475,
      "base_risk": 9.21,
      "rain_6h_mm": 0.0,
      "humidity_avg": 58.8,
      "soil_moisture_avg": 0.0,
      "rain_mult": 0.0,
      "soil_mult": 0.95,
      "humidity_mult": 1.029,
      "raw_dynamic_score": 0.0,
      "dynamic_level": "None"
    },
    {
      "id": "166",
      "country": "Canada",
      "name": "London",
      "latitude": 42.9834,
      "longitude": -81.233,
      "base_risk": 9.01,
      "rain_6h_mm": 0.0,
      "humidity_avg": 56.0,
      "soil_moisture_avg": 0.0,
      "rain_mult": 0.0,
      "soil_mult": 0.95,
      "humidity_mult": 1.028,
      "raw_dynamic_score": 0.0,
      "dynamic_level": "None"
    },
    {
      "id": "168",
      "country": "Canada",
      "name": "Oshawa",
      "latitude": 43.9001,
      "longitude": -78.8496,
      "base_risk": 9.17,
      "rain_6h_mm": 0.0,
      "humidity_avg": 79.5,
      "soil_moisture_avg": 0.0,
      "rain_mult": 0.0,
      "soil_mult": 0.95,
      "humidity_mult": 1.04,
      "raw_dynamic_score": 0.0,
      "dynamic_level": "None"
    },
    {
      "id": "170",
      "country": "Canada",
      "name": "Québec",
      "latitude": 46.8123,
      "longitude": -71.2145,
      "base_risk": 8.95,
      "rain_6h_mm": 0.0,
      "humidity_avg": 82.8,
      "soil_moisture_avg": 0.0,
      "rain_mult": 0.0,
      "soil_mult": 0.95,
      "humidity_mult": 1.041,
      "raw_dynamic_score": 0.0,
      "dynamic_level": "None"
    },
    {
      "id": "172",
      "country": "Canada",
      "name": "St. Catharines-Niagara",
      "latitude": 43.1668,
      "longitude": -79.2496,
      "base_risk": 9.27,
      "rain_6h_mm": 0.0,
      "humidity_avg": 71.7,
      "soil_moisture_avg": 0.0,
      "rain_mult": 0.0,
      "soil_mult": 0.95,
      "humidity_mult": 1.036,
      "raw_dynamic_score": 0.0,
      "dynamic_level": "None"
    },
    {
      "id": "174",
      "country": "Canada",
      "name": "Vancouver",
      "latitude": 49.2497,
      "longitude": -123.1193,
      "base_risk": 9.1,
      "rain_6h_mm": 0.0,
      "humidity_avg": 68.7,
      "soil_moisture_avg": 0.0,
      "rain_mult": 0.0,
      "soil_mult": 0.95,
      "humidity_mult": 1.034,
      "raw_dynamic_score": 0.0,
      "dynamic_level": "None"
    },
    {
      "id": "176",
      "country": "Canada",
      "name": "Windsor",
      "latitude": 42.2811,
      "longitude": -83.0079,
      "base_risk": 9.01,
      "rain_6h_mm": 0.0,
      "humidity_avg": 63.5,
      "soil_moisture_avg": 0.0,
      "rain_mult": 0.0,
      "soil_mult": 0.95,
      "humidity_mult": 1.032,
      "raw_dynamic_score": 0.0,
      "dynamic_level": "None"
    },
    {
      "id": "178",
      "country": "Central African Republic",
      "name": "Bangui",
      "latitude": 4.3612,
      "longitude": 18.555,
      "base_risk": 9.42,
      "rain_6h_mm": 2.1,
      "humidity_avg": 71.2,
      "soil_moisture_avg": 0.0,
      "rain_mult": 0.021,
      "soil_mult": 0.95,
      "humidity_mult": 1.036,
      "raw_dynamic_score": 0.195,
      "dynamic_level": "Low"
    },
    {
      "id": "180",
      "country": "Chile",
      "name": "Antofagasta",
      "latitude": -23.65,
      "longitude": -70.4,
      "base_risk": 9.14,
      "rain_6h_mm": 0.0,
      "humidity_avg": 70.8,
      "soil_moisture_avg": 0.0,
      "rain_mult": 0.0,
      "soil_mult": 0.95,
      "humidity_mult": 1.035,
      "raw_dynamic_score": 0.0,
      "dynamic_level": "None"
    },
    {
      "id": "182",
      "country": "Chile",
      "name": "La Serena-Coquimbo",
      "latitude": -29.9045,
      "longitude": -71.2489,
      "base_risk": 8.62,
      "rain_6h_mm": 0.0,
      "humidity_avg": 79.3,
      "soil_moisture_avg": 0.0,
      "rain_mult": 0.0,
      "soil_mult": 0.95,
      "humidity_mult": 1.04,
      "raw_dynamic_score": 0.0,
      "dynamic_level": "None"
    },
    {
      "id": "184",
      "country": "Chile",
      "name": "Temuco",
      "latitude": -38.7333,
      "longitude": -72.6,
      "base_risk": 9.22,
      "rain_6h_mm": 1.2,
      "humidity_avg": 94.2,
      "soil_moisture_avg": 0.0,
      "rain_mult": 0.012,
      "soil_mult": 0.95,
      "humidity_mult": 1.047,
      "raw_dynamic_score": 0.11,
      "dynamic_level": "Low"
    },
    {
      "id": "186",
      "country": "China",
      "name": "Akesu",
      "latitude": 41.1695,
      "longitude": 80.2626,
      "base_risk": 8.89,
      "rain_6h_mm": 0.0,
      "humidity_avg": 38.2,
      "soil_moisture_avg": 0.0,
      "rain_mult": 0.0,
      "soil_mult": 0.95,
      "humidity_mult": 1.019,
      "raw_dynamic_score": 0.0,
      "dynamic_level": "None"
    },
    {
      "id": "188",
      "country": "China",
      "name": "Anlu",
      "latitude": 31.2575,
      "longitude": 113.6783,
      "base_risk": 9.31,
      "rain_6h_mm": 0.0,
      "humidity_avg": 70.3,
      "soil_moisture_avg": 0.0,
      "rain_mult": 0.0,
      "soil_mult": 0.95,
      "humidity_mult": 1.035,
      "raw_dynamic_score": 0.0,
      "dynamic_level": "None"
    },
    {
      "id": "190",
      "country": "China",
      "name": "Anqing",
      "latitude": 30.543,
      "longitude": 117.0533,
      "base_risk": 8.83,
      "rain_6h_mm": 0.0,
      "humidity_avg": 76.5,
      "soil_moisture_avg": 0.0,
      "rain_mult": 0.0,
      "soil_mult": 0.95,
      "humidity_mult": 1.038,
      "raw_dynamic_score": 0.0,
      "dynamic_level": "None"
    },
    {
      "id": "192",
      "country": "China",
      "name": "Anshan",
      "latitude": 41.1236,
      "longitude": 122.99,
      "base_risk": 9.29,
      "rain_6h_mm": 0.0,
      "humidity_avg": 69.2,
      "soil_moisture_avg": 0.0,
      "rain_mult": 0.0,
      "soil_mult": 0.95,
      "humidity_mult": 1.035,
      "raw_dynamic_score": 0.0,
      "dynamic_level": "None"
    },
    {
      "id": "194",
      "country": "China",
      "name": "Anyang",
      "latitude": 36.0944,
      "longitude": 114.3503,
      "base_risk": 9.44,
      "rain_6h_mm": 0.0,
      "humidity_avg": 77.8,
      "soil_moisture_avg": 0.0,
      "rain_mult": 0.0,
      "soil_mult": 0.95,
      "humidity_mult": 1.039,
      "raw_dynamic_score": 0.0,
      "dynamic_level": "None"
    },
    {
      "id": "196",
      "country": "China",
      "name": "Baishan",
      "latitude": 41.9373,
      "longitude": 126.4229,
      "base_risk": 9.41,
      "rain_6h_mm": 0.0,
      "humidity_avg": 90.0,
      "soil_moisture_avg": 0.0,
      "rain_mult": 0.0,
      "soil_mult": 0.95,
      "humidity_mult": 1.045,
      "raw_dynamic_score": 0.0,
      "dynamic_level": "None"
    },
    {
      "id": "198",
      "country": "China",
      "name": "Baoding",
      "latitude": 38.8511,
      "longitude": 115.4903,
      "base_risk": 9.47,
      "rain_6h_mm": 0.0,
      "humidity_avg": 65.8,
      "soil_moisture_avg": 0.0,
      "rain_mult": 0.0,
      "soil_mult": 0.95,
      "humidity_mult": 1.033,
      "raw_dynamic_score": 0.0,
      "dynamic_level": "None"
    },
    {
      "id": "200",
      "country": "China",
      "name": "Baotou",
      "latitude": 40.6522,
      "longitude": 109.8222,
      "base_risk": 9.06,
      "rain_6h_mm": 0.0,
      "humidity_avg": 70.2,
      "soil_moisture_avg": 0.0,
      "rain_mult": 0.0,
      "soil_mult": 0.95,
      "humidity_mult": 1.035,
      "raw_dynamic_score": 0.0,
      "dynamic_level": "None"
    },
    {
      "id": "202",
      "country": "China",
      "name": "Bazhong",
      "latitude": 31.8662,
      "longitude": 106.7325,
      "base_risk": 8.74,
      "rain_6h_mm": 0.0,
      "humidity_avg": 87.2,
      "soil_moisture_avg": 0.0,
      "rain_mult": 0.0,
      "soil_mult": 0.95,
      "humidity_mult": 1.044,
      "raw_dynamic_score": 0.0,
      "dynamic_level": "None"
    },
    {
      "id": "204",
      "country": "China",
      "name": "Beijing",
      "latitude": 39.9075,
      "longitude": 116.3972,
      "base_risk": 8.96,
      "rain_6h_mm": 0.0,
      "humidity_avg": 53.7,
      "soil_moisture_avg": 0.0,
      "rain_mult": 0.0,
      "soil_mult": 0.95,
      "humidity_mult": 1.027,
      "raw_dynamic_score": 0.0,
      "dynamic_level": "None"
    },
    {
      "id": "206",
      "country": "China",
      "name": "Benxi",
      "latitude": 41.2886,
      "longitude": 123.765,
      "base_risk": 8.95,
      "rain_6h_mm": 0.0,
      "humidity_avg": 76.5,
      "soil_moisture_avg": 0.0,
      "rain_mult": 0.0,
      "soil_mult": 0.95,
      "humidity_mult": 1.038,
      "raw_dynamic_score": 0.0,
      "dynamic_level": "None"
    },
    {
      "id": "208",
      "country": "China",
      "name": "Binzhou",
      "latitude": 37.3811,
      "longitude": 118.0109,
      "base_risk": 8.83,
      "rain_6h_mm": 0.0,
      "humidity_avg": 56.5,
      "soil_moisture_avg": 0.0,
      "rain_mult": 0.0,
      "soil_mult": 0.95,
      "humidity_mult": 1.028,
      "raw_dynamic_score": 0.0,
      "dynamic_level": "None"
    },
    {
      "id": "210",
      "country": "China",
      "name": "Bozhou",
      "latitude": 33.8703,
      "longitude": 115.777,
      "base_risk": 9.31,
      "rain_6h_mm": 0.0,
      "humidity_avg": 57.8,
      "soil_moisture_avg": 0.0,
      "rain_mult": 0.0,
      "soil_mult": 0.95,
      "humidity_mult": 1.029,
      "raw_dynamic_score": 0.0,
      "dynamic_level": "None"
    },
    {
      "id": "212",
      "country": "China",
      "name": "Cenxi",
      "latitude": 22.9191,
      "longitude": 110.9945,
      "base_risk": 8.86,
      "rain_6h_mm": 0.0,
      "humidity_avg": 92.0,
      "soil_moisture_avg": 0.0,
      "rain_mult": 0.0,
      "soil_mult": 0.95,
      "humidity_mult": 1.046,
      "raw_dynamic_score": 0.0,
      "dynamic_level": "None"
    },
    {
      "id": "214",
      "country": "China",
      "name": "Changde",
      "latitude": 29.0464,
      "longitude": 111.6783,
      "base_risk": 9.11,
      "rain_6h_mm": 0.0,
      "humidity_avg": 83.7,
      "soil_moisture_avg": 0.0,
      "rain_mult": 0.0,
      "soil_mult": 0.95,
      "humidity_mult": 1.042,
      "raw_dynamic_score": 0.0,
      "dynamic_level": "None"
    },
    {
      "id": "216",
      "country": "China",
      "name": "Changji",
      "latitude": 44.0117,
      "longitude": 87.3038,
      "base_risk": 9.32,
      "rain_6h_mm": 0.0,
      "humidity_avg": 61.3,
      "soil_moisture_avg": 0.0,
      "rain_mult": 0.0,
      "soil_mult": 0.95,
      "humidity_mult": 1.031,
      "raw_dynamic_score": 0.0,
      "dynamic_level": "None"
    },
    {
      "id": "218",
      "country": "China",
      "name": "Changsha",
      "latitude": 28.2274,
      "longitude": 112.9383,
      "base_risk": 9.47,
      "rain_6h_mm": 0.0,
      "humidity_avg": 82.0,
      "soil_moisture_avg": 0.0,
      "rain_mult": 0.0,
      "soil_mult": 0.95,
      "humidity_mult": 1.041,
      "raw_dynamic_score": 0.0,
      "dynamic_level": "None"
    },
    {
      "id": "220",
      "country": "China",
      "name": "Changyi",
      "latitude": 36.8546,
      "longitude": 119.3913,
      "base_risk": 9.19,
      "rain_6h_mm": 0.0,
      "humidity_avg": 69.0,
      "soil_moisture_avg": 0.0,
      "rain_mult": 0.0,
      "soil_mult": 0.95,
      "humidity_mult": 1.034,
      "raw_dynamic_score": 0.0,
      "dynamic_level": "None"
    },
    {
      "id": "222",
      "country": "China",
      "name": "Changzhou, Jiangsu",
      "latitude": 31.7943,
      "longitude": 119.9589,
      "base_risk": 9.4,
      "rain_6h_mm": 0.0,
      "humidity_avg": 78.8,
      "soil_moisture_avg": 0.0,
      "rain_mult": 0.0,
      "soil_mult": 0.95,
      "humidity_mult": 1.039,
      "raw_dynamic_score": 0.0,
      "dynamic_level": "None"
    },
    {
      "id": "224",
      "country": "China",
      "name": "Chaoyang",
      "latitude": 41.5773,
      "longitude": 120.4511,
      "base_risk": 9.05,
      "rain_6h_mm": 0.0,
      "humidity_avg": 40.8,
      "soil_moisture_avg": 0.0,
      "rain_mult": 0.0,
      "soil_mult": 0.95,
      "humidity_mult": 1.02,
      "raw_dynamic_score": 0.0,
      "dynamic_level": "None"
    },
    {
      "id": "226",
      "country": "China",
      "name": "Chengde",
      "latitude": 40.9672,
      "longitude": 117.9322,
      "base_risk": 9.08,
      "rain_6h_mm": 0.0,
      "humidity_avg": 69.7,
      "soil_moisture_avg": 0.0,
      "rain_mult": 0.0,
      "soil_mult": 0.95,
      "humidity_mult": 1.035,
      "raw_dynamic_score": 0.0,
      "dynamic_level": "None"
    },
    {
      "id": "228",
      "country": "China",
      "name": "Chenzhou",
      "latitude": 25.8,
      "longitude": 113.0333,
      "base_risk": 9.28,
      "rain_6h_mm": 0.0,
      "humidity_avg": 95.2,
      "soil_moisture_avg": 0.0,
      "rain_mult": 0.0,
      "soil_mult": 0.95,
      "humidity_mult": 1.048,
      "raw_dynamic_score": 0.0,
      "dynamic_level": "None"
    },
    {
      "id": "230",
      "country": "China",
      "name": "Chizhou",
      "latitude": 30.6578,
      "longitude": 117.4831,
      "base_risk": 9.07,
      "rain_6h_mm": 0.0,
      "humidity_avg": 81.2,
      "soil_moisture_avg": 0.0,
      "rain_mult": 0.0,
      "soil_mult": 0.95,
      "humidity_mult": 1.041,
      "raw_dynamic_score": 0.0,
      "dynamic_level": "None"
    },
    {
      "id": "232",
      "country": "China",
      "name": "Chuxiong",
      "latitude": 25.0445,
      "longitude": 101.541,
      "base_risk": 9.25,
      "rain_6h_mm": 0.0,
      "humidity_avg": 91.8,
      "soil_moisture_avg": 0.0,
      "rain_mult": 0.0,
      "soil_mult": 0.95,
      "humidity_mult": 1.046,
      "raw_dynamic_score": 0.0,
      "dynamic_level": "None"
    },
    {
      "id": "234",
      "country": "China",
      "name": "Cixi",
      "latitude": 30.1761,
      "longitude": 121.2524,
      "base_risk": 9.31,
      "rain_6h_mm": 0.2,
      "humidity_avg": 88.8,
      "soil_moisture_avg": 0.0,
      "rain_mult": 0.002,
      "soil_mult": 0.95,
      "humidity_mult": 1.044,
      "raw_dynamic_score": 0.018,
      "dynamic_level": "Low"
    },
    {
      "id": "236",
      "country": "China",
      "name": "Dalian",
      "latitude": 38.9138,
      "longitude": 121.6023,
      "base_risk": 9.38,
      "rain_6h_mm": 0.0,
      "humidity_avg": 76.0,
      "soil_moisture_avg": 0.0,
      "rain_mult": 0.0,
      "soil_mult": 0.95,
      "humidity_mult": 1.038,
      "raw_dynamic_score": 0.0,
      "dynamic_level": "None"
    },
    {
      "id": "238",
      "country": "China",
      "name": "Danyang",
      "latitude": 32.0008,
      "longitude": 119.5745,
      "base_risk": 9.3,
      "rain_6h_mm": 0.0,
      "humidity_avg": 78.5,
      "soil_moisture_avg": 0.0,
      "rain_mult": 0.0,
      "soil_mult": 0.95,
      "humidity_mult": 1.039,
      "raw_dynamic_score": 0.0,
      "dynamic_level": "None"
    },
    {
      "id": "240",
      "country": "China",
      "name": "Daqing",
      "latitude": 46.5833,
      "longitude": 125.0,
      "base_risk": 9.32,
      "rain_6h_mm": 0.0,
      "humidity_avg": 42.0,
      "soil_moisture_avg": 0.0,
      "rain_mult": 0.0,
      "soil_mult": 0.95,
      "humidity_mult": 1.021,
      "raw_dynamic_score": 0.0,
      "dynamic_level": "None"
    },
    {
      "id": "242",
      "country": "China",
      "name": "Datong",
      "latitude": 40.0805,
      "longitude": 113.293,
      "base_risk": 8.64,
      "rain_6h_mm": 0.0,
      "humidity_avg": 57.2,
      "soil_moisture_avg": 0.0,
      "rain_mult": 0.0,
      "soil_mult": 0.95,
      "humidity_mult": 1.029,
      "raw_dynamic_score": 0.0,
      "dynamic_level": "None"
    },
    {
      "id": "244",
      "country": "China",
      "name": "Dazhou",
      "latitude": 31.2159,
      "longitude": 107.5009,
      "base_risk": 8.61,
      "rain_6h_mm": 0.0,
      "humidity_avg": 89.3,
      "soil_moisture_avg": 0.0,
      "rain_mult": 0.0,
      "soil_mult": 0.95,
      "humidity_mult": 1.045,
      "raw_dynamic_score": 0.0,
      "dynamic_level": "None"
    },
    {
      "id": "246",
      "country": "China",
      "name": "Dengzhou",
      "latitude": 32.6822,
      "longitude": 112.0819,
      "base_risk": 8.84,
      "rain_6h_mm": 0.0,
      "humidity_avg": 75.5,
      "soil_moisture_avg": 0.0,
      "rain_mult": 0.0,
      "soil_mult": 0.95,
      "humidity_mult": 1.038,
      "raw_dynamic_score": 0.0,
      "dynamic_level": "None"
    },
    {
      "id": "248",
      "country": "China",
      "name": "Dezhou",
      "latitude": 37.4518,
      "longitude": 116.301,
      "base_risk": 9.16,
      "rain_6h_mm": 0.0,
      "humidity_avg": 66.8,
      "soil_moisture_avg": 0.0,
      "rain_mult": 0.0,
      "soil_mult": 0.95,
      "humidity_mult": 1.033,
      "raw_dynamic_score": 0.0,
      "dynamic_level": "None"
    },
    {
      "id": "250",
      "country": "China",
      "name": "Donggang",
      "latitude": 39.8834,
      "longitude": 124.1462,
      "base_risk": 9.16,
      "rain_6h_mm": 0.0,
      "humidity_avg": 81.8,
      "soil_moisture_avg": 0.0,
      "rain_mult": 0.0,
      "soil_mult": 0.95,
      "humidity_mult": 1.041,
      "raw_dynamic_score": 0.0,
      "dynamic_level": "None"
    },
    {
      "id": "252",
      "country": "China",
      "name": "Dongtai",
      "latitude": 32.8523,
      "longitude": 120.3095,
      "base_risk": 9.27,
      "rain_6h_mm": 0.0,
      "humidity_avg": 86.7,
      "soil_moisture_avg": 0.0,
      "rain_mult": 0.0,
      "soil_mult": 0.95,
      "humidity_mult": 1.043,
      "raw_dynamic_score": 0.0,
      "dynamic_level": "None"
    },
    {
      "id": "254",
      "country": "China",
      "name": "Dongying",
      "latitude": 37.4533,
      "longitude": 118.5785,
      "base_risk": 8.79,
      "rain_6h_mm": 0.0,
      "humidity_avg": 70.7,
      "soil_moisture_avg": 0.0,
      "rain_mult": 0.0,
      "soil_mult": 0.95,
      "humidity_mult": 1.035,
      "raw_dynamic_score": 0.0,
      "dynamic_level": "None"
    },
    {
      "id": "256",
      "country": "China",
      "name": "Emeishan",
      "latitude": 29.6007,
      "longitude": 103.4856,
      "base_risk": 9.4,
      "rain_6h_mm": 0.8,
      "humidity_avg": 90.2,
      "soil_moisture_avg": 0.0,
      "rain_mult": 0.008,
      "soil_mult": 0.95,
      "humidity_mult": 1.045,
      "raw_dynamic_score": 0.075,
      "dynamic_level": "Low"
    },
    {
      "id": "258",
      "country": "China",
      "name": "Enshi",
      "latitude": 30.2902,
      "longitude": 109.4785,
      "base_risk": 9.13,
      "rain_6h_mm": 0.0,
      "humidity_avg": 77.8,
      "soil_moisture_avg": 0.0,
      "rain_mult": 0.0,
      "soil_mult": 0.95,
      "humidity_mult": 1.039,
      "raw_dynamic_score": 0.0,
      "dynamic_level": "None"
    },
    {
      "id": "260",
      "country": "China",
      "name": "Ezhou",
      "latitude": 30.4001,
      "longitude": 114.8846,
      "base_risk": 8.94,
      "rain_6h_mm": 0.0,
      "humidity_avg": 63.3,
      "soil_moisture_avg": 0.0,
      "rain_mult": 0.0,
      "soil_mult": 0.95,
      "humidity_mult": 1.032,
      "raw_dynamic_score": 0.0,
      "dynamic_level": "None"
    },
    {
      "id": "262",
      "country": "China",
      "name": "Feicheng",
      "latitude": 36.1854,
      "longitude": 116.7674,
      "base_risk": 9.36,
      "rain_6h_mm": 0.0,
      "humidity_avg": 60.5,
      "soil_moisture_avg": 0.0,
      "rain_mult": 0.0,
      "soil_mult": 0.95,
      "humidity_mult": 1.03,
      "raw_dynamic_score": 0.0,
      "dynamic_level": "None"
    },
    {
      "id": "264",
      "country": "China",
      "name": "Foshan",
      "latitude": 23.0228,
      "longitude": 113.12,
      "base_risk": 9.09,
      "rain_6h_mm": 0.3,
      "humidity_avg": 89.0,
      "soil_moisture_avg": 0.0,
      "rain_mult": 0.003,
      "soil_mult": 0.95,
      "humidity_mult": 1.044,
      "raw_dynamic_score": 0.027,
      "dynamic_level": "Low"
    },
    {
      "id": "266",
      "country": "China",
      "name": "Fujin",
      "latitude": 47.2485,
      "longitude": 132.0373,
      "base_risk": 9.43,
      "rain_6h_mm": 0.0,
      "humidity_avg": 60.8,
      "soil_moisture_avg": 0.0,
      "rain_mult": 0.0,
      "soil_mult": 0.95,
      "humidity_mult": 1.03,
      "raw_dynamic_score": 0.0,
      "dynamic_level": "None"
    },
    {
      "id": "268",
      "country": "China",
      "name": "Fushun, Liaoning",
      "latitude": 41.8807,
      "longitude": 123.9467,
      "base_risk": 9.47,
      "rain_6h_mm": 0.0,
      "humidity_avg": 70.5,
      "soil_moisture_avg": 0.0,
      "rain_mult": 0.0,
      "soil_mult": 0.95,
      "humidity_mult": 1.035,
      "raw_dynamic_score": 0.0,
      "dynamic_level": "None"
    },
    {
      "id": "269",
      "country": "China",
      "name": "Fuxin",
      "latitude": 42.0156,
      "longitude": 121.6589,
      "base_risk": 9.31,
      "rain_6h_mm": 0.0,
      "humidity_avg": 37.5,
      "soil_moisture_avg": 0.0,
      "rain_mult": 0.0,
      "soil_mult": 0.95,
      "humidity_mult": 1.019,
      "raw_dynamic_score": 0.0,
      "dynamic_level": "None"
    },
    {
      "id": "273",
      "country": "China",
      "name": "Ganzhou",
      "latitude": 25.85,
      "longitude": 114.9333,
      "base_risk": 8.63,
      "rain_6h_mm": 0.0,
      "humidity_avg": 88.5,
      "soil_moisture_avg": 0.0,
      "rain_mult": 0.0,
      "soil_mult": 0.95,
      "humidity_mult": 1.044,
      "raw_dynamic_score": 0.0,
      "dynamic_level": "None"
    },
    {
      "id": "274",
      "country": "China",
      "name": "Gaoan",
      "latitude": 28.4271,
      "longitude": 115.3722,
      "base_risk": 9.0,
      "rain_6h_mm": 0.0,
      "humidity_avg": 81.0,
      "soil_moisture_avg": 0.0,
      "rain_mult": 0.0,
      "soil_mult": 0.95,
      "humidity_mult": 1.04,
      "raw_dynamic_score": 0.0,
      "dynamic_level": "None"
    },
    {
      "id": "275",
      "country": "China",
      "name": "Gaomi",
      "latitude": 36.3833,
      "longitude": 119.7528,
      "base_risk": 9.13,
      "rain_6h_mm": 0.0,
      "humidity_avg": 75.8,
      "soil_moisture_avg": 0.0,
      "rain_mult": 0.0,
      "soil_mult": 0.95,
      "humidity_mult": 1.038,
      "raw_dynamic_score": 0.0,
      "dynamic_level": "None"
    },
    {
      "id": "276",
      "country": "China",
      "name": "Gaoping",
      "latitude": 35.7977,
      "longitude": 112.923,
      "base_risk": 9.41,
      "rain_6h_mm": 0.0,
      "humidity_avg": 83.2,
      "soil_moisture_avg": 0.0,
      "rain_mult": 0.0,
      "soil_mult": 0.95,
      "humidity_mult": 1.042,
      "raw_dynamic_score": 0.0,
      "dynamic_level": "None"
    },
    {
      "id": "277",
      "country": "China",
      "name": "Gaoyou",
      "latitude": 32.7791,
      "longitude": 119.447,
      "base_risk": 8.72,
      "rain_6h_mm": 0.0,
      "humidity_avg": 78.0,
      "soil_moisture_avg": 0.0,
      "rain_mult": 0.0,
      "soil_mult": 0.95,
      "humidity_mult": 1.039,
      "raw_dynamic_score": 0.0,
      "dynamic_level": "None"
    },
    {
      "id": "278",
      "country": "China",
      "name": "Gaozhou",
      "latitude": 21.9159,
      "longitude": 110.8499,
      "base_risk": 8.95,
      "rain_6h_mm": 5.3,
      "humidity_avg": 88.3,
      "soil_moisture_avg": 0.0,
      "rain_mult": 0.053,
      "soil_mult": 0.95,
      "humidity_mult": 1.044,
      "raw_dynamic_score": 0.471,
      "dynamic_level": "Low"
    },
    {
      "id": "282",
      "country": "China",
      "name": "Guangyuan",
      "latitude": 32.442,
      "longitude": 105.823,
      "base_risk": 9.36,
      "rain_6h_mm": 0.6,
      "humidity_avg": 88.5,
      "soil_moisture_avg": 0.0,
      "rain_mult": 0.006,
      "soil_mult": 0.95,
      "humidity_mult": 1.044,
      "raw_dynamic_score": 0.056,
      "dynamic_level": "Low"
    },
    {
      "id": "283",
      "country": "China",
      "name": "Guangzhou, Guangdong",
      "latitude": 23.1255,
      "longitude": 113.2574,
      "base_risk": 9.5,
      "rain_6h_mm": 0.4,
      "humidity_avg": 89.8,
      "soil_moisture_avg": 0.0,
      "rain_mult": 0.004,
      "soil_mult": 0.95,
      "humidity_mult": 1.045,
      "raw_dynamic_score": 0.038,
      "dynamic_level": "Low"
    },
    {
      "id": "284",
      "country": "China",
      "name": "Guigang",
      "latitude": 23.0964,
      "longitude": 109.6092,
      "base_risk": 9.29,
      "rain_6h_mm": 0.0,
      "humidity_avg": 87.5,
      "soil_moisture_avg": 0.0,
      "rain_mult": 0.0,
      "soil_mult": 0.95,
      "humidity_mult": 1.044,
      "raw_dynamic_score": 0.0,
      "dynamic_level": "None"
    },
    {
      "id": "285",
      "country": "China",
      "name": "Guilin",
      "latitude": 25.2819,
      "longitude": 110.2864,
      "base_risk": 9.5,
      "rain_6h_mm": 0.0,
      "humidity_avg": 90.3,
      "soil_moisture_avg": 0.0,
      "rain_mult": 0.0,
      "soil_mult": 0.95,
      "humidity_mult": 1.045,
      "raw_dynamic_score": 0.0,
      "dynamic_level": "None"
    },
    {
      "id": "291",
      "country": "China",
      "name": "Hailin",
      "latitude": 44.5769,
      "longitude": 129.3896,
      "base_risk": 8.59,
      "rain_6h_mm": 0.0,
      "humidity_avg": 79.8,
      "soil_moisture_avg": 0.0,
      "rain_mult": 0.0,
      "soil_mult": 0.95,
      "humidity_mult": 1.04,
      "raw_dynamic_score": 0.0,
      "dynamic_level": "None"
    },
    {
      "id": "292",
      "country": "China",
      "name": "Haimen",
      "latitude": 31.8952,
      "longitude": 121.1684,
      "base_risk": 9.39,
      "rain_6h_mm": 0.0,
      "humidity_avg": 86.5,
      "soil_moisture_avg": 0.0,
      "rain_mult": 0.0,
      "soil_mult": 0.95,
      "humidity_mult": 1.043,
      "raw_dynamic_score": 0.0,
      "dynamic_level": "None"
    },
    {
      "id": "293",
      "country": "China",
      "name": "Haining",
      "latitude": 30.5273,
      "longitude": 120.6897,
      "base_risk": 9.13,
      "rain_6h_mm": 0.0,
      "humidity_avg": 85.0,
      "soil_moisture_avg": 0.0,
      "rain_mult": 0.0,
      "soil_mult": 0.95,
      "humidity_mult": 1.042,
      "raw_dynamic_score": 0.0,
      "dynamic_level": "None"
    },
    {
      "id": "294",
      "country": "China",
      "name": "Haiyang",
      "latitude": 36.7823,
      "longitude": 121.1703,
      "base_risk": 8.9,
      "rain_6h_mm": 0.0,
      "humidity_avg": 85.3,
      "soil_moisture_avg": 0.0,
      "rain_mult": 0.0,
      "soil_mult": 0.95,
      "humidity_mult": 1.043,
      "raw_dynamic_score": 0.0,
      "dynamic_level": "None"
    },
    {
      "id": "296",
      "country": "China",
      "name": "Hanchuan",
      "latitude": 30.6516,
      "longitude": 113.8329,
      "base_risk": 9.14,
      "rain_6h_mm": 0.0,
      "humidity_avg": 70.3,
      "soil_moisture_avg": 0.0,
      "rain_mult": 0.0,
      "soil_mult": 0.95,
      "humidity_mult": 1.035,
      "raw_dynamic_score": 0.0,
      "dynamic_level": "None"
    },
    {
      "id": "301",
      "country": "China",
      "name": "Hechi",
      "latitude": 24.6977,
      "longitude": 108.0808,
      "base_risk": 8.68,
      "rain_6h_mm": 0.0,
      "humidity_avg": 91.2,
      "soil_moisture_avg": 0.0,
      "rain_mult": 0.0,
      "soil_mult": 0.95,
      "humidity_mult": 1.046,
      "raw_dynamic_score": 0.0,
      "dynamic_level": "None"
    },
    {
      "id": "302",
      "country": "China",
      "name": "Hefei",
      "latitude": 31.8639,
      "longitude": 117.2808,
      "base_risk": 9.12,
      "rain_6h_mm": 0.0,
      "humidity_avg": 77.8,
      "soil_moisture_avg": 0.0,
      "rain_mult": 0.0,
      "soil_mult": 0.95,
      "humidity_mult": 1.039,
      "raw_dynamic_score": 0.0,
      "dynamic_level": "None"
    },
    {
      "id": "306",
      "country": "China",
      "name": "Hengyang",
      "latitude": 26.8841,
      "longitude": 112.6251,
      "base_risk": 8.99,
      "rain_6h_mm": 0.0,
      "humidity_avg": 88.3,
      "soil_moisture_avg": 0.0,
      "rain_mult": 0.0,
      "soil_mult": 0.95,
      "humidity_mult": 1.044,
      "raw_dynamic_score": 0.0,
      "dynamic_level": "None"
    },
    {
      "id": "307",
      "country": "China",
      "name": "Heshan",
      "latitude": 22.7659,
      "longitude": 112.959,
      "base_risk": 9.5,
      "rain_6h_mm": 0.2,
      "humidity_avg": 89.2,
      "soil_moisture_avg": 0.0,
      "rain_mult": 0.002,
      "soil_mult": 0.95,
      "humidity_mult": 1.045,
      "raw_dynamic_score": 0.019,
      "dynamic_level": "Low"
    },
    {
      "id": "308",
      "country": "China",
      "name": "Heyuan",
      "latitude": 23.7509,
      "longitude": 114.6992,
      "base_risk": 9.5,
      "rain_6h_mm": 0.1,
      "humidity_avg": 87.5,
      "soil_moisture_avg": 0.0,
      "rain_mult": 0.001,
      "soil_mult": 0.95,
      "humidity_mult": 1.044,
      "raw_dynamic_score": 0.009,
      "dynamic_level": "Low"
    },
    {
      "id": "309",
      "country": "China",
      "name": "Heze",
      "latitude": 35.2451,
      "longitude": 115.4598,
      "base_risk": 9.23,
      "rain_6h_mm": 0.0,
      "humidity_avg": 63.8,
      "soil_moisture_avg": 0.0,
      "rain_mult": 0.0,
      "soil_mult": 0.95,
      "humidity_mult": 1.032,
      "raw_dynamic_score": 0.0,
      "dynamic_level": "None"
    },
    {
      "id": "315",
      "country": "China",
      "name": "Huainan",
      "latitude": 32.6264,
      "longitude": 116.9969,
      "base_risk": 9.11,
      "rain_6h_mm": 0.0,
      "humidity_avg": 70.3,
      "soil_moisture_avg": 0.0,
      "rain_mult": 0.0,
      "soil_mult": 0.95,
      "humidity_mult": 1.035,
      "raw_dynamic_score": 0.0,
      "dynamic_level": "None"
    },
    {
      "id": "316",
      "country": "China",
      "name": "Huangshan",
      "latitude": 29.7127,
      "longitude": 118.3225,
      "base_risk": 9.05,
      "rain_6h_mm": 0.0,
      "humidity_avg": 80.5,
      "soil_moisture_avg": 0.0,
      "rain_mult": 0.0,
      "soil_mult": 0.95,
      "humidity_mult": 1.04,
      "raw_dynamic_score": 0.0,
      "dynamic_level": "None"
    },
    {
      "id": "317",
      "country": "China",
      "name": "Huangshi",
      "latitude": 30.2068,
      "longitude": 115.0855,
      "base_risk": 9.45,
      "rain_6h_mm": 0.0,
      "humidity_avg": 64.0,
      "soil_moisture_avg": 0.0,
      "rain_mult": 0.0,
      "soil_mult": 0.95,
      "humidity_mult": 1.032,
      "raw_dynamic_score": 0.0,
      "dynamic_level": "None"
    },
    {
      "id": "318",
      "country": "China",
      "name": "Huazhou",
      "latitude": 21.6572,
      "longitude": 110.6391,
      "base_risk": 8.68,
      "rain_6h_mm": 5.5,
      "humidity_avg": 91.2,
      "soil_moisture_avg": 0.0,
      "rain_mult": 0.055,
      "soil_mult": 0.95,
      "humidity_mult": 1.046,
      "raw_dynamic_score": 0.474,
      "dynamic_level": "Low"
    },
    {
      "id": "323",
      "country": "China",
      "name": "Jiamusi",
      "latitude": 46.7979,
      "longitude": 130.3302,
      "base_risk": 9.05,
      "rain_6h_mm": 0.0,
      "humidity_avg": 59.8,
      "soil_moisture_avg": 0.0,
      "rain_mult": 0.0,
      "soil_mult": 0.95,
      "humidity_mult": 1.03,
      "raw_dynamic_score": 0.0,
      "dynamic_level": "None"
    },
    {
      "id": "324",
      "country": "China",
      "name": "Ji'an, Jiangxi",
      "latitude": 27.1177,
      "longitude": 114.9804,
      "base_risk": 9.24,
      "rain_6h_mm": 0.0,
      "humidity_avg": 89.3,
      "soil_moisture_avg": 0.0,
      "rain_mult": 0.0,
      "soil_mult": 0.95,
      "humidity_mult": 1.045,
      "raw_dynamic_score": 0.0,
      "dynamic_level": "None"
    },
    {
      "id": "325",
      "country": "China",
      "name": "Jiangmen",
      "latitude": 22.5833,
      "longitude": 113.0833,
      "base_risk": 9.07,
      "rain_6h_mm": 0.1,
      "humidity_avg": 89.3,
      "soil_moisture_avg": 0.0,
      "rain_mult": 0.001,
      "soil_mult": 0.95,
      "humidity_mult": 1.045,
      "raw_dynamic_score": 0.009,
      "dynamic_level": "Low"
    },
    {
      "id": "326",
      "country": "China",
      "name": "Jiangyin",
      "latitude": 31.9157,
      "longitude": 120.281,
      "base_risk": 9.09,
      "rain_6h_mm": 0.0,
      "humidity_avg": 76.5,
      "soil_moisture_avg": 0.0,
      "rain_mult": 0.0,
      "soil_mult": 0.95,
      "humidity_mult": 1.038,
      "raw_dynamic_score": 0.0,
      "dynamic_level": "None"
    },
    {
      "id": "327",
      "country": "China",
      "name": "Jianyang",
      "latitude": 30.3921,
      "longitude": 104.5448,
      "base_risk": 9.39,
      "rain_6h_mm": 0.0,
      "humidity_avg": 85.2,
      "soil_moisture_avg": 0.0,
      "rain_mult": 0.0,
      "soil_mult": 0.95,
      "humidity_mult": 1.043,
      "raw_dynamic_score": 0.0,
      "dynamic_level": "None"
    },
    {
      "id": "333",
      "country": "China",
      "name": "Jilin",
      "latitude": 43.8508,
      "longitude": 126.5603,
      "base_risk": 9.16,
      "rain_6h_mm": 0.0,
      "humidity_avg": 77.0,
      "soil_moisture_avg": 0.0,
      "rain_mult": 0.0,
      "soil_mult": 0.95,
      "humidity_mult": 1.038,
      "raw_dynamic_score": 0.0,
      "dynamic_level": "None"
    },
    {
      "id": "334",
      "country": "China",
      "name": "Ji'nan, Shandong",
      "latitude": 36.6767,
      "longitude": 116.9971,
      "base_risk": 9.3,
      "rain_6h_mm": 0.0,
      "humidity_avg": 57.8,
      "soil_moisture_avg": 0.0,
      "rain_mult": 0.0,
      "soil_mult": 0.95,
      "humidity_mult": 1.029,
      "raw_dynamic_score": 0.0,
      "dynamic_level": "None"
    },
    {
      "id": "335",
      "country": "China",
      "name": "Jincheng",
      "latitude": 35.4865,
      "longitude": 112.8515,
      "base_risk": 9.38,
      "rain_6h_mm": 0.0,
      "humidity_avg": 81.5,
      "soil_moisture_avg": 0.0,
      "rain_mult": 0.0,
      "soil_mult": 0.95,
      "humidity_mult": 1.041,
      "raw_dynamic_score": 0.0,
      "dynamic_level": "None"
    },
    {
      "id": "336",
      "country": "China",
      "name": "Jingdezhen",
      "latitude": 29.2947,
      "longitude": 117.2079,
      "base_risk": 9.23,
      "rain_6h_mm": 0.0,
      "humidity_avg": 74.0,
      "soil_moisture_avg": 0.0,
      "rain_mult": 0.0,
      "soil_mult": 0.95,
      "humidity_mult": 1.037,
      "raw_dynamic_score": 0.0,
      "dynamic_level": "None"
    },
    {
      "id": "337",
      "country": "China",
      "name": "Jingjiang",
      "latitude": 32.012,
      "longitude": 120.2627,
      "base_risk": 9.47,
      "rain_6h_mm": 0.0,
      "humidity_avg": 80.7,
      "soil_moisture_avg": 0.0,
      "rain_mult": 0.0,
      "soil_mult": 0.95,
      "humidity_mult": 1.04,
      "raw_dynamic_score": 0.0,
      "dynamic_level": "None"
    },
    {
      "id": "342",
      "country": "China",
      "name": "Jinjiang",
      "latitude": 24.8106,
      "longitude": 118.5773,
      "base_risk": 9.08,
      "rain_6h_mm": 0.5,
      "humidity_avg": 81.3,
      "soil_moisture_avg": 0.0,
      "rain_mult": 0.005,
      "soil_mult": 0.95,
      "humidity_mult": 1.041,
      "raw_dynamic_score": 0.045,
      "dynamic_level": "Low"
    },
    {
      "id": "344",
      "country": "China",
      "name": "Jinzhou",
      "latitude": 41.1078,
      "longitude": 121.1417,
      "base_risk": 9.47,
      "rain_6h_mm": 0.0,
      "humidity_avg": 52.2,
      "soil_moisture_avg": 0.0,
      "rain_mult": 0.0,
      "soil_mult": 0.95,
      "humidity_mult": 1.026,
      "raw_dynamic_score": 0.0,
      "dynamic_level": "None"
    },
    {
      "id": "345",
      "country": "China",
      "name": "Jiujiang",
      "latitude": 29.7041,
      "longitude": 116.0013,
      "base_risk": 8.61,
      "rain_6h_mm": 0.0,
      "humidity_avg": 75.5,
      "soil_moisture_avg": 0.0,
      "rain_mult": 0.0,
      "soil_mult": 0.95,
      "humidity_mult": 1.038,
      "raw_dynamic_score": 0.0,
      "dynamic_level": "None"
    },
    {
      "id": "346",
      "country": "China",
      "name": "Jiuquan",
      "latitude": 39.738,
      "longitude": 98.5042,
      "base_risk": 9.25,
      "rain_6h_mm": 0.0,
      "humidity_avg": 27.5,
      "soil_moisture_avg": 0.0,
      "rain_mult": 0.0,
      "soil_mult": 0.95,
      "humidity_mult": 1.014,
      "raw_dynamic_score": 0.0,
      "dynamic_level": "None"
    },
    {
      "id": "347",
      "country": "China",
      "name": "Jixi, Heilongjiang",
      "latitude": 45.2958,
      "longitude": 130.9701,
      "base_risk": 8.96,
      "rain_6h_mm": 0.0,
      "humidity_avg": 73.7,
      "soil_moisture_avg": 0.0,
      "rain_mult": 0.0,
      "soil_mult": 0.95,
      "humidity_mult": 1.037,
      "raw_dynamic_score": 0.0,
      "dynamic_level": "None"
    },
    {
      "id": "348",
      "country": "China",
      "name": "Jiyuan",
      "latitude": 35.0926,
      "longitude": 112.5833,
      "base_risk": 9.41,
      "rain_6h_mm": 0.0,
      "humidity_avg": 76.8,
      "soil_moisture_avg": 0.0,
      "rain_mult": 0.0,
      "soil_mult": 0.95,
      "humidity_mult": 1.038,
      "raw_dynamic_score": 0.0,
      "dynamic_level": "None"
    },
    {
      "id": "354",
      "country": "China",
      "name": "Kuerle",
      "latitude": 41.7646,
      "longitude": 86.1472,
      "base_risk": 9.37,
      "rain_6h_mm": 0.0,
      "humidity_avg": 35.7,
      "soil_moisture_avg": 0.0,
      "rain_mult": 0.0,
      "soil_mult": 0.95,
      "humidity_mult": 1.018,
      "raw_dynamic_score": 0.0,
      "dynamic_level": "None"
    },
    {
      "id": "355",
      "country": "China",
      "name": "Kunming",
      "latitude": 25.0389,
      "longitude": 102.7183,
      "base_risk": 9.25,
      "rain_6h_mm": 0.0,
      "humidity_avg": 87.8,
      "soil_moisture_avg": 0.0,
      "rain_mult": 0.0,
      "soil_mult": 0.95,
      "humidity_mult": 1.044,
      "raw_dynamic_score": 0.0,
      "dynamic_level": "None"
    },
    {
      "id": "356",
      "country": "China",
      "name": "Kunshan ",
      "latitude": 31.3881,
      "longitude": 120.9629,
      "base_risk": 9.16,
      "rain_6h_mm": 0.0,
      "humidity_avg": 84.0,
      "soil_moisture_avg": 0.0,
      "rain_mult": 0.0,
      "soil_mult": 0.95,
      "humidity_mult": 1.042,
      "raw_dynamic_score": 0.0,
      "dynamic_level": "None"
    },
    {
      "id": "357",
      "country": "China",
      "name": "Laibin",
      "latitude": 23.738,
      "longitude": 109.2268,
      "base_risk": 9.27,
      "rain_6h_mm": 0.0,
      "humidity_avg": 86.7,
      "soil_moisture_avg": 0.0,
      "rain_mult": 0.0,
      "soil_mult": 0.95,
      "humidity_mult": 1.043,
      "raw_dynamic_score": 0.0,
      "dynamic_level": "None"
    },
    {
      "id": "358",
      "country": "China",
      "name": "Laiwu",
      "latitude": 36.2074,
      "longitude": 117.672,
      "base_risk": 9.07,
      "rain_6h_mm": 0.0,
      "humidity_avg": 66.5,
      "soil_moisture_avg": 0.0,
      "rain_mult": 0.0,
      "soil_mult": 0.95,
      "humidity_mult": 1.033,
      "raw_dynamic_score": 0.0,
      "dynamic_level": "None"
    },
    {
      "id": "364",
      "country": "China",
      "name": "Leiyang",
      "latitude": 26.4169,
      "longitude": 112.8503,
      "base_risk": 9.21,
      "rain_6h_mm": 0.0,
      "humidity_avg": 92.8,
      "soil_moisture_avg": 0.0,
      "rain_mult": 0.0,
      "soil_mult": 0.95,
      "humidity_mult": 1.046,
      "raw_dynamic_score": 0.0,
      "dynamic_level": "None"
    },
    {
      "id": "366",
      "country": "China",
      "name": "Leping",
      "latitude": 28.972,
      "longitude": 117.1283,
      "base_risk": 9.5,
      "rain_6h_mm": 0.0,
      "humidity_avg": 81.3,
      "soil_moisture_avg": 0.0,
      "rain_mult": 0.0,
      "soil_mult": 0.95,
      "humidity_mult": 1.041,
      "raw_dynamic_score": 0.0,
      "dynamic_level": "None"
    },
    {
      "id": "368",
      "country": "China",
      "name": "Lianyungang",
      "latitude": 34.5969,
      "longitude": 119.1758,
      "base_risk": 9.49,
      "rain_6h_mm": 0.0,
      "humidity_avg": 79.5,
      "soil_moisture_avg": 0.0,
      "rain_mult": 0.0,
      "soil_mult": 0.95,
      "humidity_mult": 1.04,
      "raw_dynamic_score": 0.0,
      "dynamic_level": "None"
    },
    {
      "id": "370",
      "country": "China",
      "name": "Liaoyang",
      "latitude": 41.2719,
      "longitude": 123.1731,
      "base_risk": 9.08,
      "rain_6h_mm": 0.0,
      "humidity_avg": 78.0,
      "soil_moisture_avg": 0.0,
      "rain_mult": 0.0,
      "soil_mult": 0.95,
      "humidity_mult": 1.039,
      "raw_dynamic_score": 0.0,
      "dynamic_level": "None"
    },
    {
      "id": "372",
      "country": "China",
      "name": "Liling",
      "latitude": 27.6667,
      "longitude": 113.5,
      "base_risk": 9.43,
      "rain_6h_mm": 0.0,
      "humidity_avg": 84.5,
      "soil_moisture_avg": 0.0,
      "rain_mult": 0.0,
      "soil_mult": 0.95,
      "humidity_mult": 1.042,
      "raw_dynamic_score": 0.0,
      "dynamic_level": "None"
    },
    {
      "id": "375",
      "country": "China",
      "name": "Linqing",
      "latitude": 36.8456,
      "longitude": 115.7117,
      "base_risk": 9.39,
      "rain_6h_mm": 0.0,
      "humidity_avg": 67.3,
      "soil_moisture_avg": 0.0,
      "rain_mult": 0.0,
      "soil_mult": 0.95,
      "humidity_mult": 1.034,
      "raw_dynamic_score": 0.0,
      "dynamic_level": "None"
    },
    {
      "id": "376",
      "country": "China",
      "name": "Linyi, Shandong",
      "latitude": 35.0541,
      "longitude": 118.3334,
      "base_risk": 9.35,
      "rain_6h_mm": 0.0,
      "humidity_avg": 66.3,
      "soil_moisture_avg": 0.0,
      "rain_mult": 0.0,
      "soil_mult": 0.95,
      "humidity_mult": 1.033,
      "raw_dynamic_score": 0.0,
      "dynamic_level": "None"
    },
    {
      "id": "377",
      "country": "China",
      "name": "Linzhou",
      "latitude": 36.071,
      "longitude": 113.8156,
      "base_risk": 8.67,
      "rain_6h_mm": 0.0,
      "humidity_avg": 74.7,
      "soil_moisture_avg": 0.0,
      "rain_mult": 0.0,
      "soil_mult": 0.95,
      "humidity_mult": 1.037,
      "raw_dynamic_score": 0.0,
      "dynamic_level": "None"
    },
    {
      "id": "378",
      "country": "China",
      "name": "Lishui, Zhejiang",
      "latitude": 28.457,
      "longitude": 119.9192,
      "base_risk": 9.47,
      "rain_6h_mm": 3.6,
      "humidity_avg": 96.7,
      "soil_moisture_avg": 0.0,
      "rain_mult": 0.036,
      "soil_mult": 0.95,
      "humidity_mult": 1.048,
      "raw_dynamic_score": 0.34,
      "dynamic_level": "Low"
    },
    {
      "id": "379",
      "country": "China",
      "name": "Liuan",
      "latitude": 31.7543,
      "longitude": 116.4981,
      "base_risk": 9.27,
      "rain_6h_mm": 0.0,
      "humidity_avg": 78.7,
      "soil_moisture_avg": 0.0,
      "rain_mult": 0.0,
      "soil_mult": 0.95,
      "humidity_mult": 1.039,
      "raw_dynamic_score": 0.0,
      "dynamic_level": "None"
    },
    {
      "id": "385",
      "country": "China",
      "name": "Longhai",
      "latitude": 24.4462,
      "longitude": 117.809,
      "base_risk": 9.37,
      "rain_6h_mm": 0.2,
      "humidity_avg": 84.3,
      "soil_moisture_avg": 0.0,
      "rain_mult": 0.002,
      "soil_mult": 0.95,
      "humidity_mult": 1.042,
      "raw_dynamic_score": 0.019,
      "dynamic_level": "Low"
    },
    {
      "id": "386",
      "country": "China",
      "name": "Longkou",
      "latitude": 37.6417,
      "longitude": 120.5199,
      "base_risk": 8.69,
      "rain_6h_mm": 0.0,
      "humidity_avg": 71.7,
      "soil_moisture_avg": 0.0,
      "rain_mult": 0.0,
      "soil_mult": 0.95,
      "humidity_mult": 1.036,
      "raw_dynamic_score": 0.0,
      "dynamic_level": "None"
    },
    {
      "id": "387",
      "country": "China",
      "name": "Longyan",
      "latitude": 25.1072,
      "longitude": 117.0225,
      "base_risk": 9.17,
      "rain_6h_mm": 1.5,
      "humidity_avg": 96.8,
      "soil_moisture_avg": 0.0,
      "rain_mult": 0.015,
      "soil_mult": 0.95,
      "humidity_mult": 1.048,
      "raw_dynamic_score": 0.137,
      "dynamic_level": "Low"
    },
    {
      "id": "388",
      "country": "China",
      "name": "Loudi",
      "latitude": 27.7344,
      "longitude": 111.9944,
      "base_risk": 9.5,
      "rain_6h_mm": 0.0,
      "humidity_avg": 86.5,
      "soil_moisture_avg": 0.0,
      "rain_mult": 0.0,
      "soil_mult": 0.95,
      "humidity_mult": 1.043,
      "raw_dynamic_score": 0.0,
      "dynamic_level": "None"
    },
    {
      "id": "393",
      "country": "China",
      "name": "Lvliang",
      "latitude": 37.5195,
      "longitude": 111.1318,
      "base_risk": 9.12,
      "rain_6h_mm": 0.0,
      "humidity_avg": 56.2,
      "soil_moisture_avg": 0.0,
      "rain_mult": 0.0,
      "soil_mult": 0.95,
      "humidity_mult": 1.028,
      "raw_dynamic_score": 0.0,
      "dynamic_level": "None"
    },
    {
      "id": "394",
      "country": "China",
      "name": "Ma'anshan",
      "latitude": 31.7071,
      "longitude": 118.5038,
      "base_risk": 9.18,
      "rain_6h_mm": 0.0,
      "humidity_avg": 72.3,
      "soil_moisture_avg": 0.0,
      "rain_mult": 0.0,
      "soil_mult": 0.95,
      "humidity_mult": 1.036,
      "raw_dynamic_score": 0.0,
      "dynamic_level": "None"
    },
    {
      "id": "395",
      "country": "China",
      "name": "Macheng",
      "latitude": 31.1783,
      "longitude": 115.0319,
      "base_risk": 9.26,
      "rain_6h_mm": 0.0,
      "humidity_avg": 73.7,
      "soil_moisture_avg": 0.0,
      "rain_mult": 0.0,
      "soil_mult": 0.95,
      "humidity_mult": 1.037,
      "raw_dynamic_score": 0.0,
      "dynamic_level": "None"
    },
    {
      "id": "396",
      "country": "China",
      "name": "Manzhouli",
      "latitude": 49.5881,
      "longitude": 117.4545,
      "base_risk": 9.19,
      "rain_6h_mm": 0.0,
      "humidity_avg": 67.2,
      "soil_moisture_avg": 0.0,
      "rain_mult": 0.0,
      "soil_mult": 0.95,
      "humidity_mult": 1.034,
      "raw_dynamic_score": 0.0,
      "dynamic_level": "None"
    },
    {
      "id": "397",
      "country": "China",
      "name": "Maoming",
      "latitude": 21.6627,
      "longitude": 110.9234,
      "base_risk": 8.87,
      "rain_6h_mm": 5.7,
      "humidity_avg": 92.3,
      "soil_moisture_avg": 0.0,
      "rain_mult": 0.057,
      "soil_mult": 0.95,
      "humidity_mult": 1.046,
      "raw_dynamic_score": 0.502,
      "dynamic_level": "Low"
    },
    {
      "id": "401",
      "country": "China",
      "name": "Miluo",
      "latitude": 28.8069,
      "longitude": 113.0721,
      "base_risk": 8.82,
      "rain_6h_mm": 0.0,
      "humidity_avg": 84.7,
      "soil_moisture_avg": 0.0,
      "rain_mult": 0.0,
      "soil_mult": 0.95,
      "humidity_mult": 1.042,
      "raw_dynamic_score": 0.0,
      "dynamic_level": "None"
    },
    {
      "id": "403",
      "country": "China",
      "name": "Nanchang",
      "latitude": 28.6833,
      "longitude": 115.8833,
      "base_risk": 9.47,
      "rain_6h_mm": 0.0,
      "humidity_avg": 78.5,
      "soil_moisture_avg": 0.0,
      "rain_mult": 0.0,
      "soil_mult": 0.95,
      "humidity_mult": 1.039,
      "raw_dynamic_score": 0.0,
      "dynamic_level": "None"
    },
    {
      "id": "407",
      "country": "China",
      "name": "Nanning",
      "latitude": 22.8167,
      "longitude": 108.3167,
      "base_risk": 9.5,
      "rain_6h_mm": 0.0,
      "humidity_avg": 91.5,
      "soil_moisture_avg": 0.0,
      "rain_mult": 0.0,
      "soil_mult": 0.95,
      "humidity_mult": 1.046,
      "raw_dynamic_score": 0.0,
      "dynamic_level": "None"
    },
    {
      "id": "408",
      "country": "China",
      "name": "Nanping",
      "latitude": 26.6433,
      "longitude": 118.1741,
      "base_risk": 9.03,
      "rain_6h_mm": 0.3,
      "humidity_avg": 95.2,
      "soil_moisture_avg": 0.0,
      "rain_mult": 0.003,
      "soil_mult": 0.95,
      "humidity_mult": 1.048,
      "raw_dynamic_score": 0.027,
      "dynamic_level": "Low"
    },
    {
      "id": "409",
      "country": "China",
      "name": "Nantong",
      "latitude": 31.9904,
      "longitude": 120.8655,
      "base_risk": 8.72,
      "rain_6h_mm": 0.0,
      "humidity_avg": 80.0,
      "soil_moisture_avg": 0.0,
      "rain_mult": 0.0,
      "soil_mult": 0.95,
      "humidity_mult": 1.04,
      "raw_dynamic_score": 0.0,
      "dynamic_level": "None"
    },
    {
      "id": "410",
      "country": "China",
      "name": "Nanyang, Henan",
      "latitude": 32.9999,
      "longitude": 112.5259,
      "base_risk": 9.48,
      "rain_6h_mm": 0.0,
      "humidity_avg": 74.5,
      "soil_moisture_avg": 0.0,
      "rain_mult": 0.0,
      "soil_mult": 0.95,
      "humidity_mult": 1.037,
      "raw_dynamic_score": 0.0,
      "dynamic_level": "None"
    },
    {
      "id": "411",
      "country": "China",
      "name": "Neijiang",
      "latitude": 29.5835,
      "longitude": 105.0622,
      "base_risk": 9.49,
      "rain_6h_mm": 0.0,
      "humidity_avg": 85.3,
      "soil_moisture_avg": 0.0,
      "rain_mult": 0.0,
      "soil_mult": 0.95,
      "humidity_mult": 1.043,
      "raw_dynamic_score": 0.0,
      "dynamic_level": "None"
    },
    {
      "id": "412",
      "country": "China",
      "name": "Ningbo",
      "latitude": 29.8782,
      "longitude": 121.5495,
      "base_risk": 8.82,
      "rain_6h_mm": 1.1,
      "humidity_avg": 92.8,
      "soil_moisture_avg": 0.0,
      "rain_mult": 0.011,
      "soil_mult": 0.95,
      "humidity_mult": 1.046,
      "raw_dynamic_score": 0.096,
      "dynamic_level": "Low"
    },
    {
      "id": "416",
      "country": "China",
      "name": "Panzhihua",
      "latitude": 26.5851,
      "longitude": 101.7128,
      "base_risk": 9.15,
      "rain_6h_mm": 0.0,
      "humidity_avg": 84.7,
      "soil_moisture_avg": 0.0,
      "rain_mult": 0.0,
      "soil_mult": 0.95,
      "humidity_mult": 1.042,
      "raw_dynamic_score": 0.0,
      "dynamic_level": "None"
    },
    {
      "id": "417",
      "country": "China",
      "name": "Pingdingshan, Henan",
      "latitude": 33.7417,
      "longitude": 113.304,
      "base_risk": 8.61,
      "rain_6h_mm": 0.0,
      "humidity_avg": 70.0,
      "soil_moisture_avg": 0.0,
      "rain_mult": 0.0,
      "soil_mult": 0.95,
      "humidity_mult": 1.035,
      "raw_dynamic_score": 0.0,
      "dynamic_level": "None"
    },
    {
      "id": "421",
      "country": "China",
      "name": "Pingxiang, Jiangxi",
      "latitude": 27.6348,
      "longitude": 113.8477,
      "base_risk": 9.5,
      "rain_6h_mm": 0.0,
      "humidity_avg": 86.8,
      "soil_moisture_avg": 0.0,
      "rain_mult": 0.0,
      "soil_mult": 0.95,
      "humidity_mult": 1.043,
      "raw_dynamic_score": 0.0,
      "dynamic_level": "None"
    },
    {
      "id": "422",
      "country": "China",
      "name": "Pizhou",
      "latitude": 34.3114,
      "longitude": 117.9503,
      "base_risk": 9.42,
      "rain_6h_mm": 0.0,
      "humidity_avg": 75.7,
      "soil_moisture_avg": 0.0,
      "rain_mult": 0.0,
      "soil_mult": 0.95,
      "humidity_mult": 1.038,
      "raw_dynamic_score": 0.0,
      "dynamic_level": "None"
    },
    {
      "id": "426",
      "country": "China",
      "name": "Qianjiang",
      "latitude": 30.4221,
      "longitude": 112.8925,
      "base_risk": 9.44,
      "rain_6h_mm": 0.0,
      "humidity_avg": 81.5,
      "soil_moisture_avg": 0.0,
      "rain_mult": 0.0,
      "soil_mult": 0.95,
      "humidity_mult": 1.041,
      "raw_dynamic_score": 0.0,
      "dynamic_level": "None"
    },
    {
      "id": "427",
      "country": "China",
      "name": "Qidong",
      "latitude": 31.8134,
      "longitude": 121.6577,
      "base_risk": 9.13,
      "rain_6h_mm": 0.0,
      "humidity_avg": 85.3,
      "soil_moisture_avg": 0.0,
      "rain_mult": 0.0,
      "soil_mult": 0.95,
      "humidity_mult": 1.043,
      "raw_dynamic_score": 0.0,
      "dynamic_level": "None"
    },
    {
      "id": "428",
      "country": "China",
      "name": "Qingdao",
      "latitude": 36.0986,
      "longitude": 120.3719,
      "base_risk": 8.98,
      "rain_6h_mm": 0.0,
      "humidity_avg": 75.3,
      "soil_moisture_avg": 0.0,
      "rain_mult": 0.0,
      "soil_mult": 0.95,
      "humidity_mult": 1.038,
      "raw_dynamic_score": 0.0,
      "dynamic_level": "None"
    },
    {
      "id": "429",
      "country": "China",
      "name": "Qingyuan",
      "latitude": 23.7146,
      "longitude": 113.0297,
      "base_risk": 9.47,
      "rain_6h_mm": 0.0,
      "humidity_avg": 86.3,
      "soil_moisture_avg": 0.0,
      "rain_mult": 0.0,
      "soil_mult": 0.95,
      "humidity_mult": 1.043,
      "raw_dynamic_score": 0.0,
      "dynamic_level": "None"
    },
    {
      "id": "433",
      "country": "China",
      "name": "Qiqihaer",
      "latitude": 47.3408,
      "longitude": 123.9672,
      "base_risk": 9.01,
      "rain_6h_mm": 0.0,
      "humidity_avg": 50.5,
      "soil_moisture_avg": 0.0,
      "rain_mult": 0.0,
      "soil_mult": 0.95,
      "humidity_mult": 1.025,
      "raw_dynamic_score": 0.0,
      "dynamic_level": "None"
    },
    {
      "id": "434",
      "country": "China",
      "name": "Qitaihe",
      "latitude": 45.7671,
      "longitude": 130.975,
      "base_risk": 9.1,
      "rain_6h_mm": 0.0,
      "humidity_avg": 59.2,
      "soil_moisture_avg": 0.0,
      "rain_mult": 0.0,
      "soil_mult": 0.95,
      "humidity_mult": 1.03,
      "raw_dynamic_score": 0.0,
      "dynamic_level": "None"
    },
    {
      "id": "435",
      "country": "China",
      "name": "Quanzhou",
      "latitude": 24.8968,
      "longitude": 118.5997,
      "base_risk": 9.32,
      "rain_6h_mm": 0.6,
      "humidity_avg": 85.7,
      "soil_moisture_avg": 0.0,
      "rain_mult": 0.006,
      "soil_mult": 0.95,
      "humidity_mult": 1.043,
      "raw_dynamic_score": 0.055,
      "dynamic_level": "Low"
    },
    {
      "id": "436",
      "country": "China",
      "name": "Qufu",
      "latitude": 35.5967,
      "longitude": 116.9911,
      "base_risk": 9.04,
      "rain_6h_mm": 0.0,
      "humidity_avg": 68.0,
      "soil_moisture_avg": 0.0,
      "rain_mult": 0.0,
      "soil_mult": 0.95,
      "humidity_mult": 1.034,
      "raw_dynamic_score": 0.0,
      "dynamic_level": "None"
    },
    {
      "id": "441",
      "country": "China",
      "name": "Rongcheng",
      "latitude": 37.154,
      "longitude": 122.4363,
      "base_risk": 9.41,
      "rain_6h_mm": 0.0,
      "humidity_avg": 84.3,
      "soil_moisture_avg": 0.0,
      "rain_mult": 0.0,
      "soil_mult": 0.95,
      "humidity_mult": 1.042,
      "raw_dynamic_score": 0.0,
      "dynamic_level": "None"
    },
    {
      "id": "443",
      "country": "China",
      "name": "Ruian",
      "latitude": 27.7808,
      "longitude": 120.6755,
      "base_risk": 9.08,
      "rain_6h_mm": 1.6,
      "humidity_avg": 87.0,
      "soil_moisture_avg": 0.0,
      "rain_mult": 0.016,
      "soil_mult": 0.95,
      "humidity_mult": 1.044,
      "raw_dynamic_score": 0.144,
      "dynamic_level": "Low"
    },
    {
      "id": "445",
      "country": "China",
      "name": "Sanhe",
      "latitude": 39.9819,
      "longitude": 117.0713,
      "base_risk": 9.26,
      "rain_6h_mm": 0.0,
      "humidity_avg": 77.8,
      "soil_moisture_avg": 0.0,
      "rain_mult": 0.0,
      "soil_mult": 0.95,
      "humidity_mult": 1.039,
      "raw_dynamic_score": 0.0,
      "dynamic_level": "None"
    },
    {
      "id": "447",
      "country": "China",
      "name": "Sanming",
      "latitude": 26.2641,
      "longitude": 117.6191,
      "base_risk": 9.19,
      "rain_6h_mm": 0.1,
      "humidity_avg": 92.5,
      "soil_moisture_avg": 0.0,
      "rain_mult": 0.001,
      "soil_mult": 0.95,
      "humidity_mult": 1.046,
      "raw_dynamic_score": 0.009,
      "dynamic_level": "Low"
    },
    {
      "id": "449",
      "country": "China",
      "name": "Shanghai",
      "latitude": 31.2222,
      "longitude": 121.4581,
      "base_risk": 8.76,
      "rain_6h_mm": 0.0,
      "humidity_avg": 79.3,
      "soil_moisture_avg": 0.0,
      "rain_mult": 0.0,
      "soil_mult": 0.95,
      "humidity_mult": 1.04,
      "raw_dynamic_score": 0.0,
      "dynamic_level": "None"
    },
    {
      "id": "451",
      "country": "China",
      "name": "Shangrao",
      "latitude": 28.4604,
      "longitude": 117.9531,
      "base_risk": 9.2,
      "rain_6h_mm": 0.0,
      "humidity_avg": 85.2,
      "soil_moisture_avg": 0.0,
      "rain_mult": 0.0,
      "soil_mult": 0.95,
      "humidity_mult": 1.043,
      "raw_dynamic_score": 0.0,
      "dynamic_level": "None"
    },
    {
      "id": "453",
      "country": "China",
      "name": "Shantou",
      "latitude": 23.3681,
      "longitude": 116.7148,
      "base_risk": 8.88,
      "rain_6h_mm": 0.8,
      "humidity_avg": 75.8,
      "soil_moisture_avg": 0.0,
      "rain_mult": 0.008,
      "soil_mult": 0.95,
      "humidity_mult": 1.038,
      "raw_dynamic_score": 0.07,
      "dynamic_level": "Low"
    },
    {
      "id": "455",
      "country": "China",
      "name": "Shaoguan",
      "latitude": 24.8,
      "longitude": 113.5833,
      "base_risk": 9.11,
      "rain_6h_mm": 0.5,
      "humidity_avg": 93.8,
      "soil_moisture_avg": 0.0,
      "rain_mult": 0.005,
      "soil_mult": 0.95,
      "humidity_mult": 1.047,
      "raw_dynamic_score": 0.045,
      "dynamic_level": "Low"
    },
    {
      "id": "457",
      "country": "China",
      "name": "Shaoyang",
      "latitude": 27.2403,
      "longitude": 111.4709,
      "base_risk": 9.08,
      "rain_6h_mm": 0.0,
      "humidity_avg": 87.7,
      "soil_moisture_avg": 0.0,
      "rain_mult": 0.0,
      "soil_mult": 0.95,
      "humidity_mult": 1.044,
      "raw_dynamic_score": 0.0,
      "dynamic_level": "None"
    },
    {
      "id": "459",
      "country": "China",
      "name": "Shenmu",
      "latitude": 38.8341,
      "longitude": 110.4847,
      "base_risk": 9.2,
      "rain_6h_mm": 0.0,
      "humidity_avg": 55.5,
      "soil_moisture_avg": 0.0,
      "rain_mult": 0.0,
      "soil_mult": 0.95,
      "humidity_mult": 1.028,
      "raw_dynamic_score": 0.0,
      "dynamic_level": "None"
    },
    {
      "id": "461",
      "country": "China",
      "name": "Shenzhen",
      "latitude": 22.5415,
      "longitude": 114.0634,
      "base_risk": 9.49,
      "rain_6h_mm": 0.2,
      "humidity_avg": 83.5,
      "soil_moisture_avg": 0.0,
      "rain_mult": 0.002,
      "soil_mult": 0.95,
      "humidity_mult": 1.042,
      "raw_dynamic_score": 0.019,
      "dynamic_level": "Low"
    },
    {
      "id": "463",
      "country": "China",
      "name": "Shijiazhuang",
      "latitude": 38.0418,
      "longitude": 114.5108,
      "base_risk": 9.15,
      "rain_6h_mm": 0.0,
      "humidity_avg": 73.8,
      "soil_moisture_avg": 0.0,
      "rain_mult": 0.0,
      "soil_mult": 0.95,
      "humidity_mult": 1.037,
      "raw_dynamic_score": 0.0,
      "dynamic_level": "None"
    },
    {
      "id": "465",
      "country": "China",
      "name": "Shiyan",
      "latitude": 32.6445,
      "longitude": 110.7836,
      "base_risk": 9.33,
      "rain_6h_mm": 0.0,
      "humidity_avg": 79.7,
      "soil_moisture_avg": 0.0,
      "rain_mult": 0.0,
      "soil_mult": 0.95,
      "humidity_mult": 1.04,
      "raw_dynamic_score": 0.0,
      "dynamic_level": "None"
    },
    {
      "id": "467",
      "country": "China",
      "name": "Shouguang",
      "latitude": 36.8788,
      "longitude": 118.7482,
      "base_risk": 9.08,
      "rain_6h_mm": 0.0,
      "humidity_avg": 60.2,
      "soil_moisture_avg": 0.0,
      "rain_mult": 0.0,
      "soil_mult": 0.95,
      "humidity_mult": 1.03,
      "raw_dynamic_score": 0.0,
      "dynamic_level": "None"
    },
    {
      "id": "469",
      "country": "China",
      "name": "Shuozhou",
      "latitude": 39.3158,
      "longitude": 112.4225,
      "base_risk": 9.24,
      "rain_6h_mm": 0.0,
      "humidity_avg": 66.3,
      "soil_moisture_avg": 0.0,
      "rain_mult": 0.0,
      "soil_mult": 0.95,
      "humidity_mult": 1.033,
      "raw_dynamic_score": 0.0,
      "dynamic_level": "None"
    },
    {
      "id": "471",
      "country": "China",
      "name": "Siping",
      "latitude": 43.1633,
      "longitude": 124.3686,
      "base_risk": 9.4,
      "rain_6h_mm": 0.0,
      "humidity_avg": 65.5,
      "soil_moisture_avg": 0.0,
      "rain_mult": 0.0,
      "soil_mult": 0.95,
      "humidity_mult": 1.033,
      "raw_dynamic_score": 0.0,
      "dynamic_level": "None"
    },
    {
      "id": "473",
      "country": "China",
      "name": "Songzi",
      "latitude": 30.1736,
      "longitude": 111.7761,
      "base_risk": 8.74,
      "rain_6h_mm": 0.0,
      "humidity_avg": 77.3,
      "soil_moisture_avg": 0.0,
      "rain_mult": 0.0,
      "soil_mult": 0.95,
      "humidity_mult": 1.039,
      "raw_dynamic_score": 0.0,
      "dynamic_level": "None"
    },
    {
      "id": "475",
      "country": "China",
      "name": "Suining, Sichuan",
      "latitude": 30.5236,
      "longitude": 105.5639,
      "base_risk": 9.16,
      "rain_6h_mm": 0.0,
      "humidity_avg": 88.8,
      "soil_moisture_avg": 0.0,
      "rain_mult": 0.0,
      "soil_mult": 0.95,
      "humidity_mult": 1.044,
      "raw_dynamic_score": 0.0,
      "dynamic_level": "None"
    },
    {
      "id": "477",
      "country": "China",
      "name": "Suqian",
      "latitude": 33.9681,
      "longitude": 118.2924,
      "base_risk": 9.15,
      "rain_6h_mm": 0.0,
      "humidity_avg": 77.8,
      "soil_moisture_avg": 0.0,
      "rain_mult": 0.0,
      "soil_mult": 0.95,
      "humidity_mult": 1.039,
      "raw_dynamic_score": 0.0,
      "dynamic_level": "None"
    },
    {
      "id": "479",
      "country": "China",
      "name": "Suzhou, Jiangsu",
      "latitude": 31.3021,
      "longitude": 120.5853,
      "base_risk": 9.34,
      "rain_6h_mm": 0.0,
      "humidity_avg": 80.7,
      "soil_moisture_avg": 0.0,
      "rain_mult": 0.0,
      "soil_mult": 0.95,
      "humidity_mult": 1.04,
      "raw_dynamic_score": 0.0,
      "dynamic_level": "None"
    },
    {
      "id": "481",
      "country": "China",
      "name": "Taicang",
      "latitude": 31.4549,
      "longitude": 121.1172,
      "base_risk": 9.09,
      "rain_6h_mm": 0.0,
      "humidity_avg": 87.7,
      "soil_moisture_avg": 0.0,
      "rain_mult": 0.0,
      "soil_mult": 0.95,
      "humidity_mult": 1.044,
      "raw_dynamic_score": 0.0,
      "dynamic_level": "None"
    },
    {
      "id": "483",
      "country": "China",
      "name": "Taixing",
      "latitude": 32.1667,
      "longitude": 120.0136,
      "base_risk": 9.41,
      "rain_6h_mm": 0.0,
      "humidity_avg": 78.7,
      "soil_moisture_avg": 0.0,
      "rain_mult": 0.0,
      "soil_mult": 0.95,
      "humidity_mult": 1.039,
      "raw_dynamic_score": 0.0,
      "dynamic_level": "None"
    },
    {
      "id": "485",
      "country": "China",
      "name": "Taizhou, Jiangsu",
      "latitude": 32.4945,
      "longitude": 119.9029,
      "base_risk": 8.55,
      "rain_6h_mm": 0.0,
      "humidity_avg": 83.8,
      "soil_moisture_avg": 0.0,
      "rain_mult": 0.0,
      "soil_mult": 0.95,
      "humidity_mult": 1.042,
      "raw_dynamic_score": 0.0,
      "dynamic_level": "None"
    },
    {
      "id": "487",
      "country": "China",
      "name": "Tangshan, Hebei",
      "latitude": 39.6285,
      "longitude": 118.1799,
      "base_risk": 8.71,
      "rain_6h_mm": 0.0,
      "humidity_avg": 88.8,
      "soil_moisture_avg": 0.0,
      "rain_mult": 0.0,
      "soil_mult": 0.95,
      "humidity_mult": 1.044,
      "raw_dynamic_score": 0.0,
      "dynamic_level": "None"
    },
    {
      "id": "489",
      "country": "China",
      "name": "Tianjin",
      "latitude": 39.1088,
      "longitude": 117.1886,
      "base_risk": 8.93,
      "rain_6h_mm": 0.0,
      "humidity_avg": 80.2,
      "soil_moisture_avg": 0.0,
      "rain_mult": 0.0,
      "soil_mult": 0.95,
      "humidity_mult": 1.04,
      "raw_dynamic_score": 0.0,
      "dynamic_level": "None"
    },
    {
      "id": "491",
      "country": "China",
      "name": "Tianshui",
      "latitude": 34.5809,
      "longitude": 105.7237,
      "base_risk": 9.09,
      "rain_6h_mm": 0.0,
      "humidity_avg": 77.2,
      "soil_moisture_avg": 0.0,
      "rain_mult": 0.0,
      "soil_mult": 0.95,
      "humidity_mult": 1.039,
      "raw_dynamic_score": 0.0,
      "dynamic_level": "None"
    },
    {
      "id": "493",
      "country": "China",
      "name": "Tongcheng",
      "latitude": 31.0538,
      "longitude": 116.9556,
      "base_risk": 9.1,
      "rain_6h_mm": 0.0,
      "humidity_avg": 82.8,
      "soil_moisture_avg": 0.0,
      "rain_mult": 0.0,
      "soil_mult": 0.95,
      "humidity_mult": 1.041,
      "raw_dynamic_score": 0.0,
      "dynamic_level": "None"
    },
    {
      "id": "495",
      "country": "China",
      "name": "Tonghua",
      "latitude": 41.7201,
      "longitude": 125.9281,
      "base_risk": 9.22,
      "rain_6h_mm": 0.0,
      "humidity_avg": 92.5,
      "soil_moisture_avg": 0.0,
      "rain_mult": 0.0,
      "soil_mult": 0.95,
      "humidity_mult": 1.046,
      "raw_dynamic_score": 0.0,
      "dynamic_level": "None"
    },
    {
      "id": "497",
      "country": "China",
      "name": "Tongling",
      "latitude": 30.9363,
      "longitude": 117.8109,
      "base_risk": 9.19,
      "rain_6h_mm": 0.0,
      "humidity_avg": 79.2,
      "soil_moisture_avg": 0.0,
      "rain_mult": 0.0,
      "soil_mult": 0.95,
      "humidity_mult": 1.04,
      "raw_dynamic_score": 0.0,
      "dynamic_level": "None"
    },
    {
      "id": "499",
      "country": "China",
      "name": "Ürümqi (Wulumqi)",
      "latitude": 43.8253,
      "longitude": 87.6038,
      "base_risk": 9.45,
      "rain_6h_mm": 0.0,
      "humidity_avg": 62.5,
      "soil_moisture_avg": 0.0,
      "rain_mult": 0.0,
      "soil_mult": 0.95,
      "humidity_mult": 1.031,
      "raw_dynamic_score": 0.0,
      "dynamic_level": "None"
    },
    {
      "id": "501",
      "country": "China",
      "name": "Wanning",
      "latitude": 18.7955,
      "longitude": 110.3826,
      "base_risk": 9.33,
      "rain_6h_mm": 0.7,
      "humidity_avg": 91.5,
      "soil_moisture_avg": 0.0,
      "rain_mult": 0.007,
      "soil_mult": 0.95,
      "humidity_mult": 1.046,
      "raw_dynamic_score": 0.065,
      "dynamic_level": "Low"
    },
    {
      "id": "503",
      "country": "China",
      "name": "Weihai",
      "latitude": 37.5017,
      "longitude": 122.1136,
      "base_risk": 9.04,
      "rain_6h_mm": 0.0,
      "humidity_avg": 87.0,
      "soil_moisture_avg": 0.0,
      "rain_mult": 0.0,
      "soil_mult": 0.95,
      "humidity_mult": 1.044,
      "raw_dynamic_score": 0.0,
      "dynamic_level": "None"
    },
    {
      "id": "505",
      "country": "China",
      "name": "Wenchang",
      "latitude": 19.614,
      "longitude": 110.7505,
      "base_risk": 9.5,
      "rain_6h_mm": 0.0,
      "humidity_avg": 91.3,
      "soil_moisture_avg": 0.0,
      "rain_mult": 0.0,
      "soil_mult": 0.95,
      "humidity_mult": 1.046,
      "raw_dynamic_score": 0.0,
      "dynamic_level": "None"
    },