{
  "timestamp": "2025-11-08T14:41:56.041725Z",
  "source": "Open-Meteo",
  "forecast_window_hours": 6,
  "features_evaluated": 937,
  "alerts": [
    {
      "id": "1",
      "country": "Afghanistan",
      "name": "Herat",
      "latitude": 34.3482,
      "longitude": 62.1997,
      "base_risk": 9.5,
      "rain_6h_mm": 0.0,
      "humidity_avg": 27.5,
      "soil_moisture_avg": 0.0,
      "rain_mult": 0.0,
      "soil_mult": 0.95,
      "humidity_mult": 1.014,
      "raw_dynamic_score": 0.0,
      "dynamic_level": "None"
    },
    {
      "id": "2",
      "country": "Afghanistan",
      "name": "Kabul",
      "latitude": 34.5289,
      "longitude": 69.1725,
      "base_risk": 9.13,
      "rain_6h_mm": 0.0,
      "humidity_avg": 18.3,
      "soil_moisture_avg": 0.0,
      "rain_mult": 0.0,
      "soil_mult": 0.95,
      "humidity_mult": 1.009,
      "raw_dynamic_score": 0.0,
      "dynamic_level": "None"
    },
    {
      "id": "3",
      "country": "Afghanistan",
      "name": "Kandahar",
      "latitude": 31.6133,
      "longitude": 65.7101,
      "base_risk": 9.39,
      "rain_6h_mm": 0.0,
      "humidity_avg": 17.5,
      "soil_moisture_avg": 0.0,
      "rain_mult": 0.0,
      "soil_mult": 0.95,
      "humidity_mult": 1.009,
      "raw_dynamic_score": 0.0,
      "dynamic_level": "None"
    },
    {
      "id": "4",
      "country": "Afghanistan",
      "name": "Mazar-e Sharif",
      "latitude": 36.709,
      "longitude": 67.1109,
      "base_risk": 9.23,
      "rain_6h_mm": 0.0,
      "humidity_avg": 55.0,
      "soil_moisture_avg": 0.0,
      "rain_mult": 0.0,
      "soil_mult": 0.95,
      "humidity_mult": 1.028,
      "raw_dynamic_score": 0.0,
      "dynamic_level": "None"
    },
    {
      "id": "5",
      "country": "Albania",
      "name": "Tiranë (Tirana)",
      "latitude": 41.3275,
      "longitude": 19.8189,
      "base_risk": 9.32,
      "rain_6h_mm": 2.6,
      "humidity_avg": 85.5,
      "soil_moisture_avg": 0.0,
      "rain_mult": 0.026,
      "soil_mult": 0.95,
      "humidity_mult": 1.043,
      "raw_dynamic_score": 0.24,
      "dynamic_level": "Low"
    },
    {
      "id": "11",
      "country": "Algeria",
      "name": "Qacentina",
      "latitude": 36.3549,
      "longitude": 6.6073,
      "base_risk": 9.09,
      "rain_6h_mm": 0.1,
      "humidity_avg": 43.8,
      "soil_moisture_avg": 0.0,
      "rain_mult": 0.001,
      "soil_mult": 0.95,
      "humidity_mult": 1.022,
      "raw_dynamic_score": 0.009,
      "dynamic_level": "Low"
    },
    {
      "id": "12",
      "country": "Algeria",
      "name": "Sétif",
      "latitude": 36.1911,
      "longitude": 5.4137,
      "base_risk": 9.3,
      "rain_6h_mm": 2.9,
      "humidity_avg": 54.8,
      "soil_moisture_avg": 0.0,
      "rain_mult": 0.029,
      "soil_mult": 0.95,
      "humidity_mult": 1.027,
      "raw_dynamic_score": 0.263,
      "dynamic_level": "Low"
    },
    {
      "id": "13",
      "country": "Algeria",
      "name": "Wahran (Oran)",
      "latitude": 35.6911,
      "longitude": -0.6417,
      "base_risk": 9.15,
      "rain_6h_mm": 0.0,
      "humidity_avg": 68.3,
      "soil_moisture_avg": 0.0,
      "rain_mult": 0.0,
      "soil_mult": 0.95,
      "humidity_mult": 1.034,
      "raw_dynamic_score": 0.0,
      "dynamic_level": "None"
    },
    {
      "id": "14",
      "country": "Angola",
      "name": "Benguela",
      "latitude": -12.576,
      "longitude": 13.405,
      "base_risk": 9.33,
      "rain_6h_mm": 0.0,
      "humidity_avg": 70.5,
      "soil_moisture_avg": 0.0,
      "rain_mult": 0.0,
      "soil_mult": 0.95,
      "humidity_mult": 1.035,
      "raw_dynamic_score": 0.0,
      "dynamic_level": "None"
    },
    {
      "id": "19",
      "country": "Angola",
      "name": "Luanda",
      "latitude": -8.8368,
      "longitude": 13.2343,
      "base_risk": 9.5,
      "rain_6h_mm": 0.0,
      "humidity_avg": 76.7,
      "soil_moisture_avg": 0.0,
      "rain_mult": 0.0,
      "soil_mult": 0.95,
      "humidity_mult": 1.038,
      "raw_dynamic_score": 0.0,
      "dynamic_level": "None"
    },
    {
      "id": "21",
      "country": "Angola",
      "name": "Malanje",
      "latitude": -9.54,
      "longitude": 16.341,
      "base_risk": 9.23,
      "rain_6h_mm": 8.9,
      "humidity_avg": 72.5,
      "soil_moisture_avg": 0.0,
      "rain_mult": 0.089,
      "soil_mult": 0.95,
      "humidity_mult": 1.036,
      "raw_dynamic_score": 0.809,
      "dynamic_level": "Low"
    },
    {
      "id": "24",
      "country": "Argentina",
      "name": "Buenos Aires",
      "latitude": -34.6051,
      "longitude": -58.4004,
      "base_risk": 9.05,
      "rain_6h_mm": 0.0,
      "humidity_avg": 67.5,
      "soil_moisture_avg": 0.0,
      "rain_mult": 0.0,
      "soil_mult": 0.95,
      "humidity_mult": 1.034,
      "raw_dynamic_score": 0.0,
      "dynamic_level": "None"
    },
    {
      "id": "25",
      "country": "Argentina",
      "name": "Córdoba",
      "latitude": -31.4135,
      "longitude": -64.1811,
      "base_risk": 9.23,
      "rain_6h_mm": 0.0,
      "humidity_avg": 61.3,
      "soil_moisture_avg": 0.0,
      "rain_mult": 0.0,
      "soil_mult": 0.95,
      "humidity_mult": 1.031,
      "raw_dynamic_score": 0.0,
      "dynamic_level": "None"
    },
    {
      "id": "26",
      "country": "Argentina",
      "name": "Corrientes",
      "latitude": -27.4806,
      "longitude": -58.8341,
      "base_risk": 9.43,
      "rain_6h_mm": 0.0,
      "humidity_avg": 72.8,
      "soil_moisture_avg": 0.0,
      "rain_mult": 0.0,
      "soil_mult": 0.95,
      "humidity_mult": 1.036,
      "raw_dynamic_score": 0.0,
      "dynamic_level": "None"
    },
    {
      "id": "27",
      "country": "Argentina",
      "name": "La Plata",
      "latitude": -34.9215,
      "longitude": -57.9545,
      "base_risk": 9.39,
      "rain_6h_mm": 0.2,
      "humidity_avg": 73.8,
      "soil_moisture_avg": 0.0,
      "rain_mult": 0.002,
      "soil_mult": 0.95,
      "humidity_mult": 1.037,
      "raw_dynamic_score": 0.018,
      "dynamic_level": "Low"
    },
    {
      "id": "28",
      "country": "Argentina",
      "name": "Mar Del Plata",
      "latitude": -38.0023,
      "longitude": -57.5575,
      "base_risk": 9.09,
      "rain_6h_mm": 0.0,
      "humidity_avg": 69.8,
      "soil_moisture_avg": 0.0,
      "rain_mult": 0.0,
      "soil_mult": 0.95,
      "humidity_mult": 1.035,
      "raw_dynamic_score": 0.0,
      "dynamic_level": "None"
    },
    {
      "id": "34",
      "country": "Argentina",
      "name": "Salta",
      "latitude": -24.7859,
      "longitude": -65.4117,
      "base_risk": 9.39,
      "rain_6h_mm": 0.0,
      "humidity_avg": 57.2,
      "soil_moisture_avg": 0.0,
      "rain_mult": 0.0,
      "soil_mult": 0.95,
      "humidity_mult": 1.029,
      "raw_dynamic_score": 0.0,
      "dynamic_level": "None"
    },
    {
      "id": "35",
      "country": "Argentina",
      "name": "San Juan",
      "latitude": -31.5375,
      "longitude": -68.5364,
      "base_risk": 8.8,
      "rain_6h_mm": 0.0,
      "humidity_avg": 50.5,
      "soil_moisture_avg": 0.0,
      "rain_mult": 0.0,
      "soil_mult": 0.95,
      "humidity_mult": 1.025,
      "raw_dynamic_score": 0.0,
      "dynamic_level": "None"
    },
    {
      "id": "36",
      "country": "Argentina",
      "name": "San Miguel de Tucumán",
      "latitude": -26.8241,
      "longitude": -65.2226,
      "base_risk": 8.72,
      "rain_6h_mm": 0.0,
      "humidity_avg": 81.2,
      "soil_moisture_avg": 0.0,
      "rain_mult": 0.0,
      "soil_mult": 0.95,
      "humidity_mult": 1.041,
      "raw_dynamic_score": 0.0,
      "dynamic_level": "None"
    },
    {
      "id": "37",
      "country": "Argentina",
      "name": "San Salvador de Jujuy",
      "latitude": -24.1946,
      "longitude": -65.2971,
      "base_risk": 8.93,
      "rain_6h_mm": 0.0,
      "humidity_avg": 56.8,
      "soil_moisture_avg": 0.0,
      "rain_mult": 0.0,
      "soil_mult": 0.95,
      "humidity_mult": 1.028,
      "raw_dynamic_score": 0.0,
      "dynamic_level": "None"
    },
    {
      "id": "42",
      "country": "Australia",
      "name": "Brisbane",
      "latitude": -27.4679,
      "longitude": 153.0281,
      "base_risk": 8.99,
      "rain_6h_mm": 5.7,
      "humidity_avg": 95.0,
      "soil_moisture_avg": 0.0,
      "rain_mult": 0.057,
      "soil_mult": 0.95,
      "humidity_mult": 1.048,
      "raw_dynamic_score": 0.51,
      "dynamic_level": "Low"
    },
    {
      "id": "43",
      "country": "Australia",
      "name": "Canberra",
      "latitude": -35.2835,
      "longitude": 149.1281,
      "base_risk": 8.88,
      "rain_6h_mm": 0.0,
      "humidity_avg": 79.3,
      "soil_moisture_avg": 0.0,
      "rain_mult": 0.0,
      "soil_mult": 0.95,
      "humidity_mult": 1.04,
      "raw_dynamic_score": 0.0,
      "dynamic_level": "None"
    },
    {
      "id": "44",
      "country": "Australia",
      "name": "Central Coast",
      "latitude": -33.42,
      "longitude": 151.3958,
      "base_risk": 9.28,
      "rain_6h_mm": 0.0,
      "humidity_avg": 55.2,
      "soil_moisture_avg": 0.0,
      "rain_mult": 0.0,
      "soil_mult": 0.95,
      "humidity_mult": 1.028,
      "raw_dynamic_score": 0.0,
      "dynamic_level": "None"
    },
    {
      "id": "45",
      "country": "Australia",
      "name": "Gold Coast-Tweed Head",
      "latitude": -28.0003,
      "longitude": 153.4309,
      "base_risk": 9.38,
      "rain_6h_mm": 5.0,
      "humidity_avg": 95.7,
      "soil_moisture_avg": 0.0,
      "rain_mult": 0.05,
      "soil_mult": 0.95,
      "humidity_mult": 1.048,
      "raw_dynamic_score": 0.467,
      "dynamic_level": "Low"
    },
    {
      "id": "46",
      "country": "Australia",
      "name": "Melbourne",
      "latitude": -37.814,
      "longitude": 144.9633,
      "base_risk": 8.78,
      "rain_6h_mm": 0.2,
      "humidity_avg": 88.5,
      "soil_moisture_avg": 0.0,
      "rain_mult": 0.002,
      "soil_mult": 0.95,
      "humidity_mult": 1.044,
      "raw_dynamic_score": 0.017,
      "dynamic_level": "Low"
    },
    {
      "id": "52",
      "country": "Austria",
      "name": "Wien (Vienna)",
      "latitude": 48.2064,
      "longitude": 16.3707,
      "base_risk": 8.75,
      "rain_6h_mm": 0.0,
      "humidity_avg": 74.5,
      "soil_moisture_avg": 0.0,
      "rain_mult": 0.0,
      "soil_mult": 0.95,
      "humidity_mult": 1.037,
      "raw_dynamic_score": 0.0,
      "dynamic_level": "None"
    },
    {
      "id": "53",
      "country": "Azerbaijan",
      "name": "Baku",
      "latitude": 40.3777,
      "longitude": 49.892,
      "base_risk": 8.82,
      "rain_6h_mm": 0.0,
      "humidity_avg": 90.2,
      "soil_moisture_avg": 0.0,
      "rain_mult": 0.0,
      "soil_mult": 0.95,
      "humidity_mult": 1.045,
      "raw_dynamic_score": 0.0,
      "dynamic_level": "None"
    },
    {
      "id": "54",
      "country": "Azerbaijan",
      "name": "Gäncä",
      "latitude": 40.6828,
      "longitude": 46.3606,
      "base_risk": 9.07,
      "rain_6h_mm": 0.0,
      "humidity_avg": 73.0,
      "soil_moisture_avg": 0.0,
      "rain_mult": 0.0,
      "soil_mult": 0.95,
      "humidity_mult": 1.036,
      "raw_dynamic_score": 0.0,
      "dynamic_level": "None"
    },
    {
      "id": "55",
      "country": "Azerbaijan",
      "name": "Sumquayit",
      "latitude": 40.5897,
      "longitude": 49.6686,
      "base_risk": 9.08,
      "rain_6h_mm": 0.0,
      "humidity_avg": 86.3,
      "soil_moisture_avg": 0.0,
      "rain_mult": 0.0,
      "soil_mult": 0.95,
      "humidity_mult": 1.043,
      "raw_dynamic_score": 0.0,
      "dynamic_level": "None"
    },
    {
      "id": "56",
      "country": "Bahrain",
      "name": "Al-Manamah (Manama)",
      "latitude": 26.2154,
      "longitude": 50.5832,
      "base_risk": 9.4,
      "rain_6h_mm": 0.0,
      "humidity_avg": 63.2,
      "soil_moisture_avg": 0.0,
      "rain_mult": 0.0,
      "soil_mult": 0.95,
      "humidity_mult": 1.032,
      "raw_dynamic_score": 0.0,
      "dynamic_level": "None"
    },
    {
      "id": "62",
      "country": "Bangladesh",
      "name": "Khulna",
      "latitude": 22.8098,
      "longitude": 89.5644,
      "base_risk": 9.5,
      "rain_6h_mm": 0.0,
      "humidity_avg": 72.0,
      "soil_moisture_avg": 0.0,
      "rain_mult": 0.0,
      "soil_mult": 0.95,
      "humidity_mult": 1.036,
      "raw_dynamic_score": 0.0,
      "dynamic_level": "None"
    },
    {
      "id": "63",
      "country": "Bangladesh",
      "name": "Mymensingh",
      "latitude": 24.75,
      "longitude": 90.4,
      "base_risk": 9.34,
      "rain_6h_mm": 0.0,
      "humidity_avg": 80.8,
      "soil_moisture_avg": 0.0,
      "rain_mult": 0.0,
      "soil_mult": 0.95,
      "humidity_mult": 1.04,
      "raw_dynamic_score": 0.0,
      "dynamic_level": "None"
    },
    {
      "id": "64",
      "country": "Bangladesh",
      "name": "Rajshahi",
      "latitude": 24.3667,
      "longitude": 88.6,
      "base_risk": 9.04,
      "rain_6h_mm": 0.0,
      "humidity_avg": 67.2,
      "soil_moisture_avg": 0.0,
      "rain_mult": 0.0,
      "soil_mult": 0.95,
      "humidity_mult": 1.034,
      "raw_dynamic_score": 0.0,
      "dynamic_level": "None"
    },
    {
      "id": "65",
      "country": "Bangladesh",
      "name": "Rangpur",
      "latitude": 25.75,
      "longitude": 89.25,
      "base_risk": 8.62,
      "rain_6h_mm": 0.0,
      "humidity_avg": 71.0,
      "soil_moisture_avg": 0.0,
      "rain_mult": 0.0,
      "soil_mult": 0.95,
      "humidity_mult": 1.036,
      "raw_dynamic_score": 0.0,
      "dynamic_level": "None"
    },
    {
      "id": "66",
      "country": "Bangladesh",
      "name": "Rupganj",
      "latitude": 23.7926,
      "longitude": 90.5206,
      "base_risk": 9.13,
      "rain_6h_mm": 0.0,
      "humidity_avg": 71.3,
      "soil_moisture_avg": 0.0,
      "rain_mult": 0.0,
      "soil_mult": 0.95,
      "humidity_mult": 1.036,
      "raw_dynamic_score": 0.0,
      "dynamic_level": "None"
    },
    {
      "id": "72",
      "country": "Belarus",
      "name": "Mogilev",
      "latitude": 53.9141,
      "longitude": 30.3376,
      "base_risk": 8.6,
      "rain_6h_mm": 0.0,
      "humidity_avg": 87.3,
      "soil_moisture_avg": 0.0,
      "rain_mult": 0.0,
      "soil_mult": 0.95,
      "humidity_mult": 1.044,
      "raw_dynamic_score": 0.0,
      "dynamic_level": "None"
    },
    {
      "id": "73",
      "country": "Belarus",
      "name": "Vitebsk",
      "latitude": 55.1905,
      "longitude": 30.2033,
      "base_risk": 8.87,
      "rain_6h_mm": 0.0,
      "humidity_avg": 91.3,
      "soil_moisture_avg": 0.0,
      "rain_mult": 0.0,
      "soil_mult": 0.95,
      "humidity_mult": 1.046,
      "raw_dynamic_score": 0.0,
      "dynamic_level": "None"
    },
    {
      "id": "74",
      "country": "Belgium",
      "name": "Antwerpen",
      "latitude": 51.2199,
      "longitude": 4.4035,
      "base_risk": 9.16,
      "rain_6h_mm": 0.0,
      "humidity_avg": 81.7,
      "soil_moisture_avg": 0.353,
      "rain_mult": 0.0,
      "soil_mult": 1.25,
      "humidity_mult": 1.041,
      "raw_dynamic_score": 0.0,
      "dynamic_level": "None"
    },
    {
      "id": "75",
      "country": "Belgium",
      "name": "Bruxelles-Brussel",
      "latitude": 50.8467,
      "longitude": 4.3499,
      "base_risk": 9.46,
      "rain_6h_mm": 0.0,
      "humidity_avg": 82.0,
      "soil_moisture_avg": 0.494,
      "rain_mult": 0.0,
      "soil_mult": 1.37,
      "humidity_mult": 1.041,
      "raw_dynamic_score": 0.0,
      "dynamic_level": "None"
    },
    {
      "id": "76",
      "country": "Belgium",
      "name": "Charleroi",
      "latitude": 50.4114,
      "longitude": 4.4445,
      "base_risk": 9.22,
      "rain_6h_mm": 0.0,
      "humidity_avg": 80.5,
      "soil_moisture_avg": 0.513,
      "rain_mult": 0.0,
      "soil_mult": 1.386,
      "humidity_mult": 1.04,
      "raw_dynamic_score": 0.0,
      "dynamic_level": "None"
    },
    {
      "id": "82",
      "country": "Benin",
      "name": "Parakou",
      "latitude": 9.3372,
      "longitude": 2.6303,
      "base_risk": 9.5,
      "rain_6h_mm": 0.0,
      "humidity_avg": 54.8,
      "soil_moisture_avg": 0.0,
      "rain_mult": 0.0,
      "soil_mult": 0.95,
      "humidity_mult": 1.027,
      "raw_dynamic_score": 0.0,
      "dynamic_level": "None"
    },
    {
      "id": "83",
      "country": "Bolivia (Plurinational State of)",
      "name": "Cochabamba",
      "latitude": -17.3895,
      "longitude": -66.1568,
      "base_risk": 8.93,
      "rain_6h_mm": 0.0,
      "humidity_avg": 47.5,
      "soil_moisture_avg": 0.0,
      "rain_mult": 0.0,
      "soil_mult": 0.95,
      "humidity_mult": 1.024,
      "raw_dynamic_score": 0.0,
      "dynamic_level": "None"
    },
    {
      "id": "84",
      "country": "Bolivia (Plurinational State of)",
      "name": "La Paz",
      "latitude": -16.5,
      "longitude": -68.15,
      "base_risk": 9.19,
      "rain_6h_mm": 0.0,
      "humidity_avg": 37.5,
      "soil_moisture_avg": 0.0,
      "rain_mult": 0.0,
      "soil_mult": 0.95,
      "humidity_mult": 1.019,
      "raw_dynamic_score": 0.0,
      "dynamic_level": "None"
    },
    {
      "id": "85",
      "country": "Bolivia (Plurinational State of)",
      "name": "Oruro",
      "latitude": -17.9833,
      "longitude": -67.15,
      "base_risk": 8.94,
      "rain_6h_mm": 0.0,
      "humidity_avg": 32.0,
      "soil_moisture_avg": 0.0,
      "rain_mult": 0.0,
      "soil_mult": 0.95,
      "humidity_mult": 1.016,
      "raw_dynamic_score": 0.0,
      "dynamic_level": "None"
    },
    {
      "id": "86",
      "country": "Bolivia (Plurinational State of)",
      "name": "Santa Cruz",
      "latitude": -17.7989,
      "longitude": -63.1698,
      "base_risk": 8.87,
      "rain_6h_mm": 0.0,
      "humidity_avg": 46.2,
      "soil_moisture_avg": 0.0,
      "rain_mult": 0.0,
      "soil_mult": 0.95,
      "humidity_mult": 1.023,
      "raw_dynamic_score": 0.0,
      "dynamic_level": "None"
    },
    {
      "id": "92",
      "country": "Brazil",
      "name": "Belém",
      "latitude": -1.4561,
      "longitude": -48.479,
      "base_risk": 9.14,
      "rain_6h_mm": 0.0,
      "humidity_avg": 60.3,
      "soil_moisture_avg": 0.0,
      "rain_mult": 0.0,
      "soil_mult": 0.95,
      "humidity_mult": 1.03,
      "raw_dynamic_score": 0.0,
      "dynamic_level": "None"
    },
    {
      "id": "93",
      "country": "Brazil",
      "name": "Belo Horizonte",
      "latitude": -19.9208,
      "longitude": -43.9378,
      "base_risk": 9.19,
      "rain_6h_mm": 2.9,
      "humidity_avg": 81.5,
      "soil_moisture_avg": 0.0,
      "rain_mult": 0.029,
      "soil_mult": 0.95,
      "humidity_mult": 1.041,
      "raw_dynamic_score": 0.264,
      "dynamic_level": "Low"
    },
    {
      "id": "94",
      "country": "Brazil",
      "name": "Blumenau",
      "latitude": -26.9194,
      "longitude": -49.0661,
      "base_risk": 9.15,
      "rain_6h_mm": 0.0,
      "humidity_avg": 59.0,
      "soil_moisture_avg": 0.0,
      "rain_mult": 0.0,
      "soil_mult": 0.95,
      "humidity_mult": 1.03,
      "raw_dynamic_score": 0.0,
      "dynamic_level": "None"
    },
    {
      "id": "95",
      "country": "Brazil",
      "name": "Boa Vista",
      "latitude": 2.8197,
      "longitude": -60.6733,
      "base_risk": 9.46,
      "rain_6h_mm": 0.0,
      "humidity_avg": 62.5,
      "soil_moisture_avg": 0.0,
      "rain_mult": 0.0,
      "soil_mult": 0.95,
      "humidity_mult": 1.031,
      "raw_dynamic_score": 0.0,
      "dynamic_level": "None"
    },
    {
      "id": "96",
      "country": "Brazil",
      "name": "Brasília",
      "latitude": -15.7797,
      "longitude": -47.9297,
      "base_risk": 9.06,
      "rain_6h_mm": 0.2,
      "humidity_avg": 59.3,
      "soil_moisture_avg": 0.0,
      "rain_mult": 0.002,
      "soil_mult": 0.95,
      "humidity_mult": 1.03,
      "raw_dynamic_score": 0.018,
      "dynamic_level": "Low"
    },
    {
      "id": "102",
      "country": "Brazil",
      "name": "Cascavel",
      "latitude": -24.9558,
      "longitude": -53.4553,
      "base_risk": 9.33,
      "rain_6h_mm": 0.0,
      "humidity_avg": 73.8,
      "soil_moisture_avg": 0.0,
      "rain_mult": 0.0,
      "soil_mult": 0.95,
      "humidity_mult": 1.037,
      "raw_dynamic_score": 0.0,
      "dynamic_level": "None"
    },
    {
      "id": "103",
      "country": "Brazil",
      "name": "Caxias Do Sul",
      "latitude": -29.1681,
      "longitude": -51.1794,
      "base_risk": 8.82,
      "rain_6h_mm": 0.1,
      "humidity_avg": 87.3,
      "soil_moisture_avg": 0.0,
      "rain_mult": 0.001,
      "soil_mult": 0.95,
      "humidity_mult": 1.044,
      "raw_dynamic_score": 0.009,
      "dynamic_level": "Low"
    },
    {
      "id": "104",
      "country": "Brazil",
      "name": "Cuiabá",
      "latitude": -15.5961,
      "longitude": -56.0967,
      "base_risk": 9.5,
      "rain_6h_mm": 0.0,
      "humidity_avg": 60.5,
      "soil_moisture_avg": 0.0,
      "rain_mult": 0.0,
      "soil_mult": 0.95,
      "humidity_mult": 1.03,
      "raw_dynamic_score": 0.0,
      "dynamic_level": "None"
    },
    {
      "id": "105",
      "country": "Brazil",
      "name": "Curitiba",
      "latitude": -25.4278,
      "longitude": -49.2731,
      "base_risk": 8.88,
      "rain_6h_mm": 0.0,
      "humidity_avg": 62.8,
      "soil_moisture_avg": 0.0,
      "rain_mult": 0.0,
      "soil_mult": 0.95,
      "humidity_mult": 1.031,
      "raw_dynamic_score": 0.0,
      "dynamic_level": "None"
    },
    {
      "id": "110",
      "country": "Brazil",
      "name": "Goiânia",
      "latitude": -16.6786,
      "longitude": -49.2539,
      "base_risk": 9.02,
      "rain_6h_mm": 0.0,
      "humidity_avg": 54.8,
      "soil_moisture_avg": 0.0,
      "rain_mult": 0.0,
      "soil_mult": 0.95,
      "humidity_mult": 1.027,
      "raw_dynamic_score": 0.0,
      "dynamic_level": "None"
    },
    {
      "id": "111",
      "country": "Brazil",
      "name": "Grande São Luís",
      "latitude": -2.5385,
      "longitude": -44.2832,
      "base_risk": 8.97,
      "rain_6h_mm": 0.0,
      "humidity_avg": 64.7,
      "soil_moisture_avg": 0.0,
      "rain_mult": 0.0,
      "soil_mult": 0.95,
      "humidity_mult": 1.032,
      "raw_dynamic_score": 0.0,
      "dynamic_level": "None"
    },
    {
      "id": "112",
      "country": "Brazil",
      "name": "Grande Vitória",
      "latitude": -20.3054,
      "longitude": -40.3079,
      "base_risk": 9.5,
      "rain_6h_mm": 0.0,
      "humidity_avg": 52.7,
      "soil_moisture_avg": 0.0,
      "rain_mult": 0.0,
      "soil_mult": 0.95,
      "humidity_mult": 1.026,
      "raw_dynamic_score": 0.0,
      "dynamic_level": "None"
    },
    {
      "id": "113",
      "country": "Brazil",
      "name": "João Pessoa",
      "latitude": -7.115,
      "longitude": -34.8631,
      "base_risk": 9.3,
      "rain_6h_mm": 0.0,
      "humidity_avg": 53.8,
      "soil_moisture_avg": 0.0,
      "rain_mult": 0.0,
      "soil_mult": 0.95,
      "humidity_mult": 1.027,
      "raw_dynamic_score": 0.0,
      "dynamic_level": "None"
    },
    {
      "id": "114",
      "country": "Brazil",
      "name": "Joinville",
      "latitude": -26.3044,
      "longitude": -48.8456,
      "base_risk": 9.02,
      "rain_6h_mm": 0.0,
      "humidity_avg": 53.7,
      "soil_moisture_avg": 0.0,
      "rain_mult": 0.0,
      "soil_mult": 0.95,
      "humidity_mult": 1.027,
      "raw_dynamic_score": 0.0,
      "dynamic_level": "None"
    },
    {
      "id": "120",
      "country": "Brazil",
      "name": "Maceió",
      "latitude": -9.6658,
      "longitude": -35.7353,
      "base_risk": 9.5,
      "rain_6h_mm": 0.0,
      "humidity_avg": 55.8,
      "soil_moisture_avg": 0.0,
      "rain_mult": 0.0,
      "soil_mult": 0.95,
      "humidity_mult": 1.028,
      "raw_dynamic_score": 0.0,
      "dynamic_level": "None"
    },
    {
      "id": "121",
      "country": "Brazil",
      "name": "Manaus",
      "latitude": -3.1019,
      "longitude": -60.025,
      "base_risk": 9.01,
      "rain_6h_mm": 0.0,
      "humidity_avg": 60.8,
      "soil_moisture_avg": 0.0,
      "rain_mult": 0.0,
      "soil_mult": 0.95,
      "humidity_mult": 1.03,
      "raw_dynamic_score": 0.0,
      "dynamic_level": "None"
    },
    {
      "id": "122",
      "country": "Brazil",
      "name": "Maringá",
      "latitude": -23.4253,
      "longitude": -51.9386,
      "base_risk": 9.32,
      "rain_6h_mm": 0.0,
      "humidity_avg": 59.0,
      "soil_moisture_avg": 0.0,
      "rain_mult": 0.0,
      "soil_mult": 0.95,
      "humidity_mult": 1.03,
      "raw_dynamic_score": 0.0,
      "dynamic_level": "None"
    },
    {
      "id": "123",
      "country": "Brazil",
      "name": "Montes Claros",
      "latitude": -16.735,
      "longitude": -43.8617,
      "base_risk": 9.5,
      "rain_6h_mm": 2.0,
      "humidity_avg": 75.7,
      "soil_moisture_avg": 0.0,
      "rain_mult": 0.02,
      "soil_mult": 0.95,
      "humidity_mult": 1.038,
      "raw_dynamic_score": 0.187,
      "dynamic_level": "Low"
    },
    {
      "id": "124",
      "country": "Brazil",
      "name": "Natal",
      "latitude": -5.795,
      "longitude": -35.2094,
      "base_risk": 9.5,
      "rain_6h_mm": 0.0,
      "humidity_avg": 56.2,
      "soil_moisture_avg": 0.0,
      "rain_mult": 0.0,
      "soil_mult": 0.95,
      "humidity_mult": 1.028,
      "raw_dynamic_score": 0.0,
      "dynamic_level": "None"
    },
    {
      "id": "130",
      "country": "Brazil",
      "name": "Pôrto Velho",
      "latitude": -8.7619,
      "longitude": -63.9039,
      "base_risk": 8.9,
      "rain_6h_mm": 0.2,
      "humidity_avg": 66.0,
      "soil_moisture_avg": 0.0,
      "rain_mult": 0.002,
      "soil_mult": 0.95,
      "humidity_mult": 1.033,
      "raw_dynamic_score": 0.017,
      "dynamic_level": "Low"
    },
    {
      "id": "131",
      "country": "Brazil",
      "name": "Recife",
      "latitude": -8.0539,
      "longitude": -34.8811,
      "base_risk": 9.18,
      "rain_6h_mm": 0.0,
      "humidity_avg": 51.2,
      "soil_moisture_avg": 0.0,
      "rain_mult": 0.0,
      "soil_mult": 0.95,
      "humidity_mult": 1.026,
      "raw_dynamic_score": 0.0,
      "dynamic_level": "None"
    },
    {
      "id": "132",
      "country": "Brazil",
      "name": "Ribeirão  Preto",
      "latitude": -21.1775,
      "longitude": -47.8103,
      "base_risk": 9.07,
      "rain_6h_mm": 6.7,
      "humidity_avg": 79.5,
      "soil_moisture_avg": 0.0,
      "rain_mult": 0.067,
      "soil_mult": 0.95,
      "humidity_mult": 1.04,
      "raw_dynamic_score": 0.6,
      "dynamic_level": "Low"
    },
    {
      "id": "133",
      "country": "Brazil",
      "name": "Rio Branco",
      "latitude": -9.9747,
      "longitude": -67.81,
      "base_risk": 8.92,
      "rain_6h_mm": 0.0,
      "humidity_avg": 66.7,
      "soil_moisture_avg": 0.0,
      "rain_mult": 0.0,
      "soil_mult": 0.95,
      "humidity_mult": 1.033,
      "raw_dynamic_score": 0.0,
      "dynamic_level": "None"
    },
    {
      "id": "134",
      "country": "Brazil",
      "name": "Rio de Janeiro",
      "latitude": -22.9028,
      "longitude": -43.2075,
      "base_risk": 9.38,
      "rain_6h_mm": 1.5,
      "humidity_avg": 74.8,
      "soil_moisture_avg": 0.0,
      "rain_mult": 0.015,
      "soil_mult": 0.95,
      "humidity_mult": 1.037,
      "raw_dynamic_score": 0.139,
      "dynamic_level": "Low"
    },
    {
      "id": "135",
      "country": "Brazil",
      "name": "Salvador",
      "latitude": -12.9711,
      "longitude": -38.5108,
      "base_risk": 9.07,
      "rain_6h_mm": 0.0,
      "humidity_avg": 65.7,
      "soil_moisture_avg": 0.0,
      "rain_mult": 0.0,
      "soil_mult": 0.95,
      "humidity_mult": 1.033,
      "raw_dynamic_score": 0.0,
      "dynamic_level": "None"
    },
    {
      "id": "136",
      "country": "Brazil",
      "name": "São José do Rio Preto",
      "latitude": -20.8197,
      "longitude": -49.3794,
      "base_risk": 9.32,
      "rain_6h_mm": 5.4,
      "humidity_avg": 73.3,
      "soil_moisture_avg": 0.0,
      "rain_mult": 0.054,
      "soil_mult": 0.95,
      "humidity_mult": 1.037,
      "raw_dynamic_score": 0.496,
      "dynamic_level": "Low"
    },
    {
      "id": "138",
      "country": "Brazil",
      "name": "São Paulo",
      "latitude": -23.5475,
      "longitude": -46.6361,
      "base_risk": 9.5,
      "rain_6h_mm": 0.6,
      "humidity_avg": 81.0,
      "soil_moisture_avg": 0.0,
      "rain_mult": 0.006,
      "soil_mult": 0.95,
      "humidity_mult": 1.04,
      "raw_dynamic_score": 0.056,
      "dynamic_level": "Low"
    },
    {
      "id": "139",
      "country": "Brazil",
      "name": "Sorocaba",
      "latitude": -23.5017,
      "longitude": -47.4581,
      "base_risk": 9.22,
      "rain_6h_mm": 0.5,
      "humidity_avg": 77.0,
      "soil_moisture_avg": 0.0,
      "rain_mult": 0.005,
      "soil_mult": 0.95,
      "humidity_mult": 1.038,
      "raw_dynamic_score": 0.045,
      "dynamic_level": "Low"
    },
    {
      "id": "144",
      "country": "Brazil",
      "name": "Vale do Aço",
      "latitude": -19.9405,
      "longitude": -43.9354,
      "base_risk": 9.42,
      "rain_6h_mm": 1.6,
      "humidity_avg": 82.0,
      "soil_moisture_avg": 0.0,
      "rain_mult": 0.016,
      "soil_mult": 0.95,
      "humidity_mult": 1.041,
      "raw_dynamic_score": 0.149,
      "dynamic_level": "Low"
    },
    {
      "id": "147",
      "country": "Bulgaria",
      "name": "Plovdiv",
      "latitude": 42.15,
      "longitude": 24.75,
      "base_risk": 9.01,
      "rain_6h_mm": 1.6,
      "humidity_avg": 92.2,
      "soil_moisture_avg": 0.0,
      "rain_mult": 0.016,
      "soil_mult": 0.95,
      "humidity_mult": 1.046,
      "raw_dynamic_score": 0.143,
      "dynamic_level": "Low"
    },
    {
      "id": "148",
      "country": "Bulgaria",
      "name": "Sofia",
      "latitude": 42.6975,
      "longitude": 23.3242,
      "base_risk": 9.33,
      "rain_6h_mm": 1.5,
      "humidity_avg": 88.0,
      "soil_moisture_avg": 0.0,
      "rain_mult": 0.015,
      "soil_mult": 0.95,
      "humidity_mult": 1.044,
      "raw_dynamic_score": 0.139,
      "dynamic_level": "Low"
    },
    {
      "id": "149",
      "country": "Bulgaria",
      "name": "Varna",
      "latitude": 43.2167,
      "longitude": 27.9167,
      "base_risk": 9.44,
      "rain_6h_mm": 0.0,
      "humidity_avg": 92.5,
      "soil_moisture_avg": 0.0,
      "rain_mult": 0.0,
      "soil_mult": 0.95,
      "humidity_mult": 1.046,
      "raw_dynamic_score": 0.0,
      "dynamic_level": "None"
    },
    {
      "id": "150",
      "country": "Burkina Faso",
      "name": "Bobo-Dioulasso",
      "latitude": 11.1772,
      "longitude": -4.2979,
      "base_risk": 9.23,
      "rain_6h_mm": 2.2,
      "humidity_avg": 63.3,
      "soil_moisture_avg": 0.0,
      "rain_mult": 0.022,
      "soil_mult": 0.95,
      "humidity_mult": 1.032,
      "raw_dynamic_score": 0.199,
      "dynamic_level": "Low"
    },
    {
      "id": "151",
      "country": "Burkina Faso",
      "name": "Ouagadougou",
      "latitude": 12.3642,
      "longitude": -1.5383,
      "base_risk": 9.5,
      "rain_6h_mm": 0.8,
      "humidity_avg": 44.0,
      "soil_moisture_avg": 0.0,
      "rain_mult": 0.008,
      "soil_mult": 0.95,
      "humidity_mult": 1.022,
      "raw_dynamic_score": 0.074,
      "dynamic_level": "Low"
    },
    {
      "id": "157",
      "country": "Cameroon",
      "name": "Garoua",
      "latitude": 9.3,
      "longitude": 13.4,
      "base_risk": 9.09,
      "rain_6h_mm": 0.0,
      "humidity_avg": 28.5,
      "soil_moisture_avg": 0.0,
      "rain_mult": 0.0,
      "soil_mult": 0.95,
      "humidity_mult": 1.014,
      "raw_dynamic_score": 0.0,
      "dynamic_level": "None"
    },
    {
      "id": "158",
      "country": "Cameroon",
      "name": "Loum",
      "latitude": 4.7182,
      "longitude": 9.7351,
      "base_risk": 9.16,
      "rain_6h_mm": 4.7,
      "humidity_avg": 83.7,
      "soil_moisture_avg": 0.0,
      "rain_mult": 0.047,
      "soil_mult": 0.95,
      "humidity_mult": 1.042,
      "raw_dynamic_score": 0.426,
      "dynamic_level": "Low"
    },
    {
      "id": "159",
      "country": "Cameroon",
      "name": "Mbouda",
      "latitude": 5.6258,
      "longitude": 10.2552,
      "base_risk": 9.33,
      "rain_6h_mm": 0.6,
      "humidity_avg": 65.8,
      "soil_moisture_avg": 0.0,
      "rain_mult": 0.006,
      "soil_mult": 0.95,
      "humidity_mult": 1.033,
      "raw_dynamic_score": 0.055,
      "dynamic_level": "Low"
    },
    {
      "id": "160",
      "country": "Cameroon",
      "name": "Yaoundé",
      "latitude": 3.8667,
      "longitude": 11.5167,
      "base_risk": 9.5,
      "rain_6h_mm": 0.7,
      "humidity_avg": 72.2,
      "soil_moisture_avg": 0.0,
      "rain_mult": 0.007,
      "soil_mult": 0.95,
      "humidity_mult": 1.036,
      "raw_dynamic_score": 0.065,
      "dynamic_level": "Low"
    },
    {
      "id": "161",
      "country": "Canada",
      "name": "Calgary",
      "latitude": 51.0441,
      "longitude": -114.0593,
      "base_risk": 9.29,
      "rain_6h_mm": 0.0,
      "humidity_avg": 57.5,
      "soil_moisture_avg": 0.0,
      "rain_mult": 0.0,
      "soil_mult": 0.95,
      "humidity_mult": 1.029,
      "raw_dynamic_score": 0.0,
      "dynamic_level": "None"
    },
    {
      "id": "167",
      "country": "Canada",
      "name": "Montréal",
      "latitude": 45.5088,
      "longitude": -73.5878,
      "base_risk": 9.19,
      "rain_6h_mm": 0.0,
      "humidity_avg": 80.2,
      "soil_moisture_avg": 0.0,
      "rain_mult": 0.0,
      "soil_mult": 0.95,
      "humidity_mult": 1.04,
      "raw_dynamic_score": 0.0,
      "dynamic_level": "None"
    },
    {
      "id": "168",
      "country": "Canada",
      "name": "Oshawa",
      "latitude": 43.9001,
      "longitude": -78.8496,
      "base_risk": 9.17,
      "rain_6h_mm": 0.0,
      "humidity_avg": 75.5,
      "soil_moisture_avg": 0.0,
      "rain_mult": 0.0,
      "soil_mult": 0.95,
      "humidity_mult": 1.038,
      "raw_dynamic_score": 0.0,
      "dynamic_level": "None"
    },
    {
      "id": "169",
      "country": "Canada",
      "name": "Ottawa-Gatineau",
      "latitude": 45.4166,
      "longitude": -75.698,
      "base_risk": 9.43,
      "rain_6h_mm": 0.0,
      "humidity_avg": 79.0,
      "soil_moisture_avg": 0.0,
      "rain_mult": 0.0,
      "soil_mult": 0.95,
      "humidity_mult": 1.04,
      "raw_dynamic_score": 0.0,
      "dynamic_level": "None"
    },
    {
      "id": "170",
      "country": "Canada",
      "name": "Québec",
      "latitude": 46.8123,
      "longitude": -71.2145,
      "base_risk": 8.95,
      "rain_6h_mm": 0.4,
      "humidity_avg": 84.5,
      "soil_moisture_avg": 0.0,
      "rain_mult": 0.004,
      "soil_mult": 0.95,
      "humidity_mult": 1.042,
      "raw_dynamic_score": 0.035,
      "dynamic_level": "Low"
    },
    {
      "id": "171",
      "country": "Canada",
      "name": "Saskatoon",
      "latitude": 52.1168,
      "longitude": -106.6345,
      "base_risk": 9.03,
      "rain_6h_mm": 0.0,
      "humidity_avg": 82.5,
      "soil_moisture_avg": 0.0,
      "rain_mult": 0.0,
      "soil_mult": 0.95,
      "humidity_mult": 1.041,
      "raw_dynamic_score": 0.0,
      "dynamic_level": "None"
    },
    {
      "id": "177",
      "country": "Canada",
      "name": "Winnipeg",
      "latitude": 49.8955,
      "longitude": -97.1294,
      "base_risk": 9.38,
      "rain_6h_mm": 0.0,
      "humidity_avg": 78.0,
      "soil_moisture_avg": 0.0,
      "rain_mult": 0.0,
      "soil_mult": 0.95,
      "humidity_mult": 1.039,
      "raw_dynamic_score": 0.0,
      "dynamic_level": "None"
    },
    {
      "id": "178",
      "country": "Central African Republic",
      "name": "Bangui",
      "latitude": 4.3612,
      "longitude": 18.555,
      "base_risk": 9.42,
      "rain_6h_mm": 0.6,
      "humidity_avg": 68.3,
      "soil_moisture_avg": 0.0,
      "rain_mult": 0.006,
      "soil_mult": 0.95,
      "humidity_mult": 1.034,
      "raw_dynamic_score": 0.056,
      "dynamic_level": "Low"
    },
    {
      "id": "179",
      "country": "Chad",
      "name": "N'Djaména",
      "latitude": 12.1067,
      "longitude": 15.0444,
      "base_risk": 9.5,
      "rain_6h_mm": 0.0,
      "humidity_avg": 20.7,
      "soil_moisture_avg": 0.0,
      "rain_mult": 0.0,
      "soil_mult": 0.95,
      "humidity_mult": 1.01,
      "raw_dynamic_score": 0.0,
      "dynamic_level": "None"
    },
    {
      "id": "180",
      "country": "Chile",
      "name": "Antofagasta",
      "latitude": -23.65,
      "longitude": -70.4,
      "base_risk": 9.14,
      "rain_6h_mm": 0.0,
      "humidity_avg": 67.2,
      "soil_moisture_avg": 0.0,
      "rain_mult": 0.0,
      "soil_mult": 0.95,
      "humidity_mult": 1.034,
      "raw_dynamic_score": 0.0,
      "dynamic_level": "None"
    },
    {
      "id": "181",
      "country": "Chile",
      "name": "Concepción",
      "latitude": -36.827,
      "longitude": -73.0498,
      "base_risk": 9.03,
      "rain_6h_mm": 0.0,
      "humidity_avg": 84.3,
      "soil_moisture_avg": 0.0,
      "rain_mult": 0.0,
      "soil_mult": 0.95,
      "humidity_mult": 1.042,
      "raw_dynamic_score": 0.0,
      "dynamic_level": "None"
    },
    {
      "id": "187",
      "country": "China",
      "name": "Ankang",
      "latitude": 32.6912,
      "longitude": 109.0297,
      "base_risk": 9.33,
      "rain_6h_mm": 0.0,
      "humidity_avg": 89.3,
      "soil_moisture_avg": 0.0,
      "rain_mult": 0.0,
      "soil_mult": 0.95,
      "humidity_mult": 1.045,
      "raw_dynamic_score": 0.0,
      "dynamic_level": "None"
    },
    {
      "id": "188",
      "country": "China",
      "name": "Anlu",
      "latitude": 31.2575,
      "longitude": 113.6783,
      "base_risk": 9.31,
      "rain_6h_mm": 0.0,
      "humidity_avg": 83.7,
      "soil_moisture_avg": 0.0,
      "rain_mult": 0.0,
      "soil_mult": 0.95,
      "humidity_mult": 1.042,
      "raw_dynamic_score": 0.0,
      "dynamic_level": "None"
    },
    {
      "id": "189",
      "country": "China",
      "name": "Anning",
      "latitude": 24.9211,
      "longitude": 102.4784,
      "base_risk": 8.75,
      "rain_6h_mm": 6.1,
      "humidity_avg": 93.0,
      "soil_moisture_avg": 0.0,
      "rain_mult": 0.061,
      "soil_mult": 0.95,
      "humidity_mult": 1.046,
      "raw_dynamic_score": 0.531,
      "dynamic_level": "Low"
    },
    {
      "id": "190",
      "country": "China",
      "name": "Anqing",
      "latitude": 30.543,
      "longitude": 117.0533,
      "base_risk": 8.83,
      "rain_6h_mm": 0.8,
      "humidity_avg": 88.7,
      "soil_moisture_avg": 0.0,
      "rain_mult": 0.008,
      "soil_mult": 0.95,
      "humidity_mult": 1.044,
      "raw_dynamic_score": 0.07,
      "dynamic_level": "Low"
    },
    {
      "id": "191",
      "country": "China",
      "name": "Anqiu",
      "latitude": 36.4342,
      "longitude": 119.1925,
      "base_risk": 9.2,
      "rain_6h_mm": 0.0,
      "humidity_avg": 93.7,
      "soil_moisture_avg": 0.0,
      "rain_mult": 0.0,
      "soil_mult": 0.95,
      "humidity_mult": 1.047,
      "raw_dynamic_score": 0.0,
      "dynamic_level": "None"
    },
    {
      "id": "196",
      "country": "China",
      "name": "Baishan",
      "latitude": 41.9373,
      "longitude": 126.4229,
      "base_risk": 9.41,
      "rain_6h_mm": 0.4,
      "humidity_avg": 95.8,
      "soil_moisture_avg": 0.0,
      "rain_mult": 0.004,
      "soil_mult": 0.95,
      "humidity_mult": 1.048,
      "raw_dynamic_score": 0.037,
      "dynamic_level": "Low"
    },
    {
      "id": "197",
      "country": "China",
      "name": "Baiyin",
      "latitude": 36.5487,
      "longitude": 104.1831,
      "base_risk": 9.14,
      "rain_6h_mm": 0.0,
      "humidity_avg": 65.7,
      "soil_moisture_avg": 0.0,
      "rain_mult": 0.0,
      "soil_mult": 0.95,
      "humidity_mult": 1.033,
      "raw_dynamic_score": 0.0,
      "dynamic_level": "None"
    },
    {
      "id": "198",
      "country": "China",
      "name": "Baoding",
      "latitude": 38.8511,
      "longitude": 115.4903,
      "base_risk": 9.47,
      "rain_6h_mm": 0.0,
      "humidity_avg": 83.5,
      "soil_moisture_avg": 0.0,
      "rain_mult": 0.0,
      "soil_mult": 0.95,
      "humidity_mult": 1.042,
      "raw_dynamic_score": 0.0,
      "dynamic_level": "None"
    },
    {
      "id": "199",
      "country": "China",
      "name": "Baoji",
      "latitude": 34.3651,
      "longitude": 107.2004,
      "base_risk": 9.41,
      "rain_6h_mm": 0.0,
      "humidity_avg": 75.3,
      "soil_moisture_avg": 0.0,
      "rain_mult": 0.0,
      "soil_mult": 0.95,
      "humidity_mult": 1.038,
      "raw_dynamic_score": 0.0,
      "dynamic_level": "None"
    },
    {
      "id": "200",
      "country": "China",
      "name": "Baotou",
      "latitude": 40.6522,
      "longitude": 109.8222,
      "base_risk": 9.06,
      "rain_6h_mm": 0.0,
      "humidity_avg": 62.7,
      "soil_moisture_avg": 0.0,
      "rain_mult": 0.0,
      "soil_mult": 0.95,
      "humidity_mult": 1.031,
      "raw_dynamic_score": 0.0,
      "dynamic_level": "None"
    },
    {
      "id": "206",
      "country": "China",
      "name": "Benxi",
      "latitude": 41.2886,
      "longitude": 123.765,
      "base_risk": 8.95,
      "rain_6h_mm": 0.0,
      "humidity_avg": 82.5,
      "soil_moisture_avg": 0.0,
      "rain_mult": 0.0,
      "soil_mult": 0.95,
      "humidity_mult": 1.041,
      "raw_dynamic_score": 0.0,
      "dynamic_level": "None"
    },
    {
      "id": "207",
      "country": "China",
      "name": "Bijie",
      "latitude": 27.307,
      "longitude": 105.2837,
      "base_risk": 9.1,
      "rain_6h_mm": 4.9,
      "humidity_avg": 97.3,
      "soil_moisture_avg": 0.0,
      "rain_mult": 0.049,
      "soil_mult": 0.95,
      "humidity_mult": 1.049,
      "raw_dynamic_score": 0.444,
      "dynamic_level": "Low"
    },
    {
      "id": "208",
      "country": "China",
      "name": "Binzhou",
      "latitude": 37.3811,
      "longitude": 118.0109,
      "base_risk": 8.83,
      "rain_6h_mm": 0.0,
      "humidity_avg": 94.2,
      "soil_moisture_avg": 0.0,
      "rain_mult": 0.0,
      "soil_mult": 0.95,
      "humidity_mult": 1.047,
      "raw_dynamic_score": 0.0,
      "dynamic_level": "None"
    },
    {
      "id": "209",
      "country": "China",
      "name": "Botou",
      "latitude": 38.0667,
      "longitude": 116.5667,
      "base_risk": 9.27,
      "rain_6h_mm": 0.0,
      "humidity_avg": 94.8,
      "soil_moisture_avg": 0.0,
      "rain_mult": 0.0,
      "soil_mult": 0.95,
      "humidity_mult": 1.047,
      "raw_dynamic_score": 0.0,
      "dynamic_level": "None"
    },
    {
      "id": "210",
      "country": "China",
      "name": "Bozhou",
      "latitude": 33.8703,
      "longitude": 115.777,
      "base_risk": 9.31,
      "rain_6h_mm": 0.0,
      "humidity_avg": 95.0,
      "soil_moisture_avg": 0.0,
      "rain_mult": 0.0,
      "soil_mult": 0.95,
      "humidity_mult": 1.048,
      "raw_dynamic_score": 0.0,
      "dynamic_level": "None"
    },
    {
      "id": "216",
      "country": "China",
      "name": "Changji",
      "latitude": 44.0117,
      "longitude": 87.3038,
      "base_risk": 9.32,
      "rain_6h_mm": 0.0,
      "humidity_avg": 78.5,
      "soil_moisture_avg": 0.0,
      "rain_mult": 0.0,
      "soil_mult": 0.95,
      "humidity_mult": 1.039,
      "raw_dynamic_score": 0.0,
      "dynamic_level": "None"
    },
    {
      "id": "217",
      "country": "China",
      "name": "Changning",
      "latitude": 26.4078,
      "longitude": 112.3957,
      "base_risk": 9.45,
      "rain_6h_mm": 0.0,
      "humidity_avg": 89.2,
      "soil_moisture_avg": 0.0,
      "rain_mult": 0.0,
      "soil_mult": 0.95,
      "humidity_mult": 1.045,
      "raw_dynamic_score": 0.0,
      "dynamic_level": "None"
    },
    {
      "id": "218",
      "country": "China",
      "name": "Changsha",
      "latitude": 28.2274,
      "longitude": 112.9383,
      "base_risk": 9.47,
      "rain_6h_mm": 2.0,
      "humidity_avg": 94.0,
      "soil_moisture_avg": 0.0,
      "rain_mult": 0.02,
      "soil_mult": 0.95,
      "humidity_mult": 1.047,
      "raw_dynamic_score": 0.188,
      "dynamic_level": "Low"
    },
    {
      "id": "219",
      "country": "China",
      "name": "Changshu",
      "latitude": 31.6539,
      "longitude": 120.7467,
      "base_risk": 9.47,
      "rain_6h_mm": 0.0,
      "humidity_avg": 88.8,
      "soil_moisture_avg": 0.0,
      "rain_mult": 0.0,
      "soil_mult": 0.95,
      "humidity_mult": 1.044,
      "raw_dynamic_score": 0.0,
      "dynamic_level": "None"
    },
    {
      "id": "225",
      "country": "China",
      "name": "Chaozhou",
      "latitude": 23.6651,
      "longitude": 116.6379,
      "base_risk": 9.41,
      "rain_6h_mm": 0.0,
      "humidity_avg": 84.3,
      "soil_moisture_avg": 0.0,
      "rain_mult": 0.0,
      "soil_mult": 0.95,
      "humidity_mult": 1.042,
      "raw_dynamic_score": 0.0,
      "dynamic_level": "None"
    },
    {
      "id": "226",
      "country": "China",
      "name": "Chengde",
      "latitude": 40.9672,
      "longitude": 117.9322,
      "base_risk": 9.08,
      "rain_6h_mm": 0.0,
      "humidity_avg": 71.7,
      "soil_moisture_avg": 0.0,
      "rain_mult": 0.0,
      "soil_mult": 0.95,
      "humidity_mult": 1.036,
      "raw_dynamic_score": 0.0,
      "dynamic_level": "None"
    },
    {
      "id": "227",
      "country": "China",
      "name": "Chengdu",
      "latitude": 30.6667,
      "longitude": 104.0667,
      "base_risk": 9.37,
      "rain_6h_mm": 0.0,
      "humidity_avg": 74.7,
      "soil_moisture_avg": 0.0,
      "rain_mult": 0.0,
      "soil_mult": 0.95,
      "humidity_mult": 1.037,
      "raw_dynamic_score": 0.0,
      "dynamic_level": "None"
    },
    {
      "id": "228",
      "country": "China",
      "name": "Chenzhou",
      "latitude": 25.8,
      "longitude": 113.0333,
      "base_risk": 9.28,
      "rain_6h_mm": 0.0,
      "humidity_avg": 92.5,
      "soil_moisture_avg": 0.0,
      "rain_mult": 0.0,
      "soil_mult": 0.95,
      "humidity_mult": 1.046,
      "raw_dynamic_score": 0.0,
      "dynamic_level": "None"
    },
    {
      "id": "229",
      "country": "China",
      "name": "Chifeng",
      "latitude": 42.2646,
      "longitude": 118.9152,
      "base_risk": 9.34,
      "rain_6h_mm": 0.0,
      "humidity_avg": 36.7,
      "soil_moisture_avg": 0.0,
      "rain_mult": 0.0,
      "soil_mult": 0.95,
      "humidity_mult": 1.018,
      "raw_dynamic_score": 0.0,
      "dynamic_level": "None"
    },
    {
      "id": "235",
      "country": "China",
      "name": "Dali",
      "latitude": 25.59,
      "longitude": 100.2235,
      "base_risk": 9.37,
      "rain_6h_mm": 0.0,
      "humidity_avg": 82.5,
      "soil_moisture_avg": 0.0,
      "rain_mult": 0.0,
      "soil_mult": 0.95,
      "humidity_mult": 1.041,
      "raw_dynamic_score": 0.0,
      "dynamic_level": "None"
    },
    {
      "id": "236",
      "country": "China",
      "name": "Dalian",
      "latitude": 38.9138,
      "longitude": 121.6023,
      "base_risk": 9.38,
      "rain_6h_mm": 0.0,
      "humidity_avg": 88.8,
      "soil_moisture_avg": 0.0,
      "rain_mult": 0.0,
      "soil_mult": 0.95,
      "humidity_mult": 1.044,
      "raw_dynamic_score": 0.0,
      "dynamic_level": "None"
    },
    {
      "id": "237",
      "country": "China",
      "name": "Dandong",
      "latitude": 40.1198,
      "longitude": 124.3739,
      "base_risk": 9.13,
      "rain_6h_mm": 0.0,
      "humidity_avg": 99.8,
      "soil_moisture_avg": 0.0,
      "rain_mult": 0.0,
      "soil_mult": 0.95,
      "humidity_mult": 1.05,
      "raw_dynamic_score": 0.0,
      "dynamic_level": "None"
    },
    {
      "id": "238",
      "country": "China",
      "name": "Danyang",
      "latitude": 32.0008,
      "longitude": 119.5745,
      "base_risk": 9.3,
      "rain_6h_mm": 0.0,
      "humidity_avg": 88.3,
      "soil_moisture_avg": 0.0,
      "rain_mult": 0.0,
      "soil_mult": 0.95,
      "humidity_mult": 1.044,
      "raw_dynamic_score": 0.0,
      "dynamic_level": "None"
    },
    {
      "id": "239",
      "country": "China",
      "name": "Danzhou",
      "latitude": 19.5166,
      "longitude": 109.5752,
      "base_risk": 9.13,
      "rain_6h_mm": 0.0,
      "humidity_avg": 92.2,
      "soil_moisture_avg": 0.0,
      "rain_mult": 0.0,
      "soil_mult": 0.95,
      "humidity_mult": 1.046,
      "raw_dynamic_score": 0.0,
      "dynamic_level": "None"
    },
    {
      "id": "245",
      "country": "China",
      "name": "Dengfeng",
      "latitude": 34.4553,
      "longitude": 113.0281,
      "base_risk": 9.43,
      "rain_6h_mm": 0.0,
      "humidity_avg": 79.3,
      "soil_moisture_avg": 0.0,
      "rain_mult": 0.0,
      "soil_mult": 0.95,
      "humidity_mult": 1.04,
      "raw_dynamic_score": 0.0,
      "dynamic_level": "None"
    },
    {
      "id": "246",
      "country": "China",
      "name": "Dengzhou",
      "latitude": 32.6822,
      "longitude": 112.0819,
      "base_risk": 8.84,
      "rain_6h_mm": 0.0,
      "humidity_avg": 81.3,
      "soil_moisture_avg": 0.0,
      "rain_mult": 0.0,
      "soil_mult": 0.95,
      "humidity_mult": 1.041,
      "raw_dynamic_score": 0.0,
      "dynamic_level": "None"
    },
    {
      "id": "247",
      "country": "China",
      "name": "Deyang",
      "latitude": 31.1302,
      "longitude": 104.382,
      "base_risk": 8.94,
      "rain_6h_mm": 0.1,
      "humidity_avg": 82.0,
      "soil_moisture_avg": 0.0,
      "rain_mult": 0.001,
      "soil_mult": 0.95,
      "humidity_mult": 1.041,
      "raw_dynamic_score": 0.009,
      "dynamic_level": "Low"
    },
    {
      "id": "248",
      "country": "China",
      "name": "Dezhou",
      "latitude": 37.4518,
      "longitude": 116.301,
      "base_risk": 9.16,
      "rain_6h_mm": 0.0,
      "humidity_avg": 93.0,
      "soil_moisture_avg": 0.0,
      "rain_mult": 0.0,
      "soil_mult": 0.95,
      "humidity_mult": 1.046,
      "raw_dynamic_score": 0.0,
      "dynamic_level": "None"
    },
    {
      "id": "249",
      "country": "China",
      "name": "Dingzhou",
      "latitude": 38.5131,
      "longitude": 114.9956,
      "base_risk": 8.79,
      "rain_6h_mm": 0.0,
      "humidity_avg": 96.8,
      "soil_moisture_avg": 0.0,
      "rain_mult": 0.0,
      "soil_mult": 0.95,
      "humidity_mult": 1.048,
      "raw_dynamic_score": 0.0,
      "dynamic_level": "None"
    },
    {
      "id": "255",
      "country": "China",
      "name": "Dujiangyan",
      "latitude": 30.9966,
      "longitude": 103.6281,
      "base_risk": 8.88,
      "rain_6h_mm": 2.9,
      "humidity_avg": 78.3,
      "soil_moisture_avg": 0.0,
      "rain_mult": 0.029,
      "soil_mult": 0.95,
      "humidity_mult": 1.039,
      "raw_dynamic_score": 0.254,
      "dynamic_level": "Low"
    },
    {
      "id": "256",
      "country": "China",
      "name": "Emeishan",
      "latitude": 29.6007,
      "longitude": 103.4856,
      "base_risk": 9.4,
      "rain_6h_mm": 0.0,
      "humidity_avg": 76.3,
      "soil_moisture_avg": 0.0,
      "rain_mult": 0.0,
      "soil_mult": 0.95,
      "humidity_mult": 1.038,
      "raw_dynamic_score": 0.0,
      "dynamic_level": "None"
    },
    {
      "id": "257",
      "country": "China",
      "name": "Enping",
      "latitude": 22.1853,
      "longitude": 112.3048,
      "base_risk": 8.94,
      "rain_6h_mm": 0.0,
      "humidity_avg": 94.2,
      "soil_moisture_avg": 0.0,
      "rain_mult": 0.0,
      "soil_mult": 0.95,
      "humidity_mult": 1.047,
      "raw_dynamic_score": 0.0,
      "dynamic_level": "None"
    },
    {
      "id": "258",
      "country": "China",
      "name": "Enshi",
      "latitude": 30.2902,
      "longitude": 109.4785,
      "base_risk": 9.13,
      "rain_6h_mm": 0.8,
      "humidity_avg": 97.7,
      "soil_moisture_avg": 0.0,
      "rain_mult": 0.008,
      "soil_mult": 0.95,
      "humidity_mult": 1.049,
      "raw_dynamic_score": 0.073,
      "dynamic_level": "Low"
    },
    {
      "id": "259",
      "country": "China",
      "name": "Erduosi (Ordoss)",
      "latitude": 39.5917,
      "longitude": 109.7666,
      "base_risk": 8.74,
      "rain_6h_mm": 0.0,
      "humidity_avg": 62.0,
      "soil_moisture_avg": 0.0,
      "rain_mult": 0.0,
      "soil_mult": 0.95,
      "humidity_mult": 1.031,
      "raw_dynamic_score": 0.0,
      "dynamic_level": "None"
    },
    {
      "id": "262",
      "country": "China",
      "name": "Feicheng",
      "latitude": 36.1854,
      "longitude": 116.7674,
      "base_risk": 9.36,
      "rain_6h_mm": 0.0,
      "humidity_avg": 96.7,
      "soil_moisture_avg": 0.0,
      "rain_mult": 0.0,
      "soil_mult": 0.95,
      "humidity_mult": 1.048,
      "raw_dynamic_score": 0.0,
      "dynamic_level": "None"
    },
    {
      "id": "263",
      "country": "China",
      "name": "Fengcheng",
      "latitude": 28.1787,
      "longitude": 115.7758,
      "base_risk": 9.5,
      "rain_6h_mm": 1.6,
      "humidity_avg": 88.8,
      "soil_moisture_avg": 0.0,
      "rain_mult": 0.016,
      "soil_mult": 0.95,
      "humidity_mult": 1.044,
      "raw_dynamic_score": 0.151,
      "dynamic_level": "Low"
    },
    {
      "id": "267",
      "country": "China",
      "name": "Fuqing",
      "latitude": 25.725,
      "longitude": 119.3794,
      "base_risk": 9.43,
      "rain_6h_mm": 0.0,
      "humidity_avg": 77.7,
      "soil_moisture_avg": 0.0,
      "rain_mult": 0.0,
      "soil_mult": 0.95,
      "humidity_mult": 1.039,
      "raw_dynamic_score": 0.0,
      "dynamic_level": "None"
    },
    {
      "id": "268",
      "country": "China",
      "name": "Fushun, Liaoning",
      "latitude": 41.8807,
      "longitude": 123.9467,
      "base_risk": 9.47,
      "rain_6h_mm": 0.0,
      "humidity_avg": 93.7,
      "soil_moisture_avg": 0.0,
      "rain_mult": 0.0,
      "soil_mult": 0.95,
      "humidity_mult": 1.047,
      "raw_dynamic_score": 0.0,
      "dynamic_level": "None"
    },
    {
      "id": "269",
      "country": "China",
      "name": "Fuxin",
      "latitude": 42.0156,
      "longitude": 121.6589,
      "base_risk": 9.31,
      "rain_6h_mm": 0.0,
      "humidity_avg": 69.7,
      "soil_moisture_avg": 0.0,
      "rain_mult": 0.0,
      "soil_mult": 0.95,
      "humidity_mult": 1.035,
      "raw_dynamic_score": 0.0,
      "dynamic_level": "None"
    },
    {
      "id": "273",
      "country": "China",
      "name": "Ganzhou",
      "latitude": 25.85,
      "longitude": 114.9333,
      "base_risk": 8.63,
      "rain_6h_mm": 0.0,
      "humidity_avg": 84.0,
      "soil_moisture_avg": 0.0,
      "rain_mult": 0.0,
      "soil_mult": 0.95,
      "humidity_mult": 1.042,
      "raw_dynamic_score": 0.0,
      "dynamic_level": "None"
    },
    {
      "id": "277",
      "country": "China",
      "name": "Gaoyou",
      "latitude": 32.7791,
      "longitude": 119.447,
      "base_risk": 8.72,
      "rain_6h_mm": 0.0,
      "humidity_avg": 87.0,
      "soil_moisture_avg": 0.0,
      "rain_mult": 0.0,
      "soil_mult": 0.95,
      "humidity_mult": 1.044,
      "raw_dynamic_score": 0.0,
      "dynamic_level": "None"
    },
    {
      "id": "278",
      "country": "China",
      "name": "Gaozhou",
      "latitude": 21.9159,
      "longitude": 110.8499,
      "base_risk": 8.95,
      "rain_6h_mm": 0.3,
      "humidity_avg": 91.7,
      "soil_moisture_avg": 0.0,
      "rain_mult": 0.003,
      "soil_mult": 0.95,
      "humidity_mult": 1.046,
      "raw_dynamic_score": 0.027,
      "dynamic_level": "Low"
    },
    {
      "id": "279",
      "country": "China",
      "name": "Gongyi",
      "latitude": 34.76,
      "longitude": 112.9714,
      "base_risk": 9.2,
      "rain_6h_mm": 0.0,
      "humidity_avg": 78.2,
      "soil_moisture_avg": 0.0,
      "rain_mult": 0.0,
      "soil_mult": 0.95,
      "humidity_mult": 1.039,
      "raw_dynamic_score": 0.0,
      "dynamic_level": "None"
    },
    {
      "id": "280",
      "country": "China",
      "name": "Gongzhuling",
      "latitude": 43.5008,
      "longitude": 124.8198,
      "base_risk": 9.1,
      "rain_6h_mm": 0.0,
      "humidity_avg": 93.0,
      "soil_moisture_avg": 0.0,
      "rain_mult": 0.0,
      "soil_mult": 0.95,
      "humidity_mult": 1.046,
      "raw_dynamic_score": 0.0,
      "dynamic_level": "None"
    },
    {
      "id": "281",
      "country": "China",
      "name": "Guang'an",
      "latitude": 30.4639,
      "longitude": 106.6351,
      "base_risk": 9.03,
      "rain_6h_mm": 0.0,
      "humidity_avg": 93.2,
      "soil_moisture_avg": 0.0,
      "rain_mult": 0.0,
      "soil_mult": 0.95,
      "humidity_mult": 1.047,
      "raw_dynamic_score": 0.0,
      "dynamic_level": "None"
    },
    {
      "id": "285",
      "country": "China",
      "name": "Guilin",
      "latitude": 25.2819,
      "longitude": 110.2864,
      "base_risk": 9.5,
      "rain_6h_mm": 0.0,
      "humidity_avg": 84.7,
      "soil_moisture_avg": 0.0,
      "rain_mult": 0.0,
      "soil_mult": 0.95,
      "humidity_mult": 1.042,
      "raw_dynamic_score": 0.0,
      "dynamic_level": "None"
    },
    {
      "id": "286",
      "country": "China",
      "name": "Guiping",
      "latitude": 23.3934,
      "longitude": 110.0744,
      "base_risk": 8.96,
      "rain_6h_mm": 1.0,
      "humidity_avg": 93.7,
      "soil_moisture_avg": 0.0,
      "rain_mult": 0.01,
      "soil_mult": 0.95,
      "humidity_mult": 1.047,
      "raw_dynamic_score": 0.089,
      "dynamic_level": "Low"
    },
    {
      "id": "287",
      "country": "China",
      "name": "Guiyang",
      "latitude": 26.5833,
      "longitude": 106.7167,
      "base_risk": 8.82,
      "rain_6h_mm": 5.1,
      "humidity_avg": 93.2,
      "soil_moisture_avg": 0.0,
      "rain_mult": 0.051,
      "soil_mult": 0.95,
      "humidity_mult": 1.047,
      "raw_dynamic_score": 0.447,
      "dynamic_level": "Low"
    },
    {
      "id": "294",
      "country": "China",
      "name": "Haiyang",
      "latitude": 36.7823,
      "longitude": 121.1703,
      "base_risk": 8.9,
      "rain_6h_mm": 0.0,
      "humidity_avg": 90.7,
      "soil_moisture_avg": 0.0,
      "rain_mult": 0.0,
      "soil_mult": 0.95,
      "humidity_mult": 1.045,
      "raw_dynamic_score": 0.0,
      "dynamic_level": "None"
    },
    {
      "id": "295",
      "country": "China",
      "name": "Hami",
      "latitude": 42.8259,
      "longitude": 93.5169,
      "base_risk": 9.0,
      "rain_6h_mm": 0.0,
      "humidity_avg": 80.7,
      "soil_moisture_avg": 0.0,
      "rain_mult": 0.0,
      "soil_mult": 0.95,
      "humidity_mult": 1.04,
      "raw_dynamic_score": 0.0,
      "dynamic_level": "None"
    },
    {
      "id": "296",
      "country": "China",
      "name": "Hanchuan",
      "latitude": 30.6516,
      "longitude": 113.8329,
      "base_risk": 9.14,
      "rain_6h_mm": 0.0,
      "humidity_avg": 86.3,
      "soil_moisture_avg": 0.0,
      "rain_mult": 0.0,
      "soil_mult": 0.95,
      "humidity_mult": 1.043,
      "raw_dynamic_score": 0.0,
      "dynamic_level": "None"
    },
    {
      "id": "297",
      "country": "China",
      "name": "Handan",
      "latitude": 36.6006,
      "longitude": 114.4678,
      "base_risk": 8.73,
      "rain_6h_mm": 0.0,
      "humidity_avg": 93.7,
      "soil_moisture_avg": 0.0,
      "rain_mult": 0.0,
      "soil_mult": 0.95,
      "humidity_mult": 1.047,
      "raw_dynamic_score": 0.0,
      "dynamic_level": "None"
    },
    {
      "id": "298",
      "country": "China",
      "name": "Hangzhou",
      "latitude": 30.2937,
      "longitude": 120.1614,
      "base_risk": 9.47,
      "rain_6h_mm": 1.5,
      "humidity_avg": 90.5,
      "soil_moisture_avg": 0.0,
      "rain_mult": 0.015,
      "soil_mult": 0.95,
      "humidity_mult": 1.045,
      "raw_dynamic_score": 0.141,
      "dynamic_level": "Low"
    },
    {
      "id": "304",
      "country": "China",
      "name": "Hejian",
      "latitude": 38.4425,
      "longitude": 116.0949,
      "base_risk": 9.31,
      "rain_6h_mm": 0.0,
      "humidity_avg": 94.2,
      "soil_moisture_avg": 0.0,
      "rain_mult": 0.0,
      "soil_mult": 0.95,
      "humidity_mult": 1.047,
      "raw_dynamic_score": 0.0,
      "dynamic_level": "None"
    },
    {
      "id": "305",
      "country": "China",
      "name": "Hengshui",
      "latitude": 37.7411,
      "longitude": 115.6781,
      "base_risk": 9.14,
      "rain_6h_mm": 0.0,
      "humidity_avg": 94.2,
      "soil_moisture_avg": 0.0,
      "rain_mult": 0.0,
      "soil_mult": 0.95,
      "humidity_mult": 1.047,
      "raw_dynamic_score": 0.0,
      "dynamic_level": "None"
    },
    {
      "id": "306",
      "country": "China",
      "name": "Hengyang",
      "latitude": 26.8841,
      "longitude": 112.6251,
      "base_risk": 8.99,
      "rain_6h_mm": 0.0,
      "humidity_avg": 91.0,
      "soil_moisture_avg": 0.0,
      "rain_mult": 0.0,
      "soil_mult": 0.95,
      "humidity_mult": 1.046,
      "raw_dynamic_score": 0.0,
      "dynamic_level": "None"
    },
    {
      "id": "307",
      "country": "China",
      "name": "Heshan",
      "latitude": 22.7659,
      "longitude": 112.959,
      "base_risk": 9.5,
      "rain_6h_mm": 0.0,
      "humidity_avg": 88.8,
      "soil_moisture_avg": 0.0,
      "rain_mult": 0.0,
      "soil_mult": 0.95,
      "humidity_mult": 1.044,
      "raw_dynamic_score": 0.0,
      "dynamic_level": "None"
    },
    {
      "id": "308",
      "country": "China",
      "name": "Heyuan",
      "latitude": 23.7509,
      "longitude": 114.6992,
      "base_risk": 9.5,
      "rain_6h_mm": 0.0,
      "humidity_avg": 77.8,
      "soil_moisture_avg": 0.0,
      "rain_mult": 0.0,
      "soil_mult": 0.95,
      "humidity_mult": 1.039,
      "raw_dynamic_score": 0.0,
      "dynamic_level": "None"
    },
    {
      "id": "314",
      "country": "China",
      "name": "Huaihua",
      "latitude": 27.5494,
      "longitude": 109.9592,
      "base_risk": 9.44,
      "rain_6h_mm": 0.0,
      "humidity_avg": 87.7,
      "soil_moisture_avg": 0.0,
      "rain_mult": 0.0,
      "soil_mult": 0.95,
      "humidity_mult": 1.044,
      "raw_dynamic_score": 0.0,
      "dynamic_level": "None"
    },
    {
      "id": "315",
      "country": "China",
      "name": "Huainan",
      "latitude": 32.6264,
      "longitude": 116.9969,
      "base_risk": 9.11,
      "rain_6h_mm": 0.0,
      "humidity_avg": 93.8,
      "soil_moisture_avg": 0.0,
      "rain_mult": 0.0,
      "soil_mult": 0.95,
      "humidity_mult": 1.047,
      "raw_dynamic_score": 0.0,
      "dynamic_level": "None"
    },
    {
      "id": "316",
      "country": "China",
      "name": "Huangshan",
      "latitude": 29.7127,
      "longitude": 118.3225,
      "base_risk": 9.05,
      "rain_6h_mm": 3.0,
      "humidity_avg": 91.5,
      "soil_moisture_avg": 0.0,
      "rain_mult": 0.03,
      "soil_mult": 0.95,
      "humidity_mult": 1.046,
      "raw_dynamic_score": 0.27,
      "dynamic_level": "Low"
    },
    {
      "id": "317",
      "country": "China",
      "name": "Huangshi",
      "latitude": 30.2068,
      "longitude": 115.0855,
      "base_risk": 9.45,
      "rain_6h_mm": 1.8,
      "humidity_avg": 90.8,
      "soil_moisture_avg": 0.0,
      "rain_mult": 0.018,
      "soil_mult": 0.95,
      "humidity_mult": 1.045,
      "raw_dynamic_score": 0.169,
      "dynamic_level": "Low"
    },
    {
      "id": "318",
      "country": "China",
      "name": "Huazhou",
      "latitude": 21.6572,
      "longitude": 110.6391,
      "base_risk": 8.68,
      "rain_6h_mm": 0.0,
      "humidity_avg": 91.8,
      "soil_moisture_avg": 0.0,
      "rain_mult": 0.0,
      "soil_mult": 0.95,
      "humidity_mult": 1.046,
      "raw_dynamic_score": 0.0,
      "dynamic_level": "None"
    },
    {
      "id": "324",
      "country": "China",
      "name": "Ji'an, Jiangxi",
      "latitude": 27.1177,
      "longitude": 114.9804,
      "base_risk": 9.24,
      "rain_6h_mm": 0.0,
      "humidity_avg": 90.8,
      "soil_moisture_avg": 0.0,
      "rain_mult": 0.0,
      "soil_mult": 0.95,
      "humidity_mult": 1.045,
      "raw_dynamic_score": 0.0,
      "dynamic_level": "None"
    },
    {
      "id": "325",
      "country": "China",
      "name": "Jiangmen",
      "latitude": 22.5833,
      "longitude": 113.0833,
      "base_risk": 9.07,
      "rain_6h_mm": 0.0,
      "humidity_avg": 88.2,
      "soil_moisture_avg": 0.0,
      "rain_mult": 0.0,
      "soil_mult": 0.95,
      "humidity_mult": 1.044,
      "raw_dynamic_score": 0.0,
      "dynamic_level": "None"
    },
    {
      "id": "326",
      "country": "China",
      "name": "Jiangyin",
      "latitude": 31.9157,
      "longitude": 120.281,
      "base_risk": 9.09,
      "rain_6h_mm": 0.0,
      "humidity_avg": 89.2,
      "soil_moisture_avg": 0.0,
      "rain_mult": 0.0,
      "soil_mult": 0.95,
      "humidity_mult": 1.045,
      "raw_dynamic_score": 0.0,
      "dynamic_level": "None"
    },
    {
      "id": "327",
      "country": "China",
      "name": "Jianyang",
      "latitude": 30.3921,
      "longitude": 104.5448,
      "base_risk": 9.39,
      "rain_6h_mm": 0.0,
      "humidity_avg": 77.2,
      "soil_moisture_avg": 0.0,
      "rain_mult": 0.0,
      "soil_mult": 0.95,
      "humidity_mult": 1.039,
      "raw_dynamic_score": 0.0,
      "dynamic_level": "None"
    },
    {
      "id": "328",
      "country": "China",
      "name": "Jiaozhou",
      "latitude": 36.2839,
      "longitude": 120.0033,
      "base_risk": 9.02,
      "rain_6h_mm": 0.0,
      "humidity_avg": 96.5,
      "soil_moisture_avg": 0.0,
      "rain_mult": 0.0,
      "soil_mult": 0.95,
      "humidity_mult": 1.048,
      "raw_dynamic_score": 0.0,
      "dynamic_level": "None"
    },
    {
      "id": "334",
      "country": "China",
      "name": "Ji'nan, Shandong",
      "latitude": 36.6767,
      "longitude": 116.9971,
      "base_risk": 9.3,
      "rain_6h_mm": 0.0,
      "humidity_avg": 95.5,
      "soil_moisture_avg": 0.0,
      "rain_mult": 0.0,
      "soil_mult": 0.95,
      "humidity_mult": 1.048,
      "raw_dynamic_score": 0.0,
      "dynamic_level": "None"
    },
    {
      "id": "335",
      "country": "China",
      "name": "Jincheng",
      "latitude": 35.4865,
      "longitude": 112.8515,
      "base_risk": 9.38,
      "rain_6h_mm": 0.0,
      "humidity_avg": 82.2,
      "soil_moisture_avg": 0.0,
      "rain_mult": 0.0,
      "soil_mult": 0.95,
      "humidity_mult": 1.041,
      "raw_dynamic_score": 0.0,
      "dynamic_level": "None"
    },
    {
      "id": "336",
      "country": "China",
      "name": "Jingdezhen",
      "latitude": 29.2947,
      "longitude": 117.2079,
      "base_risk": 9.23,
      "rain_6h_mm": 1.3,
      "humidity_avg": 90.5,
      "soil_moisture_avg": 0.0,
      "rain_mult": 0.013,
      "soil_mult": 0.95,
      "humidity_mult": 1.045,
      "raw_dynamic_score": 0.119,
      "dynamic_level": "Low"
    },
    {
      "id": "337",
      "country": "China",
      "name": "Jingjiang",
      "latitude": 32.012,
      "longitude": 120.2627,
      "base_risk": 9.47,
      "rain_6h_mm": 0.0,
      "humidity_avg": 88.8,
      "soil_moisture_avg": 0.0,
      "rain_mult": 0.0,
      "soil_mult": 0.95,
      "humidity_mult": 1.044,
      "raw_dynamic_score": 0.0,
      "dynamic_level": "None"
    },
    {
      "id": "342",
      "country": "China",
      "name": "Jinjiang",
      "latitude": 24.8106,
      "longitude": 118.5773,
      "base_risk": 9.08,
      "rain_6h_mm": 0.0,
      "humidity_avg": 75.0,
      "soil_moisture_avg": 0.0,
      "rain_mult": 0.0,
      "soil_mult": 0.95,
      "humidity_mult": 1.038,
      "raw_dynamic_score": 0.0,
      "dynamic_level": "None"
    },
    {
      "id": "343",
      "country": "China",
      "name": "Jinzhong",
      "latitude": 37.6882,
      "longitude": 112.7349,
      "base_risk": 8.96,
      "rain_6h_mm": 0.0,
      "humidity_avg": 69.8,
      "soil_moisture_avg": 0.0,
      "rain_mult": 0.0,
      "soil_mult": 0.95,
      "humidity_mult": 1.035,
      "raw_dynamic_score": 0.0,
      "dynamic_level": "None"
    },
    {
      "id": "344",
      "country": "China",
      "name": "Jinzhou",
      "latitude": 41.1078,
      "longitude": 121.1417,
      "base_risk": 9.47,
      "rain_6h_mm": 0.0,
      "humidity_avg": 72.3,
      "soil_moisture_avg": 0.0,
      "rain_mult": 0.0,
      "soil_mult": 0.95,
      "humidity_mult": 1.036,
      "raw_dynamic_score": 0.0,
      "dynamic_level": "None"
    },
    {
      "id": "345",
      "country": "China",
      "name": "Jiujiang",
      "latitude": 29.7041,
      "longitude": 116.0013,
      "base_risk": 8.61,
      "rain_6h_mm": 8.1,
      "humidity_avg": 94.8,
      "soil_moisture_avg": 0.0,
      "rain_mult": 0.081,
      "soil_mult": 0.95,
      "humidity_mult": 1.047,
      "raw_dynamic_score": 0.694,
      "dynamic_level": "Low"
    },
    {
      "id": "346",
      "country": "China",
      "name": "Jiuquan",
      "latitude": 39.738,
      "longitude": 98.5042,
      "base_risk": 9.25,
      "rain_6h_mm": 0.0,
      "humidity_avg": 40.0,
      "soil_moisture_avg": 0.0,
      "rain_mult": 0.0,
      "soil_mult": 0.95,
      "humidity_mult": 1.02,
      "raw_dynamic_score": 0.0,
      "dynamic_level": "None"
    },
    {
      "id": "351",
      "country": "China",
      "name": "Kaili",
      "latitude": 26.5834,
      "longitude": 107.9719,
      "base_risk": 9.49,
      "rain_6h_mm": 0.0,
      "humidity_avg": 90.0,
      "soil_moisture_avg": 0.0,
      "rain_mult": 0.0,
      "soil_mult": 0.95,
      "humidity_mult": 1.045,
      "raw_dynamic_score": 0.0,
      "dynamic_level": "None"
    },
    {
      "id": "352",
      "country": "China",
      "name": "Kaiping",
      "latitude": 22.3724,
      "longitude": 112.7026,
      "base_risk": 9.24,
      "rain_6h_mm": 0.0,
      "humidity_avg": 91.2,
      "soil_moisture_avg": 0.0,
      "rain_mult": 0.0,
      "soil_mult": 0.95,
      "humidity_mult": 1.046,
      "raw_dynamic_score": 0.0,
      "dynamic_level": "None"
    },
    {
      "id": "353",
      "country": "China",
      "name": "Kelamayi",
      "latitude": 45.5941,
      "longitude": 84.8729,
      "base_risk": 9.23,
      "rain_6h_mm": 0.0,
      "humidity_avg": 62.5,
      "soil_moisture_avg": 0.0,
      "rain_mult": 0.0,
      "soil_mult": 0.95,
      "humidity_mult": 1.031,
      "raw_dynamic_score": 0.0,
      "dynamic_level": "None"
    },
    {
      "id": "356",
      "country": "China",
      "name": "Kunshan ",
      "latitude": 31.3881,
      "longitude": 120.9629,
      "base_risk": 9.16,
      "rain_6h_mm": 0.0,
      "humidity_avg": 88.3,
      "soil_moisture_avg": 0.0,
      "rain_mult": 0.0,
      "soil_mult": 0.95,
      "humidity_mult": 1.044,
      "raw_dynamic_score": 0.0,
      "dynamic_level": "None"
    },
    {
      "id": "358",
      "country": "China",
      "name": "Laiwu",
      "latitude": 36.2074,
      "longitude": 117.672,
      "base_risk": 9.07,
      "rain_6h_mm": 0.0,
      "humidity_avg": 90.0,
      "soil_moisture_avg": 0.0,
      "rain_mult": 0.0,
      "soil_mult": 0.95,
      "humidity_mult": 1.045,
      "raw_dynamic_score": 0.0,
      "dynamic_level": "None"
    },
    {
      "id": "359",
      "country": "China",
      "name": "Laixi",
      "latitude": 36.8651,
      "longitude": 120.5238,
      "base_risk": 9.39,
      "rain_6h_mm": 0.0,
      "humidity_avg": 93.7,
      "soil_moisture_avg": 0.0,
      "rain_mult": 0.0,
      "soil_mult": 0.95,
      "humidity_mult": 1.047,
      "raw_dynamic_score": 0.0,
      "dynamic_level": "None"
    },
    {
      "id": "363",
      "country": "China",
      "name": "Lanzhou",
      "latitude": 36.0564,
      "longitude": 103.7922,
      "base_risk": 9.02,
      "rain_6h_mm": 0.0,
      "humidity_avg": 82.8,
      "soil_moisture_avg": 0.0,
      "rain_mult": 0.0,
      "soil_mult": 0.95,
      "humidity_mult": 1.041,
      "raw_dynamic_score": 0.0,
      "dynamic_level": "None"
    },
    {
      "id": "364",
      "country": "China",
      "name": "Leiyang",
      "latitude": 26.4169,
      "longitude": 112.8503,
      "base_risk": 9.21,
      "rain_6h_mm": 0.0,
      "humidity_avg": 92.5,
      "soil_moisture_avg": 0.0,
      "rain_mult": 0.0,
      "soil_mult": 0.95,
      "humidity_mult": 1.046,
      "raw_dynamic_score": 0.0,
      "dynamic_level": "None"
    },
    {
      "id": "368",
      "country": "China",
      "name": "Lianyungang",
      "latitude": 34.5969,
      "longitude": 119.1758,
      "base_risk": 9.49,
      "rain_6h_mm": 0.0,
      "humidity_avg": 89.7,
      "soil_moisture_avg": 0.0,
      "rain_mult": 0.0,
      "soil_mult": 0.95,
      "humidity_mult": 1.045,
      "raw_dynamic_score": 0.0,
      "dynamic_level": "None"
    },
    {
      "id": "369",
      "country": "China",
      "name": "Liaocheng",
      "latitude": 36.4551,
      "longitude": 115.9826,
      "base_risk": 9.39,
      "rain_6h_mm": 0.0,
      "humidity_avg": 96.3,
      "soil_moisture_avg": 0.0,
      "rain_mult": 0.0,
      "soil_mult": 0.95,
      "humidity_mult": 1.048,
      "raw_dynamic_score": 0.0,
      "dynamic_level": "None"
    },
    {
      "id": "370",
      "country": "China",
      "name": "Liaoyang",
      "latitude": 41.2719,
      "longitude": 123.1731,
      "base_risk": 9.08,
      "rain_6h_mm": 0.0,
      "humidity_avg": 93.5,
      "soil_moisture_avg": 0.0,
      "rain_mult": 0.0,
      "soil_mult": 0.95,
      "humidity_mult": 1.047,
      "raw_dynamic_score": 0.0,
      "dynamic_level": "None"
    },
    {
      "id": "371",
      "country": "China",
      "name": "Liaoyuan",
      "latitude": 42.9036,
      "longitude": 125.1358,
      "base_risk": 9.0,
      "rain_6h_mm": 0.7,
      "humidity_avg": 90.7,
      "soil_moisture_avg": 0.0,
      "rain_mult": 0.007,
      "soil_mult": 0.95,
      "humidity_mult": 1.045,
      "raw_dynamic_score": 0.063,
      "dynamic_level": "Low"
    },
    {
      "id": "372",
      "country": "China",
      "name": "Liling",
      "latitude": 27.6667,
      "longitude": 113.5,
      "base_risk": 9.43,
      "rain_6h_mm": 0.0,
      "humidity_avg": 94.8,
      "soil_moisture_avg": 0.0,
      "rain_mult": 0.0,
      "soil_mult": 0.95,
      "humidity_mult": 1.047,
      "raw_dynamic_score": 0.0,
      "dynamic_level": "None"
    },
    {
      "id": "376",
      "country": "China",
      "name": "Linyi, Shandong",
      "latitude": 35.0541,
      "longitude": 118.3334,
      "base_risk": 9.35,
      "rain_6h_mm": 0.0,
      "humidity_avg": 93.3,
      "soil_moisture_avg": 0.0,
      "rain_mult": 0.0,
      "soil_mult": 0.95,
      "humidity_mult": 1.047,
      "raw_dynamic_score": 0.0,
      "dynamic_level": "None"
    },
    {
      "id": "380",
      "country": "China",
      "name": "Liupanshui",
      "latitude": 26.5923,
      "longitude": 104.8377,
      "base_risk": 9.18,
      "rain_6h_mm": 8.5,
      "humidity_avg": 97.2,
      "soil_moisture_avg": 0.0,
      "rain_mult": 0.085,
      "soil_mult": 0.95,
      "humidity_mult": 1.049,
      "raw_dynamic_score": 0.777,
      "dynamic_level": "Low"
    },
    {
      "id": "381",
      "country": "China",
      "name": "Liuyang",
      "latitude": 28.15,
      "longitude": 113.6333,
      "base_risk": 9.29,
      "rain_6h_mm": 1.2,
      "humidity_avg": 95.7,
      "soil_moisture_avg": 0.0,
      "rain_mult": 0.012,
      "soil_mult": 0.95,
      "humidity_mult": 1.048,
      "raw_dynamic_score": 0.111,
      "dynamic_level": "Low"
    },
    {
      "id": "382",
      "country": "China",
      "name": "Liuzhou",
      "latitude": 24.3017,
      "longitude": 109.3784,
      "base_risk": 8.76,
      "rain_6h_mm": 0.0,
      "humidity_avg": 85.3,
      "soil_moisture_avg": 0.0,
      "rain_mult": 0.0,
      "soil_mult": 0.95,
      "humidity_mult": 1.043,
      "raw_dynamic_score": 0.0,
      "dynamic_level": "None"
    },
    {
      "id": "383",
      "country": "China",
      "name": "Liyang",
      "latitude": 31.423,
      "longitude": 119.4837,
      "base_risk": 9.21,
      "rain_6h_mm": 0.0,
      "humidity_avg": 91.0,
      "soil_moisture_avg": 0.0,
      "rain_mult": 0.0,
      "soil_mult": 0.95,
      "humidity_mult": 1.046,
      "raw_dynamic_score": 0.0,
      "dynamic_level": "None"
    },
    {
      "id": "384",
      "country": "China",
      "name": "Longchang",
      "latitude": 29.3394,
      "longitude": 105.2876,
      "base_risk": 9.36,
      "rain_6h_mm": 0.1,
      "humidity_avg": 83.8,
      "soil_moisture_avg": 0.0,
      "rain_mult": 0.001,
      "soil_mult": 0.95,
      "humidity_mult": 1.042,
      "raw_dynamic_score": 0.009,
      "dynamic_level": "Low"
    },
    {
      "id": "390",
      "country": "China",
      "name": "Luohe",
      "latitude": 33.5731,
      "longitude": 114.0241,
      "base_risk": 9.13,
      "rain_6h_mm": 0.0,
      "humidity_avg": 91.8,
      "soil_moisture_avg": 0.0,
      "rain_mult": 0.0,
      "soil_mult": 0.95,
      "humidity_mult": 1.046,
      "raw_dynamic_score": 0.0,
      "dynamic_level": "None"
    },
    {
      "id": "391",
      "country": "China",
      "name": "Luoyang",
      "latitude": 34.6186,
      "longitude": 112.4562,
      "base_risk": 9.35,
      "rain_6h_mm": 0.0,
      "humidity_avg": 77.3,
      "soil_moisture_avg": 0.0,
      "rain_mult": 0.0,
      "soil_mult": 0.95,
      "humidity_mult": 1.039,
      "raw_dynamic_score": 0.0,
      "dynamic_level": "None"
    },
    {
      "id": "392",
      "country": "China",
      "name": "Luzhou",
      "latitude": 28.8775,
      "longitude": 105.4408,
      "base_risk": 9.29,
      "rain_6h_mm": 0.0,
      "humidity_avg": 95.7,
      "soil_moisture_avg": 0.0,
      "rain_mult": 0.0,
      "soil_mult": 0.95,
      "humidity_mult": 1.048,
      "raw_dynamic_score": 0.0,
      "dynamic_level": "None"
    },
    {
      "id": "393",
      "country": "China",
      "name": "Lvliang",
      "latitude": 37.5195,
      "longitude": 111.1318,
      "base_risk": 9.12,
      "rain_6h_mm": 0.0,
      "humidity_avg": 85.5,
      "soil_moisture_avg": 0.0,
      "rain_mult": 0.0,
      "soil_mult": 0.95,
      "humidity_mult": 1.043,
      "raw_dynamic_score": 0.0,
      "dynamic_level": "None"
    },
    {
      "id": "394",
      "country": "China",
      "name": "Ma'anshan",
      "latitude": 31.7071,
      "longitude": 118.5038,
      "base_risk": 9.18,
      "rain_6h_mm": 0.0,
      "humidity_avg": 89.0,
      "soil_moisture_avg": 0.0,
      "rain_mult": 0.0,
      "soil_mult": 0.95,
      "humidity_mult": 1.044,
      "raw_dynamic_score": 0.0,
      "dynamic_level": "None"
    },
    {
      "id": "397",
      "country": "China",
      "name": "Maoming",
      "latitude": 21.6627,
      "longitude": 110.9234,
      "base_risk": 8.87,
      "rain_6h_mm": 0.0,
      "humidity_avg": 90.8,
      "soil_moisture_avg": 0.0,
      "rain_mult": 0.0,
      "soil_mult": 0.95,
      "humidity_mult": 1.045,
      "raw_dynamic_score": 0.0,
      "dynamic_level": "None"
    },
    {
      "id": "403",
      "country": "China",
      "name": "Nanchang",
      "latitude": 28.6833,
      "longitude": 115.8833,
      "base_risk": 9.47,
      "rain_6h_mm": 2.3,
      "humidity_avg": 87.2,
      "soil_moisture_avg": 0.0,
      "rain_mult": 0.023,
      "soil_mult": 0.95,
      "humidity_mult": 1.044,
      "raw_dynamic_score": 0.216,
      "dynamic_level": "Low"
    },
    {
      "id": "404",
      "country": "China",
      "name": "Nanchong",
      "latitude": 30.7951,
      "longitude": 106.0847,
      "base_risk": 9.26,
      "rain_6h_mm": 0.0,
      "humidity_avg": 84.8,
      "soil_moisture_avg": 0.0,
      "rain_mult": 0.0,
      "soil_mult": 0.95,
      "humidity_mult": 1.042,
      "raw_dynamic_score": 0.0,
      "dynamic_level": "None"
    },
    {
      "id": "405",
      "country": "China",
      "name": "Nanjing, Jiangsu",
      "latitude": 32.0482,
      "longitude": 118.7898,
      "base_risk": 8.64,
      "rain_6h_mm": 0.0,
      "humidity_avg": 88.7,
      "soil_moisture_avg": 0.0,
      "rain_mult": 0.0,
      "soil_mult": 0.95,
      "humidity_mult": 1.044,
      "raw_dynamic_score": 0.0,
      "dynamic_level": "None"
    },
    {
      "id": "406",
      "country": "China",
      "name": "Nankang",
      "latitude": 25.6655,
      "longitude": 114.7558,
      "base_risk": 9.4,
      "rain_6h_mm": 0.0,
      "humidity_avg": 85.5,
      "soil_moisture_avg": 0.0,
      "rain_mult": 0.0,
      "soil_mult": 0.95,
      "humidity_mult": 1.043,
      "raw_dynamic_score": 0.0,
      "dynamic_level": "None"
    },
    {
      "id": "407",
      "country": "China",
      "name": "Nanning",
      "latitude": 22.8167,
      "longitude": 108.3167,
      "base_risk": 9.5,
      "rain_6h_mm": 1.5,
      "humidity_avg": 93.0,
      "soil_moisture_avg": 0.0,
      "rain_mult": 0.015,
      "soil_mult": 0.95,
      "humidity_mult": 1.046,
      "raw_dynamic_score": 0.142,
      "dynamic_level": "Low"
    },
    {
      "id": "410",
      "country": "China",
      "name": "Nanyang, Henan",
      "latitude": 32.9999,
      "longitude": 112.5259,
      "base_risk": 9.48,
      "rain_6h_mm": 0.0,
      "humidity_avg": 90.5,
      "soil_moisture_avg": 0.0,
      "rain_mult": 0.0,
      "soil_mult": 0.95,
      "humidity_mult": 1.045,
      "raw_dynamic_score": 0.0,
      "dynamic_level": "None"
    },
    {
      "id": "411",
      "country": "China",
      "name": "Neijiang",
      "latitude": 29.5835,
      "longitude": 105.0622,
      "base_risk": 9.49,
      "rain_6h_mm": 0.0,
      "humidity_avg": 90.7,
      "soil_moisture_avg": 0.0,
      "rain_mult": 0.0,
      "soil_mult": 0.95,
      "humidity_mult": 1.045,
      "raw_dynamic_score": 0.0,
      "dynamic_level": "None"
    },
    {
      "id": "415",
      "country": "China",
      "name": "Panjin",
      "latitude": 41.1219,
      "longitude": 122.0701,
      "base_risk": 9.4,
      "rain_6h_mm": 0.0,
      "humidity_avg": 84.7,
      "soil_moisture_avg": 0.0,
      "rain_mult": 0.0,
      "soil_mult": 0.95,
      "humidity_mult": 1.042,
      "raw_dynamic_score": 0.0,
      "dynamic_level": "None"
    },
    {
      "id": "418",
      "country": "China",
      "name": "Pingdu",
      "latitude": 36.7808,
      "longitude": 119.9592,
      "base_risk": 9.42,
      "rain_6h_mm": 0.0,
      "humidity_avg": 96.3,
      "soil_moisture_avg": 0.0,
      "rain_mult": 0.0,
      "soil_mult": 0.95,
      "humidity_mult": 1.048,
      "raw_dynamic_score": 0.0,
      "dynamic_level": "None"
    },
    {
      "id": "419",
      "country": "China",
      "name": "Pinghu",
      "latitude": 30.7037,
      "longitude": 121.0097,
      "base_risk": 9.41,
      "rain_6h_mm": 0.2,
      "humidity_avg": 91.3,
      "soil_moisture_avg": 0.0,
      "rain_mult": 0.002,
      "soil_mult": 0.95,
      "humidity_mult": 1.046,
      "raw_dynamic_score": 0.019,
      "dynamic_level": "Low"
    },
    {
      "id": "420",
      "country": "China",
      "name": "Pingliang",
      "latitude": 35.5392,
      "longitude": 106.6861,
      "base_risk": 9.43,
      "rain_6h_mm": 0.0,
      "humidity_avg": 76.2,
      "soil_moisture_avg": 0.0,
      "rain_mult": 0.0,
      "soil_mult": 0.95,
      "humidity_mult": 1.038,
      "raw_dynamic_score": 0.0,
      "dynamic_level": "None"
    },
    {
      "id": "424",
      "country": "China",
      "name": "Putian",
      "latitude": 25.4394,
      "longitude": 119.0103,
      "base_risk": 9.12,
      "rain_6h_mm": 0.0,
      "humidity_avg": 84.3,
      "soil_moisture_avg": 0.0,
      "rain_mult": 0.0,
      "soil_mult": 0.95,
      "humidity_mult": 1.042,
      "raw_dynamic_score": 0.0,
      "dynamic_level": "None"
    },
    {
      "id": "425",
      "country": "China",
      "name": "Puyang",
      "latitude": 35.7705,
      "longitude": 115.0438,
      "base_risk": 9.13,
      "rain_6h_mm": 0.0,
      "humidity_avg": 96.3,
      "soil_moisture_avg": 0.0,
      "rain_mult": 0.0,
      "soil_mult": 0.95,
      "humidity_mult": 1.048,
      "raw_dynamic_score": 0.0,
      "dynamic_level": "None"
    },
    {
      "id": "429",
      "country": "China",
      "name": "Qingyuan",
      "latitude": 23.7146,
      "longitude": 113.0297,
      "base_risk": 9.47,
      "rain_6h_mm": 0.0,
      "humidity_avg": 84.5,
      "soil_moisture_avg": 0.0,
      "rain_mult": 0.0,
      "soil_mult": 0.95,
      "humidity_mult": 1.042,
      "raw_dynamic_score": 0.0,
      "dynamic_level": "None"
    },
    {
      "id": "430",
      "country": "China",
      "name": "Qingzhou",
      "latitude": 36.6845,
      "longitude": 118.4796,
      "base_risk": 9.26,
      "rain_6h_mm": 0.0,
      "humidity_avg": 87.5,
      "soil_moisture_avg": 0.0,
      "rain_mult": 0.0,
      "soil_mult": 0.95,
      "humidity_mult": 1.044,
      "raw_dynamic_score": 0.0,
      "dynamic_level": "None"
    },
    {
      "id": "431",
      "country": "China",
      "name": "Qinhuangdao",
      "latitude": 39.9317,
      "longitude": 119.5883,
      "base_risk": 9.2,
      "rain_6h_mm": 0.0,
      "humidity_avg": 84.7,
      "soil_moisture_avg": 0.0,
      "rain_mult": 0.0,
      "soil_mult": 0.95,
      "humidity_mult": 1.042,
      "raw_dynamic_score": 0.0,
      "dynamic_level": "None"
    },
    {
      "id": "432",
      "country": "China",
      "name": "Qinzhou",
      "latitude": 21.9681,
      "longitude": 108.6214,
      "base_risk": 8.82,
      "rain_6h_mm": 1.2,
      "humidity_avg": 94.0,
      "soil_moisture_avg": 0.0,
      "rain_mult": 0.012,
      "soil_mult": 0.95,
      "humidity_mult": 1.047,
      "raw_dynamic_score": 0.105,
      "dynamic_level": "Low"
    },
    {
      "id": "433",
      "country": "China",
      "name": "Qiqihaer",
      "latitude": 47.3408,
      "longitude": 123.9672,
      "base_risk": 9.01,
      "rain_6h_mm": 0.0,
      "humidity_avg": 84.7,
      "soil_moisture_avg": 0.0,
      "rain_mult": 0.0,
      "soil_mult": 0.95,
      "humidity_mult": 1.042,
      "raw_dynamic_score": 0.0,
      "dynamic_level": "None"
    },
    {
      "id": "436",
      "country": "China",
      "name": "Qufu",
      "latitude": 35.5967,
      "longitude": 116.9911,
      "base_risk": 9.04,
      "rain_6h_mm": 0.0,
      "humidity_avg": 95.5,
      "soil_moisture_avg": 0.0,
      "rain_mult": 0.0,
      "soil_mult": 0.95,
      "humidity_mult": 1.048,
      "raw_dynamic_score": 0.0,
      "dynamic_level": "None"
    },
    {
      "id": "437",
      "country": "China",
      "name": "Qujing",
      "latitude": 25.4894,
      "longitude": 103.7977,
      "base_risk": 9.48,
      "rain_6h_mm": 4.9,
      "humidity_avg": 93.0,
      "soil_moisture_avg": 0.0,
      "rain_mult": 0.049,
      "soil_mult": 0.95,
      "humidity_mult": 1.046,
      "raw_dynamic_score": 0.462,
      "dynamic_level": "Low"
    },
    {
      "id": "438",
      "country": "China",
      "name": "Quzhou",
      "latitude": 28.9594,
      "longitude": 118.8686,
      "base_risk": 8.67,
      "rain_6h_mm": 3.0,
      "humidity_avg": 96.7,
      "soil_moisture_avg": 0.0,
      "rain_mult": 0.03,
      "soil_mult": 0.95,
      "humidity_mult": 1.048,
      "raw_dynamic_score": 0.259,
      "dynamic_level": "Low"
    },
    {
      "id": "439",
      "country": "China",
      "name": "Renqiu",
      "latitude": 38.6989,
      "longitude": 116.0936,
      "base_risk": 9.46,
      "rain_6h_mm": 0.0,
      "humidity_avg": 92.5,
      "soil_moisture_avg": 0.0,
      "rain_mult": 0.0,
      "soil_mult": 0.95,
      "humidity_mult": 1.046,
      "raw_dynamic_score": 0.0,
      "dynamic_level": "None"
    },
    {
      "id": "445",
      "country": "China",
      "name": "Sanhe",
      "latitude": 39.9819,
      "longitude": 117.0713,
      "base_risk": 9.26,
      "rain_6h_mm": 0.0,
      "humidity_avg": 94.7,
      "soil_moisture_avg": 0.0,
      "rain_mult": 0.0,
      "soil_mult": 0.95,
      "humidity_mult": 1.047,
      "raw_dynamic_score": 0.0,
      "dynamic_level": "None"
    },
    {
      "id": "446",
      "country": "China",
      "name": "Sanmenxia",
      "latitude": 34.7715,
      "longitude": 111.2038,
      "base_risk": 9.0,
      "rain_6h_mm": 0.0,
      "humidity_avg": 81.3,
      "soil_moisture_avg": 0.0,
      "rain_mult": 0.0,
      "soil_mult": 0.95,
      "humidity_mult": 1.041,
      "raw_dynamic_score": 0.0,
      "dynamic_level": "None"
    },
    {
      "id": "447",
      "country": "China",
      "name": "Sanming",
      "latitude": 26.2641,
      "longitude": 117.6191,
      "base_risk": 9.19,
      "rain_6h_mm": 0.1,
      "humidity_avg": 93.8,
      "soil_moisture_avg": 0.0,
      "rain_mult": 0.001,
      "soil_mult": 0.95,
      "humidity_mult": 1.047,
      "raw_dynamic_score": 0.009,
      "dynamic_level": "Low"
    },
    {
      "id": "448",
      "country": "China",
      "name": "Sanya",
      "latitude": 18.2676,
      "longitude": 109.5034,
      "base_risk": 9.41,
      "rain_6h_mm": 0.0,
      "humidity_avg": 83.8,
      "soil_moisture_avg": 0.0,
      "rain_mult": 0.0,
      "soil_mult": 0.95,
      "humidity_mult": 1.042,
      "raw_dynamic_score": 0.0,
      "dynamic_level": "None"
    },
    {
      "id": "453",
      "country": "China",
      "name": "Shantou",
      "latitude": 23.3681,
      "longitude": 116.7148,
      "base_risk": 8.88,
      "rain_6h_mm": 0.0,
      "humidity_avg": 82.2,
      "soil_moisture_avg": 0.0,
      "rain_mult": 0.0,
      "soil_mult": 0.95,
      "humidity_mult": 1.041,
      "raw_dynamic_score": 0.0,
      "dynamic_level": "None"
    },
    {
      "id": "454",
      "country": "China",
      "name": "Shanwei",
      "latitude": 22.7787,
      "longitude": 115.3568,
      "base_risk": 9.3,
      "rain_6h_mm": 0.0,
      "humidity_avg": 86.5,
      "soil_moisture_avg": 0.0,
      "rain_mult": 0.0,
      "soil_mult": 0.95,
      "humidity_mult": 1.043,
      "raw_dynamic_score": 0.0,
      "dynamic_level": "None"
    },
    {
      "id": "455",
      "country": "China",
      "name": "Shaoguan",
      "latitude": 24.8,
      "longitude": 113.5833,
      "base_risk": 9.11,
      "rain_6h_mm": 0.0,
      "humidity_avg": 79.0,
      "soil_moisture_avg": 0.0,
      "rain_mult": 0.0,
      "soil_mult": 0.95,
      "humidity_mult": 1.04,
      "raw_dynamic_score": 0.0,
      "dynamic_level": "None"
    },
    {
      "id": "456",
      "country": "China",
      "name": "Shaoxing",
      "latitude": 30.011,
      "longitude": 120.5715,
      "base_risk": 9.32,
      "rain_6h_mm": 3.5,
      "humidity_avg": 90.3,
      "soil_moisture_avg": 0.0,
      "rain_mult": 0.035,
      "soil_mult": 0.95,
      "humidity_mult": 1.045,
      "raw_dynamic_score": 0.324,
      "dynamic_level": "Low"
    },
    {
      "id": "457",
      "country": "China",
      "name": "Shaoyang",
      "latitude": 27.2403,
      "longitude": 111.4709,
      "base_risk": 9.08,
      "rain_6h_mm": 0.0,
      "humidity_avg": 89.0,
      "soil_moisture_avg": 0.0,
      "rain_mult": 0.0,
      "soil_mult": 0.95,
      "humidity_mult": 1.044,
      "raw_dynamic_score": 0.0,
      "dynamic_level": "None"
    },
    {
      "id": "463",
      "country": "China",
      "name": "Shijiazhuang",
      "latitude": 38.0418,
      "longitude": 114.5108,
      "base_risk": 9.15,
      "rain_6h_mm": 0.0,
      "humidity_avg": 67.8,
      "soil_moisture_avg": 0.0,
      "rain_mult": 0.0,
      "soil_mult": 0.95,
      "humidity_mult": 1.034,
      "raw_dynamic_score": 0.0,
      "dynamic_level": "None"
    },
    {
      "id": "464",
      "country": "China",
      "name": "Shishi",
      "latitude": 24.7367,
      "longitude": 118.634,
      "base_risk": 8.84,
      "rain_6h_mm": 0.0,
      "humidity_avg": 75.0,
      "soil_moisture_avg": 0.0,
      "rain_mult": 0.0,
      "soil_mult": 0.95,
      "humidity_mult": 1.038,
      "raw_dynamic_score": 0.0,
      "dynamic_level": "None"
    },
    {
      "id": "465",
      "country": "China",
      "name": "Shiyan",
      "latitude": 32.6445,
      "longitude": 110.7836,
      "base_risk": 9.33,
      "rain_6h_mm": 0.0,
      "humidity_avg": 91.2,
      "soil_moisture_avg": 0.0,
      "rain_mult": 0.0,
      "soil_mult": 0.95,
      "humidity_mult": 1.046,
      "raw_dynamic_score": 0.0,
      "dynamic_level": "None"
    },
    {
      "id": "466",
      "country": "China",
      "name": "Shizuishan",
      "latitude": 39.2333,
      "longitude": 106.7694,
      "base_risk": 8.88,
      "rain_6h_mm": 0.0,
      "humidity_avg": 43.7,
      "soil_moisture_avg": 0.0,
      "rain_mult": 0.0,
      "soil_mult": 0.95,
      "humidity_mult": 1.022,
      "raw_dynamic_score": 0.0,
      "dynamic_level": "None"
    },
    {
      "id": "467",
      "country": "China",
      "name": "Shouguang",
      "latitude": 36.8788,
      "longitude": 118.7482,
      "base_risk": 9.08,
      "rain_6h_mm": 0.0,
      "humidity_avg": 94.0,
      "soil_moisture_avg": 0.0,
      "rain_mult": 0.0,
      "soil_mult": 0.95,
      "humidity_mult": 1.047,
      "raw_dynamic_score": 0.0,
      "dynamic_level": "None"
    },
    {
      "id": "473",
      "country": "China",
      "name": "Songzi",
      "latitude": 30.1736,
      "longitude": 111.7761,
      "base_risk": 8.74,
      "rain_6h_mm": 0.0,
      "humidity_avg": 88.2,
      "soil_moisture_avg": 0.0,
      "rain_mult": 0.0,
      "soil_mult": 0.95,
      "humidity_mult": 1.044,
      "raw_dynamic_score": 0.0,
      "dynamic_level": "None"
    },
    {
      "id": "474",
      "country": "China",
      "name": "Suihua",
      "latitude": 46.6366,
      "longitude": 126.983,
      "base_risk": 9.07,
      "rain_6h_mm": 0.3,
      "humidity_avg": 94.0,
      "soil_moisture_avg": 0.0,
      "rain_mult": 0.003,
      "soil_mult": 0.95,
      "humidity_mult": 1.047,
      "raw_dynamic_score": 0.027,
      "dynamic_level": "Low"
    },
    {
      "id": "475",
      "country": "China",
      "name": "Suining, Sichuan",
      "latitude": 30.5236,
      "longitude": 105.5639,
      "base_risk": 9.16,
      "rain_6h_mm": 0.0,
      "humidity_avg": 86.2,
      "soil_moisture_avg": 0.0,
      "rain_mult": 0.0,
      "soil_mult": 0.95,
      "humidity_mult": 1.043,
      "raw_dynamic_score": 0.0,
      "dynamic_level": "None"
    },
    {
      "id": "476",
      "country": "China",
      "name": "Suizhou",
      "latitude": 31.7111,
      "longitude": 113.3631,
      "base_risk": 9.25,
      "rain_6h_mm": 0.0,
      "humidity_avg": 86.0,
      "soil_moisture_avg": 0.0,
      "rain_mult": 0.0,
      "soil_mult": 0.95,
      "humidity_mult": 1.043,
      "raw_dynamic_score": 0.0,
      "dynamic_level": "None"
    },
    {
      "id": "477",
      "country": "China",
      "name": "Suqian",
      "latitude": 33.9681,
      "longitude": 118.2924,
      "base_risk": 9.15,
      "rain_6h_mm": 0.0,
      "humidity_avg": 91.0,
      "soil_moisture_avg": 0.0,
      "rain_mult": 0.0,
      "soil_mult": 0.95,
      "humidity_mult": 1.046,
      "raw_dynamic_score": 0.0,
      "dynamic_level": "None"
    },
    {
      "id": "483",
      "country": "China",
      "name": "Taixing",
      "latitude": 32.1667,
      "longitude": 120.0136,
      "base_risk": 9.41,
      "rain_6h_mm": 0.0,
      "humidity_avg": 88.0,
      "soil_moisture_avg": 0.0,
      "rain_mult": 0.0,
      "soil_mult": 0.95,
      "humidity_mult": 1.044,
      "raw_dynamic_score": 0.0,
      "dynamic_level": "None"
    },
    {
      "id": "484",
      "country": "China",
      "name": "Taiyuan, Shanxi",
      "latitude": 37.8619,
      "longitude": 112.5516,
      "base_risk": 8.69,
      "rain_6h_mm": 0.0,
      "humidity_avg": 50.3,
      "soil_moisture_avg": 0.0,
      "rain_mult": 0.0,
      "soil_mult": 0.95,
      "humidity_mult": 1.025,
      "raw_dynamic_score": 0.0,
      "dynamic_level": "None"
    },
    {
      "id": "485",
      "country": "China",
      "name": "Taizhou, Jiangsu",
      "latitude": 32.4945,
      "longitude": 119.9029,
      "base_risk": 8.55,
      "rain_6h_mm": 0.0,
      "humidity_avg": 87.3,
      "soil_moisture_avg": 0.0,
      "rain_mult": 0.0,
      "soil_mult": 0.95,
      "humidity_mult": 1.044,
      "raw_dynamic_score": 0.0,
      "dynamic_level": "None"
    },
    {
      "id": "486",
      "country": "China",
      "name": "Taizhou, Zhejiang",
      "latitude": 28.6372,
      "longitude": 121.4185,
      "base_risk": 9.22,
      "rain_6h_mm": 3.5,
      "humidity_avg": 95.3,
      "soil_moisture_avg": 0.0,
      "rain_mult": 0.035,
      "soil_mult": 0.95,
      "humidity_mult": 1.048,
      "raw_dynamic_score": 0.321,
      "dynamic_level": "Low"
    },
    {
      "id": "487",
      "country": "China",
      "name": "Tangshan, Hebei",
      "latitude": 39.6285,
      "longitude": 118.1799,
      "base_risk": 8.71,
      "rain_6h_mm": 0.0,
      "humidity_avg": 92.3,
      "soil_moisture_avg": 0.0,
      "rain_mult": 0.0,
      "soil_mult": 0.95,
      "humidity_mult": 1.046,
      "raw_dynamic_score": 0.0,
      "dynamic_level": "None"
    },
    {
      "id": "489",
      "country": "China",
      "name": "Tianjin",
      "latitude": 39.1088,
      "longitude": 117.1886,
      "base_risk": 8.93,
      "rain_6h_mm": 0.0,
      "humidity_avg": 91.2,
      "soil_moisture_avg": 0.0,
      "rain_mult": 0.0,
      "soil_mult": 0.95,
      "humidity_mult": 1.046,
      "raw_dynamic_score": 0.0,
      "dynamic_level": "None"
    },
    {
      "id": "493",
      "country": "China",
      "name": "Tongcheng",
      "latitude": 31.0538,
      "longitude": 116.9556,
      "base_risk": 9.1,
      "rain_6h_mm": 0.0,
      "humidity_avg": 89.7,
      "soil_moisture_avg": 0.0,
      "rain_mult": 0.0,
      "soil_mult": 0.95,
      "humidity_mult": 1.045,
      "raw_dynamic_score": 0.0,
      "dynamic_level": "None"
    },
    {
      "id": "496",
      "country": "China",
      "name": "Tongliao",
      "latitude": 43.6125,
      "longitude": 122.2653,
      "base_risk": 9.22,
      "rain_6h_mm": 0.0,
      "humidity_avg": 56.0,
      "soil_moisture_avg": 0.0,
      "rain_mult": 0.0,
      "soil_mult": 0.95,
      "humidity_mult": 1.028,
      "raw_dynamic_score": 0.0,
      "dynamic_level": "None"
    },
    {
      "id": "497",
      "country": "China",
      "name": "Tongling",
      "latitude": 30.9363,
      "longitude": 117.8109,
      "base_risk": 9.19,
      "rain_6h_mm": 0.2,
      "humidity_avg": 91.5,
      "soil_moisture_avg": 0.0,
      "rain_mult": 0.002,
      "soil_mult": 0.95,
      "humidity_mult": 1.046,
      "raw_dynamic_score": 0.018,
      "dynamic_level": "Low"
    },
    {
      "id": "498",
      "country": "China",
      "name": "Tongxiang",
      "latitude": 30.6296,
      "longitude": 120.5536,
      "base_risk": 9.12,
      "rain_6h_mm": 0.5,
      "humidity_avg": 90.7,
      "soil_moisture_avg": 0.0,
      "rain_mult": 0.005,
      "soil_mult": 0.95,
      "humidity_mult": 1.045,
      "raw_dynamic_score": 0.045,
      "dynamic_level": "Low"
    },
    {
      "id": "503",
      "country": "China",
      "name": "Weihai",
      "latitude": 37.5017,
      "longitude": 122.1136,
      "base_risk": 9.04,
      "rain_6h_mm": 0.0,
      "humidity_avg": 91.8,
      "soil_moisture_avg": 0.0,
      "rain_mult": 0.0,
      "soil_mult": 0.95,
      "humidity_mult": 1.046,
      "raw_dynamic_score": 0.0,
      "dynamic_level": "None"
    },
    {
      "id": "504",
      "country": "China",
      "name": "Weinan",
      "latitude": 34.5036,
      "longitude": 109.5089,
      "base_risk": 9.02,
      "rain_6h_mm": 0.0,
      "humidity_avg": 80.3,
      "soil_moisture_avg": 0.0,
      "rain_mult": 0.0,
      "soil_mult": 0.95,
      "humidity_mult": 1.04,
      "raw_dynamic_score": 0.0,
      "dynamic_level": "None"
    },