{
  "timestamp": "2025-11-04T05:11:36.023995Z",
  "source": "Open-Meteo",
  "forecast_window_hours": 6,
  "features_evaluated": 925,
  "alerts": [
    {
      "id": "1",
      "country": "Afghanistan",
      "name": "Herat",
      "latitude": 34.3482,
      "longitude": 62.1997,
      "base_risk": 9.5,
      "rain_6h_mm": 0.0,
      "humidity_avg": 40.7,
      "soil_moisture_avg": 0.0,
      "rain_mult": 0.0,
      "soil_mult": 0.95,
      "humidity_mult": 1.02,
      "raw_dynamic_score": 0.0,
      "dynamic_level": "None"
    },
    {
      "id": "6",
      "country": "Algeria",
      "name": "Annaba",
      "latitude": 36.9,
      "longitude": 7.7667,
      "base_risk": 9.07,
      "rain_6h_mm": 0.0,
      "humidity_avg": 82.0,
      "soil_moisture_avg": 0.0,
      "rain_mult": 0.0,
      "soil_mult": 0.95,
      "humidity_mult": 1.041,
      "raw_dynamic_score": 0.0,
      "dynamic_level": "None"
    },
    {
      "id": "7",
      "country": "Algeria",
      "name": "Batna",
      "latitude": 35.556,
      "longitude": 6.1741,
      "base_risk": 8.97,
      "rain_6h_mm": 0.0,
      "humidity_avg": 96.3,
      "soil_moisture_avg": 0.0,
      "rain_mult": 0.0,
      "soil_mult": 0.95,
      "humidity_mult": 1.048,
      "raw_dynamic_score": 0.0,
      "dynamic_level": "None"
    },
    {
      "id": "8",
      "country": "Algeria",
      "name": "Blida",
      "latitude": 36.4808,
      "longitude": 2.8319,
      "base_risk": 8.81,
      "rain_6h_mm": 0.0,
      "humidity_avg": 79.8,
      "soil_moisture_avg": 0.0,
      "rain_mult": 0.0,
      "soil_mult": 0.95,
      "humidity_mult": 1.04,
      "raw_dynamic_score": 0.0,
      "dynamic_level": "None"
    },
    {
      "id": "9",
      "country": "Algeria",
      "name": "El Djazaïr  (Algiers)",
      "latitude": 36.7525,
      "longitude": 3.042,
      "base_risk": 9.41,
      "rain_6h_mm": 0.0,
      "humidity_avg": 93.3,
      "soil_moisture_avg": 0.0,
      "rain_mult": 0.0,
      "soil_mult": 0.95,
      "humidity_mult": 1.047,
      "raw_dynamic_score": 0.0,
      "dynamic_level": "None"
    },
    {
      "id": "15",
      "country": "Angola",
      "name": "Cabinda",
      "latitude": -5.55,
      "longitude": 12.2,
      "base_risk": 9.14,
      "rain_6h_mm": 1.3,
      "humidity_avg": 86.0,
      "soil_moisture_avg": 0.0,
      "rain_mult": 0.013,
      "soil_mult": 0.95,
      "humidity_mult": 1.043,
      "raw_dynamic_score": 0.118,
      "dynamic_level": "Low"
    },
    {
      "id": "16",
      "country": "Angola",
      "name": "Cuito",
      "latitude": -12.383,
      "longitude": 16.933,
      "base_risk": 8.89,
      "rain_6h_mm": 0.0,
      "humidity_avg": 92.5,
      "soil_moisture_avg": 0.0,
      "rain_mult": 0.0,
      "soil_mult": 0.95,
      "humidity_mult": 1.046,
      "raw_dynamic_score": 0.0,
      "dynamic_level": "None"
    },
    {
      "id": "17",
      "country": "Angola",
      "name": "Huambo",
      "latitude": -12.7761,
      "longitude": 15.7392,
      "base_risk": 9.32,
      "rain_6h_mm": 0.0,
      "humidity_avg": 93.0,
      "soil_moisture_avg": 0.0,
      "rain_mult": 0.0,
      "soil_mult": 0.95,
      "humidity_mult": 1.046,
      "raw_dynamic_score": 0.0,
      "dynamic_level": "None"
    },
    {
      "id": "18",
      "country": "Angola",
      "name": "Lobito",
      "latitude": -12.364,
      "longitude": 13.536,
      "base_risk": 9.25,
      "rain_6h_mm": 0.0,
      "humidity_avg": 88.2,
      "soil_moisture_avg": 0.0,
      "rain_mult": 0.0,
      "soil_mult": 0.95,
      "humidity_mult": 1.044,
      "raw_dynamic_score": 0.0,
      "dynamic_level": "None"
    },
    {
      "id": "23",
      "country": "Argentina",
      "name": "Bahia Blanca",
      "latitude": -38.7196,
      "longitude": -62.2724,
      "base_risk": 9.12,
      "rain_6h_mm": 14.7,
      "humidity_avg": 90.0,
      "soil_moisture_avg": 0.0,
      "rain_mult": 0.147,
      "soil_mult": 0.95,
      "humidity_mult": 1.045,
      "raw_dynamic_score": 1.331,
      "dynamic_level": "Low"
    },
    {
      "id": "24",
      "country": "Argentina",
      "name": "Buenos Aires",
      "latitude": -34.6051,
      "longitude": -58.4004,
      "base_risk": 9.05,
      "rain_6h_mm": 0.0,
      "humidity_avg": 85.7,
      "soil_moisture_avg": 0.0,
      "rain_mult": 0.0,
      "soil_mult": 0.95,
      "humidity_mult": 1.043,
      "raw_dynamic_score": 0.0,
      "dynamic_level": "None"
    },
    {
      "id": "25",
      "country": "Argentina",
      "name": "Córdoba",
      "latitude": -31.4135,
      "longitude": -64.1811,
      "base_risk": 9.23,
      "rain_6h_mm": 0.0,
      "humidity_avg": 59.0,
      "soil_moisture_avg": 0.0,
      "rain_mult": 0.0,
      "soil_mult": 0.95,
      "humidity_mult": 1.03,
      "raw_dynamic_score": 0.0,
      "dynamic_level": "None"
    },
    {
      "id": "26",
      "country": "Argentina",
      "name": "Corrientes",
      "latitude": -27.4806,
      "longitude": -58.8341,
      "base_risk": 9.43,
      "rain_6h_mm": 0.0,
      "humidity_avg": 86.5,
      "soil_moisture_avg": 0.0,
      "rain_mult": 0.0,
      "soil_mult": 0.95,
      "humidity_mult": 1.043,
      "raw_dynamic_score": 0.0,
      "dynamic_level": "None"
    },
    {
      "id": "31",
      "country": "Argentina",
      "name": "Posadas",
      "latitude": -27.3671,
      "longitude": -55.8961,
      "base_risk": 9.29,
      "rain_6h_mm": 0.0,
      "humidity_avg": 91.7,
      "soil_moisture_avg": 0.0,
      "rain_mult": 0.0,
      "soil_mult": 0.95,
      "humidity_mult": 1.046,
      "raw_dynamic_score": 0.0,
      "dynamic_level": "None"
    },
    {
      "id": "35",
      "country": "Argentina",
      "name": "San Juan",
      "latitude": -31.5375,
      "longitude": -68.5364,
      "base_risk": 8.8,
      "rain_6h_mm": 0.0,
      "humidity_avg": 24.5,
      "soil_moisture_avg": 0.0,
      "rain_mult": 0.0,
      "soil_mult": 0.95,
      "humidity_mult": 1.012,
      "raw_dynamic_score": 0.0,
      "dynamic_level": "None"
    },
    {
      "id": "36",
      "country": "Argentina",
      "name": "San Miguel de Tucumán",
      "latitude": -26.8241,
      "longitude": -65.2226,
      "base_risk": 8.72,
      "rain_6h_mm": 0.0,
      "humidity_avg": 77.8,
      "soil_moisture_avg": 0.0,
      "rain_mult": 0.0,
      "soil_mult": 0.95,
      "humidity_mult": 1.039,
      "raw_dynamic_score": 0.0,
      "dynamic_level": "None"
    },
    {
      "id": "37",
      "country": "Argentina",
      "name": "San Salvador de Jujuy",
      "latitude": -24.1946,
      "longitude": -65.2971,
      "base_risk": 8.93,
      "rain_6h_mm": 0.0,
      "humidity_avg": 88.5,
      "soil_moisture_avg": 0.0,
      "rain_mult": 0.0,
      "soil_mult": 0.95,
      "humidity_mult": 1.044,
      "raw_dynamic_score": 0.0,
      "dynamic_level": "None"
    },
    {
      "id": "38",
      "country": "Argentina",
      "name": "Santa Fe",
      "latitude": -31.6327,
      "longitude": -60.6983,
      "base_risk": 9.34,
      "rain_6h_mm": 0.0,
      "humidity_avg": 74.7,
      "soil_moisture_avg": 0.0,
      "rain_mult": 0.0,
      "soil_mult": 0.95,
      "humidity_mult": 1.037,
      "raw_dynamic_score": 0.0,
      "dynamic_level": "None"
    },
    {
      "id": "43",
      "country": "Australia",
      "name": "Canberra",
      "latitude": -35.2835,
      "longitude": 149.1281,
      "base_risk": 8.88,
      "rain_6h_mm": 0.4,
      "humidity_avg": 69.3,
      "soil_moisture_avg": 0.0,
      "rain_mult": 0.004,
      "soil_mult": 0.95,
      "humidity_mult": 1.035,
      "raw_dynamic_score": 0.035,
      "dynamic_level": "Low"
    },
    {
      "id": "44",
      "country": "Australia",
      "name": "Central Coast",
      "latitude": -33.42,
      "longitude": 151.3958,
      "base_risk": 9.28,
      "rain_6h_mm": 0.0,
      "humidity_avg": 29.8,
      "soil_moisture_avg": 0.0,
      "rain_mult": 0.0,
      "soil_mult": 0.95,
      "humidity_mult": 1.015,
      "raw_dynamic_score": 0.0,
      "dynamic_level": "None"
    },
    {
      "id": "45",
      "country": "Australia",
      "name": "Gold Coast-Tweed Head",
      "latitude": -28.0003,
      "longitude": 153.4309,
      "base_risk": 9.38,
      "rain_6h_mm": 0.0,
      "humidity_avg": 58.2,
      "soil_moisture_avg": 0.0,
      "rain_mult": 0.0,
      "soil_mult": 0.95,
      "humidity_mult": 1.029,
      "raw_dynamic_score": 0.0,
      "dynamic_level": "None"
    },
    {
      "id": "46",
      "country": "Australia",
      "name": "Melbourne",
      "latitude": -37.814,
      "longitude": 144.9633,
      "base_risk": 8.78,
      "rain_6h_mm": 0.5,
      "humidity_avg": 50.5,
      "soil_moisture_avg": 0.0,
      "rain_mult": 0.005,
      "soil_mult": 0.95,
      "humidity_mult": 1.025,
      "raw_dynamic_score": 0.043,
      "dynamic_level": "Low"
    },
    {
      "id": "51",
      "country": "Australia",
      "name": "Wollongong",
      "latitude": -34.424,
      "longitude": 150.8935,
      "base_risk": 9.37,
      "rain_6h_mm": 0.0,
      "humidity_avg": 35.3,
      "soil_moisture_avg": 0.0,
      "rain_mult": 0.0,
      "soil_mult": 0.95,
      "humidity_mult": 1.018,
      "raw_dynamic_score": 0.0,
      "dynamic_level": "None"
    },
    {
      "id": "52",
      "country": "Austria",
      "name": "Wien (Vienna)",
      "latitude": 48.2064,
      "longitude": 16.3707,
      "base_risk": 8.75,
      "rain_6h_mm": 0.0,
      "humidity_avg": 68.0,
      "soil_moisture_avg": 0.0,
      "rain_mult": 0.0,
      "soil_mult": 0.95,
      "humidity_mult": 1.034,
      "raw_dynamic_score": 0.0,
      "dynamic_level": "None"
    },
    {
      "id": "53",
      "country": "Azerbaijan",
      "name": "Baku",
      "latitude": 40.3777,
      "longitude": 49.892,
      "base_risk": 8.82,
      "rain_6h_mm": 0.0,
      "humidity_avg": 75.7,
      "soil_moisture_avg": 0.0,
      "rain_mult": 0.0,
      "soil_mult": 0.95,
      "humidity_mult": 1.038,
      "raw_dynamic_score": 0.0,
      "dynamic_level": "None"
    },
    {
      "id": "54",
      "country": "Azerbaijan",
      "name": "Gäncä",
      "latitude": 40.6828,
      "longitude": 46.3606,
      "base_risk": 9.07,
      "rain_6h_mm": 0.0,
      "humidity_avg": 85.7,
      "soil_moisture_avg": 0.0,
      "rain_mult": 0.0,
      "soil_mult": 0.95,
      "humidity_mult": 1.043,
      "raw_dynamic_score": 0.0,
      "dynamic_level": "None"
    },
    {
      "id": "59",
      "country": "Bangladesh",
      "name": "Chittagong",
      "latitude": 22.3331,
      "longitude": 91.8364,
      "base_risk": 9.36,
      "rain_6h_mm": 0.0,
      "humidity_avg": 80.5,
      "soil_moisture_avg": 0.0,
      "rain_mult": 0.0,
      "soil_mult": 0.95,
      "humidity_mult": 1.04,
      "raw_dynamic_score": 0.0,
      "dynamic_level": "None"
    },
    {
      "id": "60",
      "country": "Bangladesh",
      "name": "Comilla",
      "latitude": 23.4578,
      "longitude": 91.2044,
      "base_risk": 9.5,
      "rain_6h_mm": 0.0,
      "humidity_avg": 77.0,
      "soil_moisture_avg": 0.0,
      "rain_mult": 0.0,
      "soil_mult": 0.95,
      "humidity_mult": 1.038,
      "raw_dynamic_score": 0.0,
      "dynamic_level": "None"
    },
    {
      "id": "61",
      "country": "Bangladesh",
      "name": "Dhaka",
      "latitude": 23.7104,
      "longitude": 90.4074,
      "base_risk": 9.43,
      "rain_6h_mm": 0.0,
      "humidity_avg": 77.5,
      "soil_moisture_avg": 0.0,
      "rain_mult": 0.0,
      "soil_mult": 0.95,
      "humidity_mult": 1.039,
      "raw_dynamic_score": 0.0,
      "dynamic_level": "None"
    },
    {
      "id": "62",
      "country": "Bangladesh",
      "name": "Khulna",
      "latitude": 22.8098,
      "longitude": 89.5644,
      "base_risk": 9.5,
      "rain_6h_mm": 0.0,
      "humidity_avg": 73.8,
      "soil_moisture_avg": 0.0,
      "rain_mult": 0.0,
      "soil_mult": 0.95,
      "humidity_mult": 1.037,
      "raw_dynamic_score": 0.0,
      "dynamic_level": "None"
    },
    {
      "id": "67",
      "country": "Bangladesh",
      "name": "Sylhet",
      "latitude": 24.8967,
      "longitude": 91.8717,
      "base_risk": 9.35,
      "rain_6h_mm": 0.0,
      "humidity_avg": 76.2,
      "soil_moisture_avg": 0.0,
      "rain_mult": 0.0,
      "soil_mult": 0.95,
      "humidity_mult": 1.038,
      "raw_dynamic_score": 0.0,
      "dynamic_level": "None"
    },
    {
      "id": "68",
      "country": "Belarus",
      "name": "Brest",
      "latitude": 52.0976,
      "longitude": 23.6878,
      "base_risk": 9.37,
      "rain_6h_mm": 0.0,
      "humidity_avg": 88.7,
      "soil_moisture_avg": 0.473,
      "rain_mult": 0.0,
      "soil_mult": 1.352,
      "humidity_mult": 1.044,
      "raw_dynamic_score": 0.0,
      "dynamic_level": "None"
    },
    {
      "id": "69",
      "country": "Belarus",
      "name": "Gomel",
      "latitude": 52.4345,
      "longitude": 30.9754,
      "base_risk": 9.21,
      "rain_6h_mm": 0.0,
      "humidity_avg": 96.2,
      "soil_moisture_avg": 0.0,
      "rain_mult": 0.0,
      "soil_mult": 0.95,
      "humidity_mult": 1.048,
      "raw_dynamic_score": 0.0,
      "dynamic_level": "None"
    },
    {
      "id": "70",
      "country": "Belarus",
      "name": "Grodno",
      "latitude": 53.6884,
      "longitude": 23.8258,
      "base_risk": 9.14,
      "rain_6h_mm": 0.0,
      "humidity_avg": 90.7,
      "soil_moisture_avg": 0.645,
      "rain_mult": 0.0,
      "soil_mult": 1.498,
      "humidity_mult": 1.045,
      "raw_dynamic_score": 0.0,
      "dynamic_level": "None"
    },
    {
      "id": "75",
      "country": "Belgium",
      "name": "Bruxelles-Brussel",
      "latitude": 50.8467,
      "longitude": 4.3499,
      "base_risk": 9.46,
      "rain_6h_mm": 0.0,
      "humidity_avg": 88.3,
      "soil_moisture_avg": 0.589,
      "rain_mult": 0.0,
      "soil_mult": 1.451,
      "humidity_mult": 1.044,
      "raw_dynamic_score": 0.0,
      "dynamic_level": "None"
    },
    {
      "id": "76",
      "country": "Belgium",
      "name": "Charleroi",
      "latitude": 50.4114,
      "longitude": 4.4445,
      "base_risk": 9.22,
      "rain_6h_mm": 0.0,
      "humidity_avg": 90.3,
      "soil_moisture_avg": 0.614,
      "rain_mult": 0.0,
      "soil_mult": 1.472,
      "humidity_mult": 1.045,
      "raw_dynamic_score": 0.0,
      "dynamic_level": "None"
    },
    {
      "id": "77",
      "country": "Belgium",
      "name": "Gent",
      "latitude": 51.05,
      "longitude": 3.7167,
      "base_risk": 8.99,
      "rain_6h_mm": 0.0,
      "humidity_avg": 90.7,
      "soil_moisture_avg": 0.404,
      "rain_mult": 0.0,
      "soil_mult": 1.293,
      "humidity_mult": 1.045,
      "raw_dynamic_score": 0.0,
      "dynamic_level": "None"
    },
    {
      "id": "78",
      "country": "Belgium",
      "name": "Liège",
      "latitude": 50.6337,
      "longitude": 5.5675,
      "base_risk": 9.43,
      "rain_6h_mm": 0.0,
      "humidity_avg": 87.7,
      "soil_moisture_avg": 0.573,
      "rain_mult": 0.0,
      "soil_mult": 1.437,
      "humidity_mult": 1.044,
      "raw_dynamic_score": 0.0,
      "dynamic_level": "None"
    },
    {
      "id": "83",
      "country": "Bolivia (Plurinational State of)",
      "name": "Cochabamba",
      "latitude": -17.3895,
      "longitude": -66.1568,
      "base_risk": 8.93,
      "rain_6h_mm": 0.0,
      "humidity_avg": 55.2,
      "soil_moisture_avg": 0.0,
      "rain_mult": 0.0,
      "soil_mult": 0.95,
      "humidity_mult": 1.028,
      "raw_dynamic_score": 0.0,
      "dynamic_level": "None"
    },
    {
      "id": "84",
      "country": "Bolivia (Plurinational State of)",
      "name": "La Paz",
      "latitude": -16.5,
      "longitude": -68.15,
      "base_risk": 9.19,
      "rain_6h_mm": 0.0,
      "humidity_avg": 35.5,
      "soil_moisture_avg": 0.0,
      "rain_mult": 0.0,
      "soil_mult": 0.95,
      "humidity_mult": 1.018,
      "raw_dynamic_score": 0.0,
      "dynamic_level": "None"
    },
    {
      "id": "85",
      "country": "Bolivia (Plurinational State of)",
      "name": "Oruro",
      "latitude": -17.9833,
      "longitude": -67.15,
      "base_risk": 8.94,
      "rain_6h_mm": 0.0,
      "humidity_avg": 21.8,
      "soil_moisture_avg": 0.0,
      "rain_mult": 0.0,
      "soil_mult": 0.95,
      "humidity_mult": 1.011,
      "raw_dynamic_score": 0.0,
      "dynamic_level": "None"
    },
    {
      "id": "86",
      "country": "Bolivia (Plurinational State of)",
      "name": "Santa Cruz",
      "latitude": -17.7989,
      "longitude": -63.1698,
      "base_risk": 8.87,
      "rain_6h_mm": 0.2,
      "humidity_avg": 94.3,
      "soil_moisture_avg": 0.0,
      "rain_mult": 0.002,
      "soil_mult": 0.95,
      "humidity_mult": 1.047,
      "raw_dynamic_score": 0.018,
      "dynamic_level": "Low"
    },
    {
      "id": "91",
      "country": "Brazil",
      "name": "Bauru",
      "latitude": -22.3147,
      "longitude": -49.0606,
      "base_risk": 9.5,
      "rain_6h_mm": 0.3,
      "humidity_avg": 90.7,
      "soil_moisture_avg": 0.0,
      "rain_mult": 0.003,
      "soil_mult": 0.95,
      "humidity_mult": 1.045,
      "raw_dynamic_score": 0.028,
      "dynamic_level": "Low"
    },
    {
      "id": "92",
      "country": "Brazil",
      "name": "Belém",
      "latitude": -1.4561,
      "longitude": -48.479,
      "base_risk": 9.14,
      "rain_6h_mm": 0.0,
      "humidity_avg": 89.2,
      "soil_moisture_avg": 0.0,
      "rain_mult": 0.0,
      "soil_mult": 0.95,
      "humidity_mult": 1.045,
      "raw_dynamic_score": 0.0,
      "dynamic_level": "None"
    },
    {
      "id": "93",
      "country": "Brazil",
      "name": "Belo Horizonte",
      "latitude": -19.9208,
      "longitude": -43.9378,
      "base_risk": 9.19,
      "rain_6h_mm": 0.0,
      "humidity_avg": 95.2,
      "soil_moisture_avg": 0.0,
      "rain_mult": 0.0,
      "soil_mult": 0.95,
      "humidity_mult": 1.048,
      "raw_dynamic_score": 0.0,
      "dynamic_level": "None"
    },
    {
      "id": "94",
      "country": "Brazil",
      "name": "Blumenau",
      "latitude": -26.9194,
      "longitude": -49.0661,
      "base_risk": 9.15,
      "rain_6h_mm": 0.0,
      "humidity_avg": 95.8,
      "soil_moisture_avg": 0.0,
      "rain_mult": 0.0,
      "soil_mult": 0.95,
      "humidity_mult": 1.048,
      "raw_dynamic_score": 0.0,
      "dynamic_level": "None"
    },
    {
      "id": "99",
      "country": "Brazil",
      "name": "Campo Grande",
      "latitude": -20.4567,
      "longitude": -54.6185,
      "base_risk": 9.07,
      "rain_6h_mm": 0.0,
      "humidity_avg": 77.2,
      "soil_moisture_avg": 0.0,
      "rain_mult": 0.0,
      "soil_mult": 0.95,
      "humidity_mult": 1.039,
      "raw_dynamic_score": 0.0,
      "dynamic_level": "None"
    },
    {
      "id": "100",
      "country": "Brazil",
      "name": "Campos dos Goytacazes",
      "latitude": -21.7664,
      "longitude": -41.3196,
      "base_risk": 9.41,
      "rain_6h_mm": 0.0,
      "humidity_avg": 85.7,
      "soil_moisture_avg": 0.0,
      "rain_mult": 0.0,
      "soil_mult": 0.95,
      "humidity_mult": 1.043,
      "raw_dynamic_score": 0.0,
      "dynamic_level": "None"
    },
    {
      "id": "101",
      "country": "Brazil",
      "name": "Caruaru",
      "latitude": -8.2833,
      "longitude": -35.9761,
      "base_risk": 9.37,
      "rain_6h_mm": 0.0,
      "humidity_avg": 91.7,
      "soil_moisture_avg": 0.0,
      "rain_mult": 0.0,
      "soil_mult": 0.95,
      "humidity_mult": 1.046,
      "raw_dynamic_score": 0.0,
      "dynamic_level": "None"
    },
    {
      "id": "102",
      "country": "Brazil",
      "name": "Cascavel",
      "latitude": -24.9558,
      "longitude": -53.4553,
      "base_risk": 9.33,
      "rain_6h_mm": 0.0,
      "humidity_avg": 87.8,
      "soil_moisture_avg": 0.0,
      "rain_mult": 0.0,
      "soil_mult": 0.95,
      "humidity_mult": 1.044,
      "raw_dynamic_score": 0.0,
      "dynamic_level": "None"
    },
    {
      "id": "107",
      "country": "Brazil",
      "name": "Florianópolis",
      "latitude": -27.5967,
      "longitude": -48.5492,
      "base_risk": 9.19,
      "rain_6h_mm": 0.0,
      "humidity_avg": 97.2,
      "soil_moisture_avg": 0.0,
      "rain_mult": 0.0,
      "soil_mult": 0.95,
      "humidity_mult": 1.049,
      "raw_dynamic_score": 0.0,
      "dynamic_level": "None"
    },
    {
      "id": "108",
      "country": "Brazil",
      "name": "Fortaleza",
      "latitude": -3.7412,
      "longitude": -38.5436,
      "base_risk": 9.05,
      "rain_6h_mm": 0.0,
      "humidity_avg": 84.2,
      "soil_moisture_avg": 0.0,
      "rain_mult": 0.0,
      "soil_mult": 0.95,
      "humidity_mult": 1.042,
      "raw_dynamic_score": 0.0,
      "dynamic_level": "None"
    },
    {
      "id": "109",
      "country": "Brazil",
      "name": "Franca",
      "latitude": -20.5386,
      "longitude": -47.4008,
      "base_risk": 9.15,
      "rain_6h_mm": 0.4,
      "humidity_avg": 93.7,
      "soil_moisture_avg": 0.0,
      "rain_mult": 0.004,
      "soil_mult": 0.95,
      "humidity_mult": 1.047,
      "raw_dynamic_score": 0.036,
      "dynamic_level": "Low"
    },
    {
      "id": "110",
      "country": "Brazil",
      "name": "Goiânia",
      "latitude": -16.6786,
      "longitude": -49.2539,
      "base_risk": 9.02,
      "rain_6h_mm": 0.0,
      "humidity_avg": 88.0,
      "soil_moisture_avg": 0.0,
      "rain_mult": 0.0,
      "soil_mult": 0.95,
      "humidity_mult": 1.044,
      "raw_dynamic_score": 0.0,
      "dynamic_level": "None"
    },
    {
      "id": "115",
      "country": "Brazil",
      "name": "Juazeiro Do Norte",
      "latitude": -7.2131,
      "longitude": -39.3153,
      "base_risk": 9.29,
      "rain_6h_mm": 0.0,
      "humidity_avg": 76.3,
      "soil_moisture_avg": 0.0,
      "rain_mult": 0.0,
      "soil_mult": 0.95,
      "humidity_mult": 1.038,
      "raw_dynamic_score": 0.0,
      "dynamic_level": "None"
    },
    {
      "id": "116",
      "country": "Brazil",
      "name": "Juiz De Fora",
      "latitude": -21.7642,
      "longitude": -43.3503,
      "base_risk": 8.99,
      "rain_6h_mm": 0.0,
      "humidity_avg": 98.7,
      "soil_moisture_avg": 0.0,
      "rain_mult": 0.0,
      "soil_mult": 0.95,
      "humidity_mult": 1.049,
      "raw_dynamic_score": 0.0,
      "dynamic_level": "None"
    },
    {
      "id": "117",
      "country": "Brazil",
      "name": "Jundiaí",
      "latitude": -23.1883,
      "longitude": -46.8913,
      "base_risk": 9.41,
      "rain_6h_mm": 0.0,
      "humidity_avg": 98.8,
      "soil_moisture_avg": 0.0,
      "rain_mult": 0.0,
      "soil_mult": 0.95,
      "humidity_mult": 1.049,
      "raw_dynamic_score": 0.0,
      "dynamic_level": "None"
    },
    {
      "id": "118",
      "country": "Brazil",
      "name": "Londrina",
      "latitude": -23.3103,
      "longitude": -51.1628,
      "base_risk": 9.17,
      "rain_6h_mm": 0.0,
      "humidity_avg": 96.8,
      "soil_moisture_avg": 0.0,
      "rain_mult": 0.0,
      "soil_mult": 0.95,
      "humidity_mult": 1.048,
      "raw_dynamic_score": 0.0,
      "dynamic_level": "None"
    },
    {
      "id": "123",
      "country": "Brazil",
      "name": "Montes Claros",
      "latitude": -16.735,
      "longitude": -43.8617,
      "base_risk": 9.5,
      "rain_6h_mm": 0.0,
      "humidity_avg": 84.8,
      "soil_moisture_avg": 0.0,
      "rain_mult": 0.0,
      "soil_mult": 0.95,
      "humidity_mult": 1.042,
      "raw_dynamic_score": 0.0,
      "dynamic_level": "None"
    },
    {
      "id": "124",
      "country": "Brazil",
      "name": "Natal",
      "latitude": -5.795,
      "longitude": -35.2094,
      "base_risk": 9.5,
      "rain_6h_mm": 0.0,
      "humidity_avg": 82.7,
      "soil_moisture_avg": 0.0,
      "rain_mult": 0.0,
      "soil_mult": 0.95,
      "humidity_mult": 1.041,
      "raw_dynamic_score": 0.0,
      "dynamic_level": "None"
    },
    {
      "id": "125",
      "country": "Brazil",
      "name": "Pelotas",
      "latitude": -31.7719,
      "longitude": -52.3425,
      "base_risk": 9.26,
      "rain_6h_mm": 0.0,
      "humidity_avg": 94.7,
      "soil_moisture_avg": 0.0,
      "rain_mult": 0.0,
      "soil_mult": 0.95,
      "humidity_mult": 1.047,
      "raw_dynamic_score": 0.0,
      "dynamic_level": "None"
    },
    {
      "id": "126",
      "country": "Brazil",
      "name": "Petrolina",
      "latitude": -9.3986,
      "longitude": -40.5008,
      "base_risk": 8.92,
      "rain_6h_mm": 0.0,
      "humidity_avg": 56.3,
      "soil_moisture_avg": 0.0,
      "rain_mult": 0.0,
      "soil_mult": 0.95,
      "humidity_mult": 1.028,
      "raw_dynamic_score": 0.0,
      "dynamic_level": "None"
    },
    {
      "id": "131",
      "country": "Brazil",
      "name": "Recife",
      "latitude": -8.0539,
      "longitude": -34.8811,
      "base_risk": 9.18,
      "rain_6h_mm": 0.0,
      "humidity_avg": 82.5,
      "soil_moisture_avg": 0.0,
      "rain_mult": 0.0,
      "soil_mult": 0.95,
      "humidity_mult": 1.041,
      "raw_dynamic_score": 0.0,
      "dynamic_level": "None"
    },
    {
      "id": "132",
      "country": "Brazil",
      "name": "Ribeirão  Preto",
      "latitude": -21.1775,
      "longitude": -47.8103,
      "base_risk": 9.07,
      "rain_6h_mm": 0.9,
      "humidity_avg": 89.5,
      "soil_moisture_avg": 0.0,
      "rain_mult": 0.009,
      "soil_mult": 0.95,
      "humidity_mult": 1.045,
      "raw_dynamic_score": 0.081,
      "dynamic_level": "Low"
    },
    {
      "id": "133",
      "country": "Brazil",
      "name": "Rio Branco",
      "latitude": -9.9747,
      "longitude": -67.81,
      "base_risk": 8.92,
      "rain_6h_mm": 0.0,
      "humidity_avg": 90.2,
      "soil_moisture_avg": 0.0,
      "rain_mult": 0.0,
      "soil_mult": 0.95,
      "humidity_mult": 1.045,
      "raw_dynamic_score": 0.0,
      "dynamic_level": "None"
    },
    {
      "id": "134",
      "country": "Brazil",
      "name": "Rio de Janeiro",
      "latitude": -22.9028,
      "longitude": -43.2075,
      "base_risk": 9.38,
      "rain_6h_mm": 0.0,
      "humidity_avg": 86.5,
      "soil_moisture_avg": 0.0,
      "rain_mult": 0.0,
      "soil_mult": 0.95,
      "humidity_mult": 1.043,
      "raw_dynamic_score": 0.0,
      "dynamic_level": "None"
    },
    {
      "id": "135",
      "country": "Brazil",
      "name": "Salvador",
      "latitude": -12.9711,
      "longitude": -38.5108,
      "base_risk": 9.07,
      "rain_6h_mm": 0.0,
      "humidity_avg": 84.0,
      "soil_moisture_avg": 0.0,
      "rain_mult": 0.0,
      "soil_mult": 0.95,
      "humidity_mult": 1.042,
      "raw_dynamic_score": 0.0,
      "dynamic_level": "None"
    },
    {
      "id": "136",
      "country": "Brazil",
      "name": "São José do Rio Preto",
      "latitude": -20.8197,
      "longitude": -49.3794,
      "base_risk": 9.32,
      "rain_6h_mm": 1.5,
      "humidity_avg": 84.7,
      "soil_moisture_avg": 0.0,
      "rain_mult": 0.015,
      "soil_mult": 0.95,
      "humidity_mult": 1.042,
      "raw_dynamic_score": 0.138,
      "dynamic_level": "Low"
    },
    {
      "id": "140",
      "country": "Brazil",
      "name": "Taubaté",
      "latitude": -23.0264,
      "longitude": -45.5553,
      "base_risk": 9.5,
      "rain_6h_mm": 0.0,
      "humidity_avg": 94.5,
      "soil_moisture_avg": 0.0,
      "rain_mult": 0.0,
      "soil_mult": 0.95,
      "humidity_mult": 1.047,
      "raw_dynamic_score": 0.0,
      "dynamic_level": "None"
    },
    {
      "id": "141",
      "country": "Brazil",
      "name": "Teresina",
      "latitude": -5.0892,
      "longitude": -42.8019,
      "base_risk": 9.39,
      "rain_6h_mm": 0.0,
      "humidity_avg": 68.0,
      "soil_moisture_avg": 0.0,
      "rain_mult": 0.0,
      "soil_mult": 0.95,
      "humidity_mult": 1.034,
      "raw_dynamic_score": 0.0,
      "dynamic_level": "None"
    },
    {
      "id": "142",
      "country": "Brazil",
      "name": "Uberaba",
      "latitude": -19.7483,
      "longitude": -47.9319,
      "base_risk": 9.32,
      "rain_6h_mm": 0.0,
      "humidity_avg": 90.0,
      "soil_moisture_avg": 0.0,
      "rain_mult": 0.0,
      "soil_mult": 0.95,
      "humidity_mult": 1.045,
      "raw_dynamic_score": 0.0,
      "dynamic_level": "None"
    },
    {
      "id": "147",
      "country": "Bulgaria",
      "name": "Plovdiv",
      "latitude": 42.15,
      "longitude": 24.75,
      "base_risk": 9.01,
      "rain_6h_mm": 0.0,
      "humidity_avg": 80.0,
      "soil_moisture_avg": 0.0,
      "rain_mult": 0.0,
      "soil_mult": 0.95,
      "humidity_mult": 1.04,
      "raw_dynamic_score": 0.0,
      "dynamic_level": "None"
    },
    {
      "id": "148",
      "country": "Bulgaria",
      "name": "Sofia",
      "latitude": 42.6975,
      "longitude": 23.3242,
      "base_risk": 9.33,
      "rain_6h_mm": 3.3,
      "humidity_avg": 81.5,
      "soil_moisture_avg": 0.0,
      "rain_mult": 0.033,
      "soil_mult": 0.95,
      "humidity_mult": 1.041,
      "raw_dynamic_score": 0.304,
      "dynamic_level": "Low"
    },
    {
      "id": "149",
      "country": "Bulgaria",
      "name": "Varna",
      "latitude": 43.2167,
      "longitude": 27.9167,
      "base_risk": 9.44,
      "rain_6h_mm": 0.0,
      "humidity_avg": 84.0,
      "soil_moisture_avg": 0.0,
      "rain_mult": 0.0,
      "soil_mult": 0.95,
      "humidity_mult": 1.042,
      "raw_dynamic_score": 0.0,
      "dynamic_level": "None"
    },
    {
      "id": "150",
      "country": "Burkina Faso",
      "name": "Bobo-Dioulasso",
      "latitude": 11.1772,
      "longitude": -4.2979,
      "base_risk": 9.23,
      "rain_6h_mm": 0.0,
      "humidity_avg": 71.8,
      "soil_moisture_avg": 0.0,
      "rain_mult": 0.0,
      "soil_mult": 0.95,
      "humidity_mult": 1.036,
      "raw_dynamic_score": 0.0,
      "dynamic_level": "None"
    },
    {
      "id": "155",
      "country": "Cameroon",
      "name": "Bamenda",
      "latitude": 5.9527,
      "longitude": 10.1582,
      "base_risk": 9.5,
      "rain_6h_mm": 0.0,
      "humidity_avg": 94.3,
      "soil_moisture_avg": 0.0,
      "rain_mult": 0.0,
      "soil_mult": 0.95,
      "humidity_mult": 1.047,
      "raw_dynamic_score": 0.0,
      "dynamic_level": "None"
    },
    {
      "id": "156",
      "country": "Cameroon",
      "name": "Douala",
      "latitude": 4.0483,
      "longitude": 9.7043,
      "base_risk": 9.5,
      "rain_6h_mm": 0.0,
      "humidity_avg": 93.2,
      "soil_moisture_avg": 0.0,
      "rain_mult": 0.0,
      "soil_mult": 0.95,
      "humidity_mult": 1.047,
      "raw_dynamic_score": 0.0,
      "dynamic_level": "None"
    },
    {
      "id": "157",
      "country": "Cameroon",
      "name": "Garoua",
      "latitude": 9.3,
      "longitude": 13.4,
      "base_risk": 9.09,
      "rain_6h_mm": 0.0,
      "humidity_avg": 84.2,
      "soil_moisture_avg": 0.0,
      "rain_mult": 0.0,
      "soil_mult": 0.95,
      "humidity_mult": 1.042,
      "raw_dynamic_score": 0.0,
      "dynamic_level": "None"
    },
    {
      "id": "158",
      "country": "Cameroon",
      "name": "Loum",
      "latitude": 4.7182,
      "longitude": 9.7351,
      "base_risk": 9.16,
      "rain_6h_mm": 0.0,
      "humidity_avg": 96.8,
      "soil_moisture_avg": 0.0,
      "rain_mult": 0.0,
      "soil_mult": 0.95,
      "humidity_mult": 1.048,
      "raw_dynamic_score": 0.0,
      "dynamic_level": "None"
    },
    {
      "id": "163",
      "country": "Canada",
      "name": "Halifax",
      "latitude": 44.6477,
      "longitude": -63.5818,
      "base_risk": 9.07,
      "rain_6h_mm": 8.7,
      "humidity_avg": 89.5,
      "soil_moisture_avg": 0.0,
      "rain_mult": 0.087,
      "soil_mult": 0.95,
      "humidity_mult": 1.045,
      "raw_dynamic_score": 0.783,
      "dynamic_level": "Low"
    },
    {
      "id": "164",
      "country": "Canada",
      "name": "Hamilton",
      "latitude": 43.2495,
      "longitude": -79.8475,
      "base_risk": 9.21,
      "rain_6h_mm": 0.0,
      "humidity_avg": 66.0,
      "soil_moisture_avg": 0.0,
      "rain_mult": 0.0,
      "soil_mult": 0.95,
      "humidity_mult": 1.033,
      "raw_dynamic_score": 0.0,
      "dynamic_level": "None"
    },
    {
      "id": "165",
      "country": "Canada",
      "name": "Kitchener-Cambrigde-Waterloo",
      "latitude": 43.4254,
      "longitude": -80.5112,
      "base_risk": 8.96,
      "rain_6h_mm": 0.0,
      "humidity_avg": 65.8,
      "soil_moisture_avg": 0.0,
      "rain_mult": 0.0,
      "soil_mult": 0.95,
      "humidity_mult": 1.033,
      "raw_dynamic_score": 0.0,
      "dynamic_level": "None"
    },
    {
      "id": "170",
      "country": "Canada",
      "name": "Québec",
      "latitude": 46.8123,
      "longitude": -71.2145,
      "base_risk": 8.95,
      "rain_6h_mm": 3.4,
      "humidity_avg": 94.2,
      "soil_moisture_avg": 0.0,
      "rain_mult": 0.034,
      "soil_mult": 0.95,
      "humidity_mult": 1.047,
      "raw_dynamic_score": 0.303,
      "dynamic_level": "Low"
    },
    {
      "id": "171",
      "country": "Canada",
      "name": "Saskatoon",
      "latitude": 52.1168,
      "longitude": -106.6345,
      "base_risk": 9.03,
      "rain_6h_mm": 0.0,
      "humidity_avg": 61.2,
      "soil_moisture_avg": 0.0,
      "rain_mult": 0.0,
      "soil_mult": 0.95,
      "humidity_mult": 1.031,
      "raw_dynamic_score": 0.0,
      "dynamic_level": "None"
    },
    {
      "id": "172",
      "country": "Canada",
      "name": "St. Catharines-Niagara",
      "latitude": 43.1668,
      "longitude": -79.2496,
      "base_risk": 9.27,
      "rain_6h_mm": 0.0,
      "humidity_avg": 71.8,
      "soil_moisture_avg": 0.0,
      "rain_mult": 0.0,
      "soil_mult": 0.95,
      "humidity_mult": 1.036,
      "raw_dynamic_score": 0.0,
      "dynamic_level": "None"
    },
    {
      "id": "173",
      "country": "Canada",
      "name": "Toronto",
      "latitude": 43.7001,
      "longitude": -79.4163,
      "base_risk": 8.92,
      "rain_6h_mm": 0.0,
      "humidity_avg": 69.3,
      "soil_moisture_avg": 0.0,
      "rain_mult": 0.0,
      "soil_mult": 0.95,
      "humidity_mult": 1.035,
      "raw_dynamic_score": 0.0,
      "dynamic_level": "None"
    },
    {
      "id": "178",
      "country": "Central African Republic",
      "name": "Bangui",
      "latitude": 4.3612,
      "longitude": 18.555,
      "base_risk": 9.42,
      "rain_6h_mm": 0.0,
      "humidity_avg": 93.7,
      "soil_moisture_avg": 0.0,
      "rain_mult": 0.0,
      "soil_mult": 0.95,
      "humidity_mult": 1.047,
      "raw_dynamic_score": 0.0,
      "dynamic_level": "None"
    },
    {
      "id": "179",
      "country": "Chad",
      "name": "N'Djaména",
      "latitude": 12.1067,
      "longitude": 15.0444,
      "base_risk": 9.5,
      "rain_6h_mm": 0.0,
      "humidity_avg": 45.2,
      "soil_moisture_avg": 0.0,
      "rain_mult": 0.0,
      "soil_mult": 0.95,
      "humidity_mult": 1.023,
      "raw_dynamic_score": 0.0,
      "dynamic_level": "None"
    },
    {
      "id": "180",
      "country": "Chile",
      "name": "Antofagasta",
      "latitude": -23.65,
      "longitude": -70.4,
      "base_risk": 9.14,
      "rain_6h_mm": 0.0,
      "humidity_avg": 75.7,
      "soil_moisture_avg": 0.0,
      "rain_mult": 0.0,
      "soil_mult": 0.95,
      "humidity_mult": 1.038,
      "raw_dynamic_score": 0.0,
      "dynamic_level": "None"
    },
    {
      "id": "181",
      "country": "Chile",
      "name": "Concepción",
      "latitude": -36.827,
      "longitude": -73.0498,
      "base_risk": 9.03,
      "rain_6h_mm": 0.2,
      "humidity_avg": 91.2,
      "soil_moisture_avg": 0.0,
      "rain_mult": 0.002,
      "soil_mult": 0.95,
      "humidity_mult": 1.046,
      "raw_dynamic_score": 0.018,
      "dynamic_level": "Low"
    },
    {
      "id": "186",
      "country": "China",
      "name": "Akesu",
      "latitude": 41.1695,
      "longitude": 80.2626,
      "base_risk": 8.89,
      "rain_6h_mm": 0.0,
      "humidity_avg": 59.3,
      "soil_moisture_avg": 0.0,
      "rain_mult": 0.0,
      "soil_mult": 0.95,
      "humidity_mult": 1.03,
      "raw_dynamic_score": 0.0,
      "dynamic_level": "None"
    },
    {
      "id": "187",
      "country": "China",
      "name": "Ankang",
      "latitude": 32.6912,
      "longitude": 109.0297,
      "base_risk": 9.33,
      "rain_6h_mm": 0.0,
      "humidity_avg": 78.0,
      "soil_moisture_avg": 0.0,
      "rain_mult": 0.0,
      "soil_mult": 0.95,
      "humidity_mult": 1.039,
      "raw_dynamic_score": 0.0,
      "dynamic_level": "None"
    },
    {
      "id": "188",
      "country": "China",
      "name": "Anlu",
      "latitude": 31.2575,
      "longitude": 113.6783,
      "base_risk": 9.31,
      "rain_6h_mm": 0.0,
      "humidity_avg": 69.7,
      "soil_moisture_avg": 0.0,
      "rain_mult": 0.0,
      "soil_mult": 0.95,
      "humidity_mult": 1.035,
      "raw_dynamic_score": 0.0,
      "dynamic_level": "None"
    },
    {
      "id": "189",
      "country": "China",
      "name": "Anning",
      "latitude": 24.9211,
      "longitude": 102.4784,
      "base_risk": 8.75,
      "rain_6h_mm": 0.2,
      "humidity_avg": 89.3,
      "soil_moisture_avg": 0.0,
      "rain_mult": 0.002,
      "soil_mult": 0.95,
      "humidity_mult": 1.045,
      "raw_dynamic_score": 0.017,
      "dynamic_level": "Low"
    },
    {
      "id": "193",
      "country": "China",
      "name": "Anshun",
      "latitude": 26.2444,
      "longitude": 105.9324,
      "base_risk": 9.5,
      "rain_6h_mm": 0.0,
      "humidity_avg": 82.7,
      "soil_moisture_avg": 0.0,
      "rain_mult": 0.0,
      "soil_mult": 0.95,
      "humidity_mult": 1.041,
      "raw_dynamic_score": 0.0,
      "dynamic_level": "None"
    },
    {
      "id": "194",
      "country": "China",
      "name": "Anyang",
      "latitude": 36.0944,
      "longitude": 114.3503,
      "base_risk": 9.44,
      "rain_6h_mm": 0.0,
      "humidity_avg": 64.8,
      "soil_moisture_avg": 0.0,
      "rain_mult": 0.0,
      "soil_mult": 0.95,
      "humidity_mult": 1.032,
      "raw_dynamic_score": 0.0,
      "dynamic_level": "None"
    },
    {
      "id": "195",
      "country": "China",
      "name": "Baicheng",
      "latitude": 45.6183,
      "longitude": 122.8418,
      "base_risk": 9.33,
      "rain_6h_mm": 0.0,
      "humidity_avg": 28.2,
      "soil_moisture_avg": 0.0,
      "rain_mult": 0.0,
      "soil_mult": 0.95,
      "humidity_mult": 1.014,
      "raw_dynamic_score": 0.0,
      "dynamic_level": "None"
    },
    {
      "id": "196",
      "country": "China",
      "name": "Baishan",
      "latitude": 41.9373,
      "longitude": 126.4229,
      "base_risk": 9.41,
      "rain_6h_mm": 0.0,
      "humidity_avg": 77.2,
      "soil_moisture_avg": 0.0,
      "rain_mult": 0.0,
      "soil_mult": 0.95,
      "humidity_mult": 1.039,
      "raw_dynamic_score": 0.0,
      "dynamic_level": "None"
    },
    {
      "id": "201",
      "country": "China",
      "name": "Bayannaoer",
      "latitude": 40.7505,
      "longitude": 107.4052,
      "base_risk": 8.81,
      "rain_6h_mm": 0.0,
      "humidity_avg": 29.2,
      "soil_moisture_avg": 0.0,
      "rain_mult": 0.0,
      "soil_mult": 0.95,
      "humidity_mult": 1.015,
      "raw_dynamic_score": 0.0,
      "dynamic_level": "None"
    },
    {
      "id": "202",
      "country": "China",
      "name": "Bazhong",
      "latitude": 31.8662,
      "longitude": 106.7325,
      "base_risk": 8.74,
      "rain_6h_mm": 0.1,
      "humidity_avg": 85.3,
      "soil_moisture_avg": 0.0,
      "rain_mult": 0.001,
      "soil_mult": 0.95,
      "humidity_mult": 1.043,
      "raw_dynamic_score": 0.009,
      "dynamic_level": "Low"
    },
    {
      "id": "203",
      "country": "China",
      "name": "Beihai",
      "latitude": 21.4785,
      "longitude": 109.12,
      "base_risk": 9.5,
      "rain_6h_mm": 4.6,
      "humidity_avg": 89.2,
      "soil_moisture_avg": 0.0,
      "rain_mult": 0.046,
      "soil_mult": 0.95,
      "humidity_mult": 1.045,
      "raw_dynamic_score": 0.434,
      "dynamic_level": "Low"
    },
    {
      "id": "204",
      "country": "China",
      "name": "Beijing",
      "latitude": 39.9075,
      "longitude": 116.3972,
      "base_risk": 8.96,
      "rain_6h_mm": 0.0,
      "humidity_avg": 40.5,
      "soil_moisture_avg": 0.0,
      "rain_mult": 0.0,
      "soil_mult": 0.95,
      "humidity_mult": 1.02,
      "raw_dynamic_score": 0.0,
      "dynamic_level": "None"
    },
    {
      "id": "209",
      "country": "China",
      "name": "Botou",
      "latitude": 38.0667,
      "longitude": 116.5667,
      "base_risk": 9.27,
      "rain_6h_mm": 0.0,
      "humidity_avg": 65.5,
      "soil_moisture_avg": 0.0,
      "rain_mult": 0.0,
      "soil_mult": 0.95,
      "humidity_mult": 1.033,
      "raw_dynamic_score": 0.0,
      "dynamic_level": "None"
    },
    {
      "id": "210",
      "country": "China",
      "name": "Bozhou",
      "latitude": 33.8703,
      "longitude": 115.777,
      "base_risk": 9.31,
      "rain_6h_mm": 0.0,
      "humidity_avg": 46.3,
      "soil_moisture_avg": 0.0,
      "rain_mult": 0.0,
      "soil_mult": 0.95,
      "humidity_mult": 1.023,
      "raw_dynamic_score": 0.0,
      "dynamic_level": "None"
    },
    {
      "id": "211",
      "country": "China",
      "name": "Cangzhou",
      "latitude": 38.3167,
      "longitude": 116.8667,
      "base_risk": 9.34,
      "rain_6h_mm": 0.0,
      "humidity_avg": 65.0,
      "soil_moisture_avg": 0.0,
      "rain_mult": 0.0,
      "soil_mult": 0.95,
      "humidity_mult": 1.032,
      "raw_dynamic_score": 0.0,
      "dynamic_level": "None"
    },
    {
      "id": "212",
      "country": "China",
      "name": "Cenxi",
      "latitude": 22.9191,
      "longitude": 110.9945,
      "base_risk": 8.86,
      "rain_6h_mm": 7.6,
      "humidity_avg": 94.3,
      "soil_moisture_avg": 0.0,
      "rain_mult": 0.076,
      "soil_mult": 0.95,
      "humidity_mult": 1.047,
      "raw_dynamic_score": 0.67,
      "dynamic_level": "Low"
    },
    {
      "id": "217",
      "country": "China",
      "name": "Changning",
      "latitude": 26.4078,
      "longitude": 112.3957,
      "base_risk": 9.45,
      "rain_6h_mm": 3.1,
      "humidity_avg": 91.0,
      "soil_moisture_avg": 0.0,
      "rain_mult": 0.031,
      "soil_mult": 0.95,
      "humidity_mult": 1.046,
      "raw_dynamic_score": 0.291,
      "dynamic_level": "Low"
    },
    {
      "id": "218",
      "country": "China",
      "name": "Changsha",
      "latitude": 28.2274,
      "longitude": 112.9383,
      "base_risk": 9.47,
      "rain_6h_mm": 0.0,
      "humidity_avg": 83.2,
      "soil_moisture_avg": 0.0,
      "rain_mult": 0.0,
      "soil_mult": 0.95,
      "humidity_mult": 1.042,
      "raw_dynamic_score": 0.0,
      "dynamic_level": "None"
    },
    {
      "id": "219",
      "country": "China",
      "name": "Changshu",
      "latitude": 31.6539,
      "longitude": 120.7467,
      "base_risk": 9.47,
      "rain_6h_mm": 0.0,
      "humidity_avg": 65.0,
      "soil_moisture_avg": 0.0,
      "rain_mult": 0.0,
      "soil_mult": 0.95,
      "humidity_mult": 1.032,
      "raw_dynamic_score": 0.0,
      "dynamic_level": "None"
    },
    {
      "id": "224",
      "country": "China",
      "name": "Chaoyang",
      "latitude": 41.5773,
      "longitude": 120.4511,
      "base_risk": 9.05,
      "rain_6h_mm": 0.0,
      "humidity_avg": 28.3,
      "soil_moisture_avg": 0.0,
      "rain_mult": 0.0,
      "soil_mult": 0.95,
      "humidity_mult": 1.014,
      "raw_dynamic_score": 0.0,
      "dynamic_level": "None"
    },
    {
      "id": "225",
      "country": "China",
      "name": "Chaozhou",
      "latitude": 23.6651,
      "longitude": 116.6379,
      "base_risk": 9.41,
      "rain_6h_mm": 0.4,
      "humidity_avg": 69.7,
      "soil_moisture_avg": 0.0,
      "rain_mult": 0.004,
      "soil_mult": 0.95,
      "humidity_mult": 1.035,
      "raw_dynamic_score": 0.037,
      "dynamic_level": "Low"
    },
    {
      "id": "226",
      "country": "China",
      "name": "Chengde",
      "latitude": 40.9672,
      "longitude": 117.9322,
      "base_risk": 9.08,
      "rain_6h_mm": 0.0,
      "humidity_avg": 37.8,
      "soil_moisture_avg": 0.0,
      "rain_mult": 0.0,
      "soil_mult": 0.95,
      "humidity_mult": 1.019,
      "raw_dynamic_score": 0.0,
      "dynamic_level": "None"
    },
    {
      "id": "227",
      "country": "China",
      "name": "Chengdu",
      "latitude": 30.6667,
      "longitude": 104.0667,
      "base_risk": 9.37,
      "rain_6h_mm": 0.0,
      "humidity_avg": 69.0,
      "soil_moisture_avg": 0.0,
      "rain_mult": 0.0,
      "soil_mult": 0.95,
      "humidity_mult": 1.034,
      "raw_dynamic_score": 0.0,
      "dynamic_level": "None"
    },
    {
      "id": "232",
      "country": "China",
      "name": "Chuxiong",
      "latitude": 25.0445,
      "longitude": 101.541,
      "base_risk": 9.25,
      "rain_6h_mm": 0.0,
      "humidity_avg": 86.0,
      "soil_moisture_avg": 0.0,
      "rain_mult": 0.0,
      "soil_mult": 0.95,
      "humidity_mult": 1.043,
      "raw_dynamic_score": 0.0,
      "dynamic_level": "None"
    },
    {
      "id": "233",
      "country": "China",
      "name": "Chuzhou",
      "latitude": 32.2985,
      "longitude": 118.3164,
      "base_risk": 9.36,
      "rain_6h_mm": 0.0,
      "humidity_avg": 61.5,
      "soil_moisture_avg": 0.0,
      "rain_mult": 0.0,
      "soil_mult": 0.95,
      "humidity_mult": 1.031,
      "raw_dynamic_score": 0.0,
      "dynamic_level": "None"
    },
    {
      "id": "234",
      "country": "China",
      "name": "Cixi",
      "latitude": 30.1761,
      "longitude": 121.2524,
      "base_risk": 9.31,
      "rain_6h_mm": 0.9,
      "humidity_avg": 81.5,
      "soil_moisture_avg": 0.0,
      "rain_mult": 0.009,
      "soil_mult": 0.95,
      "humidity_mult": 1.041,
      "raw_dynamic_score": 0.083,
      "dynamic_level": "Low"
    },
    {
      "id": "235",
      "country": "China",
      "name": "Dali",
      "latitude": 25.59,
      "longitude": 100.2235,
      "base_risk": 9.37,
      "rain_6h_mm": 0.0,
      "humidity_avg": 78.0,
      "soil_moisture_avg": 0.0,
      "rain_mult": 0.0,
      "soil_mult": 0.95,
      "humidity_mult": 1.039,
      "raw_dynamic_score": 0.0,
      "dynamic_level": "None"
    },
    {
      "id": "240",
      "country": "China",
      "name": "Daqing",
      "latitude": 46.5833,
      "longitude": 125.0,
      "base_risk": 9.32,
      "rain_6h_mm": 0.0,
      "humidity_avg": 33.0,
      "soil_moisture_avg": 0.0,
      "rain_mult": 0.0,
      "soil_mult": 0.95,
      "humidity_mult": 1.016,
      "raw_dynamic_score": 0.0,
      "dynamic_level": "None"
    },
    {
      "id": "241",
      "country": "China",
      "name": "Dashiqiao",
      "latitude": 40.6373,
      "longitude": 122.5025,
      "base_risk": 9.43,
      "rain_6h_mm": 0.0,
      "humidity_avg": 56.0,
      "soil_moisture_avg": 0.0,
      "rain_mult": 0.0,
      "soil_mult": 0.95,
      "humidity_mult": 1.028,
      "raw_dynamic_score": 0.0,
      "dynamic_level": "None"
    },
    {
      "id": "245",
      "country": "China",
      "name": "Dengfeng",
      "latitude": 34.4553,
      "longitude": 113.0281,
      "base_risk": 9.43,
      "rain_6h_mm": 0.0,
      "humidity_avg": 67.2,
      "soil_moisture_avg": 0.0,
      "rain_mult": 0.0,
      "soil_mult": 0.95,
      "humidity_mult": 1.034,
      "raw_dynamic_score": 0.0,
      "dynamic_level": "None"
    },
    {
      "id": "246",
      "country": "China",
      "name": "Dengzhou",
      "latitude": 32.6822,
      "longitude": 112.0819,
      "base_risk": 8.84,
      "rain_6h_mm": 0.0,
      "humidity_avg": 72.5,
      "soil_moisture_avg": 0.0,
      "rain_mult": 0.0,
      "soil_mult": 0.95,
      "humidity_mult": 1.036,
      "raw_dynamic_score": 0.0,
      "dynamic_level": "None"
    },
    {
      "id": "247",
      "country": "China",
      "name": "Deyang",
      "latitude": 31.1302,
      "longitude": 104.382,
      "base_risk": 8.94,
      "rain_6h_mm": 0.0,
      "humidity_avg": 78.8,
      "soil_moisture_avg": 0.0,
      "rain_mult": 0.0,
      "soil_mult": 0.95,
      "humidity_mult": 1.039,
      "raw_dynamic_score": 0.0,
      "dynamic_level": "None"
    },
    {
      "id": "248",
      "country": "China",
      "name": "Dezhou",
      "latitude": 37.4518,
      "longitude": 116.301,
      "base_risk": 9.16,
      "rain_6h_mm": 0.0,
      "humidity_avg": 52.3,
      "soil_moisture_avg": 0.0,
      "rain_mult": 0.0,
      "soil_mult": 0.95,
      "humidity_mult": 1.026,
      "raw_dynamic_score": 0.0,
      "dynamic_level": "None"
    },
    {
      "id": "253",
      "country": "China",
      "name": "Dongyang",
      "latitude": 29.2753,
      "longitude": 120.2303,
      "base_risk": 9.27,
      "rain_6h_mm": 1.9,
      "humidity_avg": 88.7,
      "soil_moisture_avg": 0.0,
      "rain_mult": 0.019,
      "soil_mult": 0.95,
      "humidity_mult": 1.044,
      "raw_dynamic_score": 0.175,
      "dynamic_level": "Low"
    },
    {
      "id": "254",
      "country": "China",
      "name": "Dongying",
      "latitude": 37.4533,
      "longitude": 118.5785,
      "base_risk": 8.79,
      "rain_6h_mm": 0.0,
      "humidity_avg": 42.7,
      "soil_moisture_avg": 0.0,
      "rain_mult": 0.0,
      "soil_mult": 0.95,
      "humidity_mult": 1.021,
      "raw_dynamic_score": 0.0,
      "dynamic_level": "None"
    },
    {
      "id": "255",
      "country": "China",
      "name": "Dujiangyan",
      "latitude": 30.9966,
      "longitude": 103.6281,
      "base_risk": 8.88,
      "rain_6h_mm": 0.0,
      "humidity_avg": 92.2,
      "soil_moisture_avg": 0.0,
      "rain_mult": 0.0,
      "soil_mult": 0.95,
      "humidity_mult": 1.046,
      "raw_dynamic_score": 0.0,
      "dynamic_level": "None"
    },
    {
      "id": "256",
      "country": "China",
      "name": "Emeishan",
      "latitude": 29.6007,
      "longitude": 103.4856,
      "base_risk": 9.4,
      "rain_6h_mm": 0.0,
      "humidity_avg": 89.8,
      "soil_moisture_avg": 0.0,
      "rain_mult": 0.0,
      "soil_mult": 0.95,
      "humidity_mult": 1.045,
      "raw_dynamic_score": 0.0,
      "dynamic_level": "None"
    },
    {
      "id": "261",
      "country": "China",
      "name": "Fangchenggang",
      "latitude": 21.7659,
      "longitude": 108.354,
      "base_risk": 9.27,
      "rain_6h_mm": 2.2,
      "humidity_avg": 81.2,
      "soil_moisture_avg": 0.0,
      "rain_mult": 0.022,
      "soil_mult": 0.95,
      "humidity_mult": 1.041,
      "raw_dynamic_score": 0.202,
      "dynamic_level": "Low"
    },
    {
      "id": "262",
      "country": "China",
      "name": "Feicheng",
      "latitude": 36.1854,
      "longitude": 116.7674,
      "base_risk": 9.36,
      "rain_6h_mm": 0.0,
      "humidity_avg": 49.8,
      "soil_moisture_avg": 0.0,
      "rain_mult": 0.0,
      "soil_mult": 0.95,
      "humidity_mult": 1.025,
      "raw_dynamic_score": 0.0,
      "dynamic_level": "None"
    },
    {
      "id": "263",
      "country": "China",
      "name": "Fengcheng",
      "latitude": 28.1787,
      "longitude": 115.7758,
      "base_risk": 9.5,
      "rain_6h_mm": 0.0,
      "humidity_avg": 81.7,
      "soil_moisture_avg": 0.0,
      "rain_mult": 0.0,
      "soil_mult": 0.95,
      "humidity_mult": 1.041,
      "raw_dynamic_score": 0.0,
      "dynamic_level": "None"
    },
    {
      "id": "264",
      "country": "China",
      "name": "Foshan",
      "latitude": 23.0228,
      "longitude": 113.12,
      "base_risk": 9.09,
      "rain_6h_mm": 0.4,
      "humidity_avg": 86.7,
      "soil_moisture_avg": 0.0,
      "rain_mult": 0.004,
      "soil_mult": 0.95,
      "humidity_mult": 1.043,
      "raw_dynamic_score": 0.036,
      "dynamic_level": "Low"
    },
    {
      "id": "268",
      "country": "China",
      "name": "Fushun, Liaoning",
      "latitude": 41.8807,
      "longitude": 123.9467,
      "base_risk": 9.47,
      "rain_6h_mm": 0.0,
      "humidity_avg": 48.3,
      "soil_moisture_avg": 0.0,
      "rain_mult": 0.0,
      "soil_mult": 0.95,
      "humidity_mult": 1.024,
      "raw_dynamic_score": 0.0,
      "dynamic_level": "None"
    },
    {
      "id": "271",
      "country": "China",
      "name": "Fuzhou, Fujian",
      "latitude": 26.0754,
      "longitude": 119.2989,
      "base_risk": 9.05,
      "rain_6h_mm": 5.0,
      "humidity_avg": 85.7,
      "soil_moisture_avg": 0.0,
      "rain_mult": 0.05,
      "soil_mult": 0.95,
      "humidity_mult": 1.043,
      "raw_dynamic_score": 0.448,
      "dynamic_level": "Low"
    },
    {
      "id": "272",
      "country": "China",
      "name": "Fuzhou, Jiangxi",
      "latitude": 27.9812,
      "longitude": 116.3557,
      "base_risk": 9.36,
      "rain_6h_mm": 0.6,
      "humidity_avg": 83.7,
      "soil_moisture_avg": 0.0,
      "rain_mult": 0.006,
      "soil_mult": 0.95,
      "humidity_mult": 1.042,
      "raw_dynamic_score": 0.056,
      "dynamic_level": "Low"
    },
    {
      "id": "273",
      "country": "China",
      "name": "Ganzhou",
      "latitude": 25.85,
      "longitude": 114.9333,
      "base_risk": 8.63,
      "rain_6h_mm": 2.5,
      "humidity_avg": 89.0,
      "soil_moisture_avg": 0.0,
      "rain_mult": 0.025,
      "soil_mult": 0.95,
      "humidity_mult": 1.044,
      "raw_dynamic_score": 0.214,
      "dynamic_level": "Low"
    },
    {
      "id": "274",
      "country": "China",
      "name": "Gaoan",
      "latitude": 28.4271,
      "longitude": 115.3722,
      "base_risk": 9.0,
      "rain_6h_mm": 0.0,
      "humidity_avg": 69.5,
      "soil_moisture_avg": 0.0,
      "rain_mult": 0.0,
      "soil_mult": 0.95,
      "humidity_mult": 1.035,
      "raw_dynamic_score": 0.0,
      "dynamic_level": "None"
    },
    {
      "id": "275",
      "country": "China",
      "name": "Gaomi",
      "latitude": 36.3833,
      "longitude": 119.7528,
      "base_risk": 9.13,
      "rain_6h_mm": 0.0,
      "humidity_avg": 52.5,
      "soil_moisture_avg": 0.0,
      "rain_mult": 0.0,
      "soil_mult": 0.95,
      "humidity_mult": 1.026,
      "raw_dynamic_score": 0.0,
      "dynamic_level": "None"
    },
    {
      "id": "276",
      "country": "China",
      "name": "Gaoping",
      "latitude": 35.7977,
      "longitude": 112.923,
      "base_risk": 9.41,
      "rain_6h_mm": 0.0,
      "humidity_avg": 60.2,
      "soil_moisture_avg": 0.0,
      "rain_mult": 0.0,
      "soil_mult": 0.95,
      "humidity_mult": 1.03,
      "raw_dynamic_score": 0.0,
      "dynamic_level": "None"
    },
    {
      "id": "279",
      "country": "China",
      "name": "Gongyi",
      "latitude": 34.76,
      "longitude": 112.9714,
      "base_risk": 9.2,
      "rain_6h_mm": 0.0,
      "humidity_avg": 62.0,
      "soil_moisture_avg": 0.0,
      "rain_mult": 0.0,
      "soil_mult": 0.95,
      "humidity_mult": 1.031,
      "raw_dynamic_score": 0.0,
      "dynamic_level": "None"
    },
    {
      "id": "281",
      "country": "China",
      "name": "Guang'an",
      "latitude": 30.4639,
      "longitude": 106.6351,
      "base_risk": 9.03,
      "rain_6h_mm": 0.0,
      "humidity_avg": 82.3,
      "soil_moisture_avg": 0.0,
      "rain_mult": 0.0,
      "soil_mult": 0.95,
      "humidity_mult": 1.041,
      "raw_dynamic_score": 0.0,
      "dynamic_level": "None"
    },
    {
      "id": "283",
      "country": "China",
      "name": "Guangzhou, Guangdong",
      "latitude": 23.1255,
      "longitude": 113.2574,
      "base_risk": 9.5,
      "rain_6h_mm": 0.4,
      "humidity_avg": 87.8,
      "soil_moisture_avg": 0.0,
      "rain_mult": 0.004,
      "soil_mult": 0.95,
      "humidity_mult": 1.044,
      "raw_dynamic_score": 0.038,
      "dynamic_level": "Low"
    },
    {
      "id": "287",
      "country": "China",
      "name": "Guiyang",
      "latitude": 26.5833,
      "longitude": 106.7167,
      "base_risk": 8.82,
      "rain_6h_mm": 0.0,
      "humidity_avg": 82.8,
      "soil_moisture_avg": 0.0,
      "rain_mult": 0.0,
      "soil_mult": 0.95,
      "humidity_mult": 1.041,
      "raw_dynamic_score": 0.0,
      "dynamic_level": "None"
    },
    {
      "id": "288",
      "country": "China",
      "name": "Haerbin",
      "latitude": 45.7563,
      "longitude": 126.6467,
      "base_risk": 9.37,
      "rain_6h_mm": 0.0,
      "humidity_avg": 40.2,
      "soil_moisture_avg": 0.0,
      "rain_mult": 0.0,
      "soil_mult": 0.95,
      "humidity_mult": 1.02,
      "raw_dynamic_score": 0.0,
      "dynamic_level": "None"
    },
    {
      "id": "290",
      "country": "China",
      "name": "Haikou",
      "latitude": 20.0274,
      "longitude": 110.3301,
      "base_risk": 8.85,
      "rain_6h_mm": 0.5,
      "humidity_avg": 85.3,
      "soil_moisture_avg": 0.0,
      "rain_mult": 0.005,
      "soil_mult": 0.95,
      "humidity_mult": 1.043,
      "raw_dynamic_score": 0.044,
      "dynamic_level": "Low"
    },
    {
      "id": "295",
      "country": "China",
      "name": "Hami",
      "latitude": 42.8259,
      "longitude": 93.5169,
      "base_risk": 9.0,
      "rain_6h_mm": 0.0,
      "humidity_avg": 24.8,
      "soil_moisture_avg": 0.0,
      "rain_mult": 0.0,
      "soil_mult": 0.95,
      "humidity_mult": 1.012,
      "raw_dynamic_score": 0.0,
      "dynamic_level": "None"
    },
    {
      "id": "296",
      "country": "China",
      "name": "Hanchuan",
      "latitude": 30.6516,
      "longitude": 113.8329,
      "base_risk": 9.14,
      "rain_6h_mm": 0.0,
      "humidity_avg": 72.0,
      "soil_moisture_avg": 0.0,
      "rain_mult": 0.0,
      "soil_mult": 0.95,
      "humidity_mult": 1.036,
      "raw_dynamic_score": 0.0,
      "dynamic_level": "None"
    },
    {
      "id": "297",
      "country": "China",
      "name": "Handan",
      "latitude": 36.6006,
      "longitude": 114.4678,
      "base_risk": 8.73,
      "rain_6h_mm": 0.0,
      "humidity_avg": 61.5,
      "soil_moisture_avg": 0.0,
      "rain_mult": 0.0,
      "soil_mult": 0.95,
      "humidity_mult": 1.031,
      "raw_dynamic_score": 0.0,
      "dynamic_level": "None"
    },
    {
      "id": "298",
      "country": "China",
      "name": "Hangzhou",
      "latitude": 30.2937,
      "longitude": 120.1614,
      "base_risk": 9.47,
      "rain_6h_mm": 0.0,
      "humidity_avg": 76.0,
      "soil_moisture_avg": 0.0,
      "rain_mult": 0.0,
      "soil_mult": 0.95,
      "humidity_mult": 1.038,
      "raw_dynamic_score": 0.0,
      "dynamic_level": "None"
    },
    {
      "id": "303",
      "country": "China",
      "name": "Hegang",
      "latitude": 47.3443,
      "longitude": 130.2937,
      "base_risk": 9.4,
      "rain_6h_mm": 0.0,
      "humidity_avg": 48.5,
      "soil_moisture_avg": 0.0,
      "rain_mult": 0.0,
      "soil_mult": 0.95,
      "humidity_mult": 1.024,
      "raw_dynamic_score": 0.0,
      "dynamic_level": "None"
    },
    {
      "id": "304",
      "country": "China",
      "name": "Hejian",
      "latitude": 38.4425,
      "longitude": 116.0949,
      "base_risk": 9.31,
      "rain_6h_mm": 0.0,
      "humidity_avg": 70.0,
      "soil_moisture_avg": 0.0,
      "rain_mult": 0.0,
      "soil_mult": 0.95,
      "humidity_mult": 1.035,
      "raw_dynamic_score": 0.0,
      "dynamic_level": "None"
    },
    {
      "id": "305",
      "country": "China",
      "name": "Hengshui",
      "latitude": 37.7411,
      "longitude": 115.6781,
      "base_risk": 9.14,
      "rain_6h_mm": 0.0,
      "humidity_avg": 67.0,
      "soil_moisture_avg": 0.0,
      "rain_mult": 0.0,
      "soil_mult": 0.95,
      "humidity_mult": 1.034,
      "raw_dynamic_score": 0.0,
      "dynamic_level": "None"
    },
    {
      "id": "306",
      "country": "China",
      "name": "Hengyang",
      "latitude": 26.8841,
      "longitude": 112.6251,
      "base_risk": 8.99,
      "rain_6h_mm": 0.5,
      "humidity_avg": 87.3,
      "soil_moisture_avg": 0.0,
      "rain_mult": 0.005,
      "soil_mult": 0.95,
      "humidity_mult": 1.044,
      "raw_dynamic_score": 0.045,
      "dynamic_level": "Low"
    },
    {
      "id": "311",
      "country": "China",
      "name": "Hohhot",
      "latitude": 40.8106,
      "longitude": 111.6522,
      "base_risk": 8.99,
      "rain_6h_mm": 0.0,
      "humidity_avg": 42.2,
      "soil_moisture_avg": 0.0,
      "rain_mult": 0.0,
      "soil_mult": 0.95,
      "humidity_mult": 1.021,
      "raw_dynamic_score": 0.0,
      "dynamic_level": "None"
    },
    {
      "id": "312",
      "country": "China",
      "name": "Huai'an",
      "latitude": 33.607,
      "longitude": 119.0148,
      "base_risk": 9.47,
      "rain_6h_mm": 0.0,
      "humidity_avg": 52.0,
      "soil_moisture_avg": 0.0,
      "rain_mult": 0.0,
      "soil_mult": 0.95,
      "humidity_mult": 1.026,
      "raw_dynamic_score": 0.0,
      "dynamic_level": "None"
    },
    {
      "id": "313",
      "country": "China",
      "name": "Huaibei",
      "latitude": 33.9549,
      "longitude": 116.7929,
      "base_risk": 9.23,
      "rain_6h_mm": 0.0,
      "humidity_avg": 56.7,
      "soil_moisture_avg": 0.0,
      "rain_mult": 0.0,
      "soil_mult": 0.95,
      "humidity_mult": 1.028,
      "raw_dynamic_score": 0.0,
      "dynamic_level": "None"
    },
    {
      "id": "317",
      "country": "China",
      "name": "Huangshi",
      "latitude": 30.2068,
      "longitude": 115.0855,
      "base_risk": 9.45,
      "rain_6h_mm": 0.0,
      "humidity_avg": 59.8,
      "soil_moisture_avg": 0.0,
      "rain_mult": 0.0,
      "soil_mult": 0.95,
      "humidity_mult": 1.03,
      "raw_dynamic_score": 0.0,
      "dynamic_level": "None"
    },
    {
      "id": "318",
      "country": "China",
      "name": "Huazhou",
      "latitude": 21.6572,
      "longitude": 110.6391,
      "base_risk": 8.68,
      "rain_6h_mm": 2.2,
      "humidity_avg": 86.2,
      "soil_moisture_avg": 0.0,
      "rain_mult": 0.022,
      "soil_mult": 0.95,
      "humidity_mult": 1.043,
      "raw_dynamic_score": 0.189,
      "dynamic_level": "Low"
    },
    {
      "id": "319",
      "country": "China",
      "name": "Huixian",
      "latitude": 35.4672,
      "longitude": 113.8013,
      "base_risk": 9.16,
      "rain_6h_mm": 0.0,
      "humidity_avg": 63.2,
      "soil_moisture_avg": 0.0,
      "rain_mult": 0.0,
      "soil_mult": 0.95,
      "humidity_mult": 1.032,
      "raw_dynamic_score": 0.0,
      "dynamic_level": "None"
    },
    {
      "id": "320",
      "country": "China",
      "name": "Huizhou",
      "latitude": 23.0833,
      "longitude": 114.4,
      "base_risk": 9.06,
      "rain_6h_mm": 0.1,
      "humidity_avg": 74.2,
      "soil_moisture_avg": 0.0,
      "rain_mult": 0.001,
      "soil_mult": 0.95,
      "humidity_mult": 1.037,
      "raw_dynamic_score": 0.009,
      "dynamic_level": "Low"
    },
    {
      "id": "321",
      "country": "China",
      "name": "Huludao",
      "latitude": 40.7524,
      "longitude": 120.8355,
      "base_risk": 9.31,
      "rain_6h_mm": 0.0,
      "humidity_avg": 28.7,
      "soil_moisture_avg": 0.0,
      "rain_mult": 0.0,
      "soil_mult": 0.95,
      "humidity_mult": 1.014,
      "raw_dynamic_score": 0.0,
      "dynamic_level": "None"
    },
    {
      "id": "327",
      "country": "China",
      "name": "Jianyang",
      "latitude": 30.3921,
      "longitude": 104.5448,
      "base_risk": 9.39,
      "rain_6h_mm": 0.0,
      "humidity_avg": 81.0,
      "soil_moisture_avg": 0.0,
      "rain_mult": 0.0,
      "soil_mult": 0.95,
      "humidity_mult": 1.04,
      "raw_dynamic_score": 0.0,
      "dynamic_level": "None"
    },
    {
      "id": "328",
      "country": "China",
      "name": "Jiaozhou",
      "latitude": 36.2839,
      "longitude": 120.0033,
      "base_risk": 9.02,
      "rain_6h_mm": 0.0,
      "humidity_avg": 52.8,
      "soil_moisture_avg": 0.0,
      "rain_mult": 0.0,
      "soil_mult": 0.95,
      "humidity_mult": 1.026,
      "raw_dynamic_score": 0.0,
      "dynamic_level": "None"
    },
    {
      "id": "329",
      "country": "China",
      "name": "Jiaozuo",
      "latitude": 35.2397,
      "longitude": 113.2331,
      "base_risk": 8.72,
      "rain_6h_mm": 0.0,
      "humidity_avg": 61.7,
      "soil_moisture_avg": 0.0,
      "rain_mult": 0.0,
      "soil_mult": 0.95,
      "humidity_mult": 1.031,
      "raw_dynamic_score": 0.0,
      "dynamic_level": "None"
    },
    {
      "id": "330",
      "country": "China",
      "name": "Jiaxing",
      "latitude": 30.7665,
      "longitude": 120.7482,
      "base_risk": 8.97,
      "rain_6h_mm": 0.0,
      "humidity_avg": 67.2,
      "soil_moisture_avg": 0.0,
      "rain_mult": 0.0,
      "soil_mult": 0.95,
      "humidity_mult": 1.034,
      "raw_dynamic_score": 0.0,
      "dynamic_level": "None"
    },
    {
      "id": "335",
      "country": "China",
      "name": "Jincheng",
      "latitude": 35.4865,
      "longitude": 112.8515,
      "base_risk": 9.38,
      "rain_6h_mm": 0.0,
      "humidity_avg": 63.7,
      "soil_moisture_avg": 0.0,
      "rain_mult": 0.0,
      "soil_mult": 0.95,
      "humidity_mult": 1.032,
      "raw_dynamic_score": 0.0,
      "dynamic_level": "None"
    },
    {
      "id": "336",
      "country": "China",
      "name": "Jingdezhen",
      "latitude": 29.2947,
      "longitude": 117.2079,
      "base_risk": 9.23,
      "rain_6h_mm": 0.0,
      "humidity_avg": 60.7,
      "soil_moisture_avg": 0.0,
      "rain_mult": 0.0,
      "soil_mult": 0.95,
      "humidity_mult": 1.03,
      "raw_dynamic_score": 0.0,
      "dynamic_level": "None"
    },
    {
      "id": "337",
      "country": "China",
      "name": "Jingjiang",
      "latitude": 32.012,
      "longitude": 120.2627,
      "base_risk": 9.47,
      "rain_6h_mm": 0.0,
      "humidity_avg": 63.5,
      "soil_moisture_avg": 0.0,
      "rain_mult": 0.0,
      "soil_mult": 0.95,
      "humidity_mult": 1.032,
      "raw_dynamic_score": 0.0,
      "dynamic_level": "None"
    },
    {
      "id": "338",
      "country": "China",
      "name": "Jingmen",
      "latitude": 31.0417,
      "longitude": 112.2003,
      "base_risk": 9.46,
      "rain_6h_mm": 0.0,
      "humidity_avg": 73.7,
      "soil_moisture_avg": 0.0,
      "rain_mult": 0.0,
      "soil_mult": 0.95,
      "humidity_mult": 1.037,
      "raw_dynamic_score": 0.0,
      "dynamic_level": "None"
    },
    {
      "id": "343",
      "country": "China",
      "name": "Jinzhong",
      "latitude": 37.6882,
      "longitude": 112.7349,
      "base_risk": 8.96,
      "rain_6h_mm": 0.0,
      "humidity_avg": 50.8,
      "soil_moisture_avg": 0.0,
      "rain_mult": 0.0,
      "soil_mult": 0.95,
      "humidity_mult": 1.025,
      "raw_dynamic_score": 0.0,
      "dynamic_level": "None"
    },
    {
      "id": "344",
      "country": "China",
      "name": "Jinzhou",
      "latitude": 41.1078,
      "longitude": 121.1417,
      "base_risk": 9.47,
      "rain_6h_mm": 0.0,
      "humidity_avg": 27.8,
      "soil_moisture_avg": 0.0,
      "rain_mult": 0.0,
      "soil_mult": 0.95,
      "humidity_mult": 1.014,
      "raw_dynamic_score": 0.0,
      "dynamic_level": "None"
    },
    {
      "id": "345",
      "country": "China",
      "name": "Jiujiang",
      "latitude": 29.7041,
      "longitude": 116.0013,
      "base_risk": 8.61,
      "rain_6h_mm": 0.0,
      "humidity_avg": 67.3,
      "soil_moisture_avg": 0.0,
      "rain_mult": 0.0,
      "soil_mult": 0.95,
      "humidity_mult": 1.034,
      "raw_dynamic_score": 0.0,
      "dynamic_level": "None"
    },
    {
      "id": "346",
      "country": "China",
      "name": "Jiuquan",
      "latitude": 39.738,
      "longitude": 98.5042,
      "base_risk": 9.25,
      "rain_6h_mm": 0.0,
      "humidity_avg": 21.2,
      "soil_moisture_avg": 0.0,
      "rain_mult": 0.0,
      "soil_mult": 0.95,
      "humidity_mult": 1.011,
      "raw_dynamic_score": 0.0,
      "dynamic_level": "None"
    },
    {
      "id": "351",
      "country": "China",
      "name": "Kaili",
      "latitude": 26.5834,
      "longitude": 107.9719,
      "base_risk": 9.49,
      "rain_6h_mm": 0.0,
      "humidity_avg": 83.3,
      "soil_moisture_avg": 0.0,
      "rain_mult": 0.0,
      "soil_mult": 0.95,
      "humidity_mult": 1.042,
      "raw_dynamic_score": 0.0,
      "dynamic_level": "None"
    },
    {
      "id": "352",
      "country": "China",
      "name": "Kaiping",
      "latitude": 22.3724,
      "longitude": 112.7026,
      "base_risk": 9.24,
      "rain_6h_mm": 0.1,
      "humidity_avg": 85.0,
      "soil_moisture_avg": 0.0,
      "rain_mult": 0.001,
      "soil_mult": 0.95,
      "humidity_mult": 1.042,
      "raw_dynamic_score": 0.009,
      "dynamic_level": "Low"
    },
    {
      "id": "353",
      "country": "China",
      "name": "Kelamayi",
      "latitude": 45.5941,
      "longitude": 84.8729,
      "base_risk": 9.23,
      "rain_6h_mm": 0.0,
      "humidity_avg": 54.8,
      "soil_moisture_avg": 0.0,
      "rain_mult": 0.0,
      "soil_mult": 0.95,
      "humidity_mult": 1.027,
      "raw_dynamic_score": 0.0,
      "dynamic_level": "None"
    },
    {
      "id": "354",
      "country": "China",
      "name": "Kuerle",
      "latitude": 41.7646,
      "longitude": 86.1472,
      "base_risk": 9.37,
      "rain_6h_mm": 0.0,
      "humidity_avg": 34.2,
      "soil_moisture_avg": 0.0,
      "rain_mult": 0.0,
      "soil_mult": 0.95,
      "humidity_mult": 1.017,
      "raw_dynamic_score": 0.0,
      "dynamic_level": "None"
    },
    {
      "id": "359",
      "country": "China",
      "name": "Laixi",
      "latitude": 36.8651,
      "longitude": 120.5238,
      "base_risk": 9.39,
      "rain_6h_mm": 0.0,
      "humidity_avg": 56.5,
      "soil_moisture_avg": 0.0,
      "rain_mult": 0.0,
      "soil_mult": 0.95,
      "humidity_mult": 1.028,
      "raw_dynamic_score": 0.0,
      "dynamic_level": "None"
    },
    {
      "id": "360",
      "country": "China",
      "name": "Laiyang",
      "latitude": 36.9758,
      "longitude": 120.7136,
      "base_risk": 9.24,
      "rain_6h_mm": 0.0,
      "humidity_avg": 59.3,
      "soil_moisture_avg": 0.0,
      "rain_mult": 0.0,
      "soil_mult": 0.95,
      "humidity_mult": 1.03,
      "raw_dynamic_score": 0.0,
      "dynamic_level": "None"
    },
    {
      "id": "361",
      "country": "China",
      "name": "Laizhou",
      "latitude": 37.1797,
      "longitude": 119.943,
      "base_risk": 9.32,
      "rain_6h_mm": 0.0,
      "humidity_avg": 50.3,
      "soil_moisture_avg": 0.0,
      "rain_mult": 0.0,
      "soil_mult": 0.95,
      "humidity_mult": 1.025,
      "raw_dynamic_score": 0.0,
      "dynamic_level": "None"
    },
    {
      "id": "362",
      "country": "China",
      "name": "Langfang",
      "latitude": 39.5097,
      "longitude": 116.6947,
      "base_risk": 8.99,
      "rain_6h_mm": 0.0,
      "humidity_avg": 54.8,
      "soil_moisture_avg": 0.0,
      "rain_mult": 0.0,
      "soil_mult": 0.95,
      "humidity_mult": 1.027,
      "raw_dynamic_score": 0.0,
      "dynamic_level": "None"
    },
    {
      "id": "367",
      "country": "China",
      "name": "Leshan",
      "latitude": 29.5762,
      "longitude": 103.759,
      "base_risk": 8.97,
      "rain_6h_mm": 0.0,
      "humidity_avg": 81.3,
      "soil_moisture_avg": 0.0,
      "rain_mult": 0.0,
      "soil_mult": 0.95,
      "humidity_mult": 1.041,
      "raw_dynamic_score": 0.0,
      "dynamic_level": "None"
    },
    {
      "id": "368",
      "country": "China",
      "name": "Lianyungang",
      "latitude": 34.5969,
      "longitude": 119.1758,
      "base_risk": 9.49,
      "rain_6h_mm": 0.0,
      "humidity_avg": 60.2,
      "soil_moisture_avg": 0.0,
      "rain_mult": 0.0,
      "soil_mult": 0.95,
      "humidity_mult": 1.03,
      "raw_dynamic_score": 0.0,
      "dynamic_level": "None"
    },
    {
      "id": "369",
      "country": "China",
      "name": "Liaocheng",
      "latitude": 36.4551,
      "longitude": 115.9826,
      "base_risk": 9.39,
      "rain_6h_mm": 0.0,
      "humidity_avg": 57.0,
      "soil_moisture_avg": 0.0,
      "rain_mult": 0.0,
      "soil_mult": 0.95,
      "humidity_mult": 1.028,
      "raw_dynamic_score": 0.0,
      "dynamic_level": "None"
    },
    {
      "id": "370",
      "country": "China",
      "name": "Liaoyang",
      "latitude": 41.2719,
      "longitude": 123.1731,
      "base_risk": 9.08,
      "rain_6h_mm": 0.0,
      "humidity_avg": 45.2,
      "soil_moisture_avg": 0.0,
      "rain_mult": 0.0,
      "soil_mult": 0.95,
      "humidity_mult": 1.023,
      "raw_dynamic_score": 0.0,
      "dynamic_level": "None"
    },
    {
      "id": "374",
      "country": "China",
      "name": "Linhai",
      "latitude": 28.8529,
      "longitude": 121.1403,
      "base_risk": 9.13,
      "rain_6h_mm": 6.5,
      "humidity_avg": 92.3,
      "soil_moisture_avg": 0.0,
      "rain_mult": 0.065,
      "soil_mult": 0.95,
      "humidity_mult": 1.046,
      "raw_dynamic_score": 0.59,
      "dynamic_level": "Low"
    },
    {
      "id": "375",
      "country": "China",
      "name": "Linqing",
      "latitude": 36.8456,
      "longitude": 115.7117,
      "base_risk": 9.39,
      "rain_6h_mm": 0.0,
      "humidity_avg": 53.7,
      "soil_moisture_avg": 0.0,
      "rain_mult": 0.0,
      "soil_mult": 0.95,
      "humidity_mult": 1.027,
      "raw_dynamic_score": 0.0,
      "dynamic_level": "None"
    },
    {
      "id": "376",
      "country": "China",
      "name": "Linyi, Shandong",
      "latitude": 35.0541,
      "longitude": 118.3334,
      "base_risk": 9.35,
      "rain_6h_mm": 0.0,
      "humidity_avg": 60.2,
      "soil_moisture_avg": 0.0,
      "rain_mult": 0.0,
      "soil_mult": 0.95,
      "humidity_mult": 1.03,
      "raw_dynamic_score": 0.0,
      "dynamic_level": "None"
    },
    {
      "id": "377",
      "country": "China",
      "name": "Linzhou",
      "latitude": 36.071,
      "longitude": 113.8156,
      "base_risk": 8.67,
      "rain_6h_mm": 0.0,
      "humidity_avg": 49.7,
      "soil_moisture_avg": 0.0,
      "rain_mult": 0.0,
      "soil_mult": 0.95,
      "humidity_mult": 1.025,
      "raw_dynamic_score": 0.0,
      "dynamic_level": "None"
    },
    {
      "id": "381",
      "country": "China",
      "name": "Liuyang",
      "latitude": 28.15,
      "longitude": 113.6333,
      "base_risk": 9.29,
      "rain_6h_mm": 0.0,
      "humidity_avg": 84.0,
      "soil_moisture_avg": 0.0,
      "rain_mult": 0.0,
      "soil_mult": 0.95,
      "humidity_mult": 1.042,
      "raw_dynamic_score": 0.0,
      "dynamic_level": "None"
    },
    {
      "id": "384",
      "country": "China",
      "name": "Longchang",
      "latitude": 29.3394,
      "longitude": 105.2876,
      "base_risk": 9.36,
      "rain_6h_mm": 0.0,
      "humidity_avg": 84.7,
      "soil_moisture_avg": 0.0,
      "rain_mult": 0.0,
      "soil_mult": 0.95,
      "humidity_mult": 1.042,
      "raw_dynamic_score": 0.0,
      "dynamic_level": "None"
    },
    {
      "id": "385",
      "country": "China",
      "name": "Longhai",
      "latitude": 24.4462,
      "longitude": 117.809,
      "base_risk": 9.37,
      "rain_6h_mm": 1.6,
      "humidity_avg": 74.3,
      "soil_moisture_avg": 0.0,
      "rain_mult": 0.016,
      "soil_mult": 0.95,
      "humidity_mult": 1.037,
      "raw_dynamic_score": 0.148,
      "dynamic_level": "Low"
    },
    {
      "id": "386",
      "country": "China",
      "name": "Longkou",
      "latitude": 37.6417,
      "longitude": 120.5199,
      "base_risk": 8.69,
      "rain_6h_mm": 0.0,
      "humidity_avg": 55.5,
      "soil_moisture_avg": 0.0,
      "rain_mult": 0.0,
      "soil_mult": 0.95,
      "humidity_mult": 1.028,
      "raw_dynamic_score": 0.0,
      "dynamic_level": "None"
    },
    {
      "id": "387",
      "country": "China",
      "name": "Longyan",
      "latitude": 25.1072,
      "longitude": 117.0225,
      "base_risk": 9.17,
      "rain_6h_mm": 9.3,
      "humidity_avg": 95.5,
      "soil_moisture_avg": 0.0,
      "rain_mult": 0.093,
      "soil_mult": 0.95,
      "humidity_mult": 1.048,
      "raw_dynamic_score": 0.849,
      "dynamic_level": "Low"
    },
    {
      "id": "392",
      "country": "China",
      "name": "Luzhou",
      "latitude": 28.8775,
      "longitude": 105.4408,
      "base_risk": 9.29,
      "rain_6h_mm": 0.0,
      "humidity_avg": 83.0,
      "soil_moisture_avg": 0.0,
      "rain_mult": 0.0,
      "soil_mult": 0.95,
      "humidity_mult": 1.042,
      "raw_dynamic_score": 0.0,
      "dynamic_level": "None"
    },
    {
      "id": "393",
      "country": "China",
      "name": "Lvliang",
      "latitude": 37.5195,
      "longitude": 111.1318,
      "base_risk": 9.12,
      "rain_6h_mm": 0.0,
      "humidity_avg": 47.8,
      "soil_moisture_avg": 0.0,
      "rain_mult": 0.0,
      "soil_mult": 0.95,
      "humidity_mult": 1.024,
      "raw_dynamic_score": 0.0,
      "dynamic_level": "None"
    },
    {
      "id": "394",
      "country": "China",
      "name": "Ma'anshan",
      "latitude": 31.7071,
      "longitude": 118.5038,
      "base_risk": 9.18,
      "rain_6h_mm": 0.0,
      "humidity_avg": 65.8,
      "soil_moisture_avg": 0.0,
      "rain_mult": 0.0,
      "soil_mult": 0.95,
      "humidity_mult": 1.033,
      "raw_dynamic_score": 0.0,
      "dynamic_level": "None"
    },
    {
      "id": "395",
      "country": "China",
      "name": "Macheng",
      "latitude": 31.1783,
      "longitude": 115.0319,
      "base_risk": 9.26,
      "rain_6h_mm": 0.0,
      "humidity_avg": 60.7,
      "soil_moisture_avg": 0.0,
      "rain_mult": 0.0,
      "soil_mult": 0.95,
      "humidity_mult": 1.03,
      "raw_dynamic_score": 0.0,
      "dynamic_level": "None"
    },
    {
      "id": "400",
      "country": "China",
      "name": "Mianyang, Sichuan",
      "latitude": 31.4839,
      "longitude": 104.737,
      "base_risk": 9.43,
      "rain_6h_mm": 0.0,
      "humidity_avg": 82.7,
      "soil_moisture_avg": 0.0,
      "rain_mult": 0.0,
      "soil_mult": 0.95,
      "humidity_mult": 1.041,
      "raw_dynamic_score": 0.0,
      "dynamic_level": "None"
    },
    {
      "id": "401",
      "country": "China",
      "name": "Miluo",
      "latitude": 28.8069,
      "longitude": 113.0721,
      "base_risk": 8.82,
      "rain_6h_mm": 0.0,
      "humidity_avg": 76.3,
      "soil_moisture_avg": 0.0,
      "rain_mult": 0.0,
      "soil_mult": 0.95,
      "humidity_mult": 1.038,
      "raw_dynamic_score": 0.0,
      "dynamic_level": "None"
    },
    {
      "id": "402",
      "country": "China",
      "name": "Mudanjiang",
      "latitude": 44.5833,
      "longitude": 129.6,
      "base_risk": 9.45,
      "rain_6h_mm": 0.0,
      "humidity_avg": 50.7,
      "soil_moisture_avg": 0.0,
      "rain_mult": 0.0,
      "soil_mult": 0.95,
      "humidity_mult": 1.025,
      "raw_dynamic_score": 0.0,
      "dynamic_level": "None"
    },
    {
      "id": "403",
      "country": "China",
      "name": "Nanchang",
      "latitude": 28.6833,
      "longitude": 115.8833,
      "base_risk": 9.47,
      "rain_6h_mm": 0.0,
      "humidity_avg": 60.5,
      "soil_moisture_avg": 0.0,
      "rain_mult": 0.0,
      "soil_mult": 0.95,
      "humidity_mult": 1.03,
      "raw_dynamic_score": 0.0,
      "dynamic_level": "None"
    },
    {
      "id": "404",
      "country": "China",
      "name": "Nanchong",
      "latitude": 30.7951,
      "longitude": 106.0847,
      "base_risk": 9.26,
      "rain_6h_mm": 0.0,
      "humidity_avg": 81.0,
      "soil_moisture_avg": 0.0,
      "rain_mult": 0.0,
      "soil_mult": 0.95,
      "humidity_mult": 1.04,
      "raw_dynamic_score": 0.0,
      "dynamic_level": "None"
    },
    {
      "id": "409",
      "country": "China",
      "name": "Nantong",
      "latitude": 31.9904,
      "longitude": 120.8655,
      "base_risk": 8.72,
      "rain_6h_mm": 0.0,
      "humidity_avg": 62.8,
      "soil_moisture_avg": 0.0,
      "rain_mult": 0.0,
      "soil_mult": 0.95,
      "humidity_mult": 1.031,
      "raw_dynamic_score": 0.0,
      "dynamic_level": "None"
    },
    {
      "id": "411",
      "country": "China",
      "name": "Neijiang",
      "latitude": 29.5835,
      "longitude": 105.0622,
      "base_risk": 9.49,
      "rain_6h_mm": 0.0,
      "humidity_avg": 82.7,
      "soil_moisture_avg": 0.0,
      "rain_mult": 0.0,
      "soil_mult": 0.95,
      "humidity_mult": 1.041,
      "raw_dynamic_score": 0.0,
      "dynamic_level": "None"
    },
    {
      "id": "413",
      "country": "China",
      "name": "Ningde",
      "latitude": 26.6617,
      "longitude": 119.5228,
      "base_risk": 9.12,
      "rain_6h_mm": 6.0,
      "humidity_avg": 93.8,
      "soil_moisture_avg": 0.0,
      "rain_mult": 0.06,
      "soil_mult": 0.95,
      "humidity_mult": 1.047,
      "raw_dynamic_score": 0.544,
      "dynamic_level": "Low"
    },
    {
      "id": "415",
      "country": "China",
      "name": "Panjin",
      "latitude": 41.1219,
      "longitude": 122.0701,
      "base_risk": 9.4,
      "rain_6h_mm": 0.0,
      "humidity_avg": 29.8,
      "soil_moisture_avg": 0.0,
      "rain_mult": 0.0,
      "soil_mult": 0.95,
      "humidity_mult": 1.015,
      "raw_dynamic_score": 0.0,
      "dynamic_level": "None"
    },
    {
      "id": "417",
      "country": "China",
      "name": "Pingdingshan, Henan",
      "latitude": 33.7417,
      "longitude": 113.304,
      "base_risk": 8.61,
      "rain_6h_mm": 0.0,
      "humidity_avg": 66.8,
      "soil_moisture_avg": 0.0,
      "rain_mult": 0.0,
      "soil_mult": 0.95,
      "humidity_mult": 1.033,
      "raw_dynamic_score": 0.0,
      "dynamic_level": "None"
    },
    {
      "id": "418",
      "country": "China",
      "name": "Pingdu",
      "latitude": 36.7808,
      "longitude": 119.9592,
      "base_risk": 9.42,
      "rain_6h_mm": 0.0,
      "humidity_avg": 54.5,
      "soil_moisture_avg": 0.0,
      "rain_mult": 0.0,
      "soil_mult": 0.95,
      "humidity_mult": 1.027,
      "raw_dynamic_score": 0.0,
      "dynamic_level": "None"
    },
    {
      "id": "420",
      "country": "China",
      "name": "Pingliang",
      "latitude": 35.5392,
      "longitude": 106.6861,
      "base_risk": 9.43,
      "rain_6h_mm": 0.0,
      "humidity_avg": 58.2,
      "soil_moisture_avg": 0.0,
      "rain_mult": 0.0,
      "soil_mult": 0.95,
      "humidity_mult": 1.029,
      "raw_dynamic_score": 0.0,
      "dynamic_level": "None"
    },
    {
      "id": "424",
      "country": "China",
      "name": "Putian",
      "latitude": 25.4394,
      "longitude": 119.0103,
      "base_risk": 9.12,
      "rain_6h_mm": 5.2,
      "humidity_avg": 84.7,
      "soil_moisture_avg": 0.0,
      "rain_mult": 0.052,
      "soil_mult": 0.95,
      "humidity_mult": 1.042,
      "raw_dynamic_score": 0.47,
      "dynamic_level": "Low"
    },
    {
      "id": "425",
      "country": "China",
      "name": "Puyang",
      "latitude": 35.7705,
      "longitude": 115.0438,
      "base_risk": 9.13,
      "rain_6h_mm": 0.0,
      "humidity_avg": 64.0,
      "soil_moisture_avg": 0.0,
      "rain_mult": 0.0,
      "soil_mult": 0.95,
      "humidity_mult": 1.032,
      "raw_dynamic_score": 0.0,
      "dynamic_level": "None"
    },
    {
      "id": "426",
      "country": "China",
      "name": "Qianjiang",
      "latitude": 30.4221,
      "longitude": 112.8925,
      "base_risk": 9.44,
      "rain_6h_mm": 0.0,
      "humidity_avg": 72.3,
      "soil_moisture_avg": 0.0,
      "rain_mult": 0.0,
      "soil_mult": 0.95,
      "humidity_mult": 1.036,
      "raw_dynamic_score": 0.0,
      "dynamic_level": "None"
    },
    {
      "id": "427",
      "country": "China",
      "name": "Qidong",
      "latitude": 31.8134,
      "longitude": 121.6577,
      "base_risk": 9.13,
      "rain_6h_mm": 0.0,
      "humidity_avg": 62.7,
      "soil_moisture_avg": 0.0,
      "rain_mult": 0.0,
      "soil_mult": 0.95,
      "humidity_mult": 1.031,
      "raw_dynamic_score": 0.0,
      "dynamic_level": "None"
    },
    {
      "id": "431",
      "country": "China",
      "name": "Qinhuangdao",
      "latitude": 39.9317,
      "longitude": 119.5883,
      "base_risk": 9.2,
      "rain_6h_mm": 0.0,
      "humidity_avg": 45.5,
      "soil_moisture_avg": 0.0,
      "rain_mult": 0.0,
      "soil_mult": 0.95,
      "humidity_mult": 1.023,
      "raw_dynamic_score": 0.0,
      "dynamic_level": "None"
    },
    {
      "id": "432",
      "country": "China",
      "name": "Qinzhou",
      "latitude": 21.9681,
      "longitude": 108.6214,
      "base_risk": 8.82,
      "rain_6h_mm": 2.5,
      "humidity_avg": 87.8,
      "soil_moisture_avg": 0.0,
      "rain_mult": 0.025,
      "soil_mult": 0.95,
      "humidity_mult": 1.044,
      "raw_dynamic_score": 0.219,
      "dynamic_level": "Low"
    },
    {
      "id": "433",
      "country": "China",
      "name": "Qiqihaer",
      "latitude": 47.3408,
      "longitude": 123.9672,
      "base_risk": 9.01,
      "rain_6h_mm": 0.0,
      "humidity_avg": 27.8,
      "soil_moisture_avg": 0.0,
      "rain_mult": 0.0,
      "soil_mult": 0.95,
      "humidity_mult": 1.014,
      "raw_dynamic_score": 0.0,
      "dynamic_level": "None"
    },
    {
      "id": "438",
      "country": "China",
      "name": "Quzhou",
      "latitude": 28.9594,
      "longitude": 118.8686,
      "base_risk": 8.67,
      "rain_6h_mm": 1.9,
      "humidity_avg": 87.7,
      "soil_moisture_avg": 0.0,
      "rain_mult": 0.019,
      "soil_mult": 0.95,
      "humidity_mult": 1.044,
      "raw_dynamic_score": 0.163,
      "dynamic_level": "Low"
    },
    {
      "id": "439",
      "country": "China",
      "name": "Renqiu",
      "latitude": 38.6989,
      "longitude": 116.0936,
      "base_risk": 9.46,
      "rain_6h_mm": 0.0,
      "humidity_avg": 68.2,
      "soil_moisture_avg": 0.0,
      "rain_mult": 0.0,
      "soil_mult": 0.95,
      "humidity_mult": 1.034,
      "raw_dynamic_score": 0.0,
      "dynamic_level": "None"
    },
    {
      "id": "440",
      "country": "China",
      "name": "Rizhao",
      "latitude": 35.4034,
      "longitude": 119.512,
      "base_risk": 9.46,
      "rain_6h_mm": 0.0,
      "humidity_avg": 60.5,
      "soil_moisture_avg": 0.0,
      "rain_mult": 0.0,
      "soil_mult": 0.95,
      "humidity_mult": 1.03,
      "raw_dynamic_score": 0.0,
      "dynamic_level": "None"
    },
    {
      "id": "441",
      "country": "China",
      "name": "Rongcheng",
      "latitude": 37.154,
      "longitude": 122.4363,
      "base_risk": 9.41,
      "rain_6h_mm": 0.0,
      "humidity_avg": 64.8,
      "soil_moisture_avg": 0.0,
      "rain_mult": 0.0,
      "soil_mult": 0.95,
      "humidity_mult": 1.032,
      "raw_dynamic_score": 0.0,
      "dynamic_level": "None"
    },
    {
      "id": "446",
      "country": "China",
      "name": "Sanmenxia",
      "latitude": 34.7715,
      "longitude": 111.2038,
      "base_risk": 9.0,
      "rain_6h_mm": 0.0,
      "humidity_avg": 57.5,
      "soil_moisture_avg": 0.0,
      "rain_mult": 0.0,
      "soil_mult": 0.95,
      "humidity_mult": 1.029,
      "raw_dynamic_score": 0.0,
      "dynamic_level": "None"
    },
    {
      "id": "447",
      "country": "China",
      "name": "Sanming",
      "latitude": 26.2641,
      "longitude": 117.6191,
      "base_risk": 9.19,
      "rain_6h_mm": 3.3,
      "humidity_avg": 91.3,
      "soil_moisture_avg": 0.0,
      "rain_mult": 0.033,
      "soil_mult": 0.95,
      "humidity_mult": 1.046,
      "raw_dynamic_score": 0.301,
      "dynamic_level": "Low"
    },
    {
      "id": "448",
      "country": "China",
      "name": "Sanya",
      "latitude": 18.2676,
      "longitude": 109.5034,
      "base_risk": 9.41,
      "rain_6h_mm": 2.6,
      "humidity_avg": 81.7,
      "soil_moisture_avg": 0.0,
      "rain_mult": 0.026,
      "soil_mult": 0.95,
      "humidity_mult": 1.041,
      "raw_dynamic_score": 0.242,
      "dynamic_level": "Low"
    },
    {
      "id": "449",
      "country": "China",
      "name": "Shanghai",
      "latitude": 31.2222,
      "longitude": 121.4581,
      "base_risk": 8.76,
      "rain_6h_mm": 0.0,
      "humidity_avg": 62.0,
      "soil_moisture_avg": 0.0,
      "rain_mult": 0.0,
      "soil_mult": 0.95,
      "humidity_mult": 1.031,
      "raw_dynamic_score": 0.0,
      "dynamic_level": "None"
    },
    {
      "id": "454",
      "country": "China",
      "name": "Shanwei",
      "latitude": 22.7787,
      "longitude": 115.3568,
      "base_risk": 9.3,
      "rain_6h_mm": 0.0,
      "humidity_avg": 67.5,
      "soil_moisture_avg": 0.0,
      "rain_mult": 0.0,
      "soil_mult": 0.95,
      "humidity_mult": 1.034,
      "raw_dynamic_score": 0.0,
      "dynamic_level": "None"
    },
    {
      "id": "455",
      "country": "China",
      "name": "Shaoguan",
      "latitude": 24.8,
      "longitude": 113.5833,
      "base_risk": 9.11,
      "rain_6h_mm": 10.6,
      "humidity_avg": 94.3,
      "soil_moisture_avg": 0.0,
      "rain_mult": 0.106,
      "soil_mult": 0.95,
      "humidity_mult": 1.047,
      "raw_dynamic_score": 0.961,
      "dynamic_level": "Low"
    },
    {
      "id": "456",
      "country": "China",
      "name": "Shaoxing",
      "latitude": 30.011,
      "longitude": 120.5715,
      "base_risk": 9.32,
      "rain_6h_mm": 1.7,
      "humidity_avg": 85.2,
      "soil_moisture_avg": 0.0,
      "rain_mult": 0.017,
      "soil_mult": 0.95,
      "humidity_mult": 1.043,
      "raw_dynamic_score": 0.157,
      "dynamic_level": "Low"
    },
    {
      "id": "457",
      "country": "China",
      "name": "Shaoyang",
      "latitude": 27.2403,
      "longitude": 111.4709,
      "base_risk": 9.08,
      "rain_6h_mm": 0.0,
      "humidity_avg": 85.3,
      "soil_moisture_avg": 0.0,
      "rain_mult": 0.0,
      "soil_mult": 0.95,
      "humidity_mult": 1.043,
      "raw_dynamic_score": 0.0,
      "dynamic_level": "None"
    },
    {
      "id": "462",
      "country": "China",
      "name": "Shihezi",
      "latitude": 44.3075,
      "longitude": 86.032,
      "base_risk": 9.21,
      "rain_6h_mm": 0.0,
      "humidity_avg": 66.3,
      "soil_moisture_avg": 0.0,
      "rain_mult": 0.0,
      "soil_mult": 0.95,
      "humidity_mult": 1.033,
      "raw_dynamic_score": 0.0,
      "dynamic_level": "None"
    },
    {
      "id": "463",
      "country": "China",
      "name": "Shijiazhuang",
      "latitude": 38.0418,
      "longitude": 114.5108,
      "base_risk": 9.15,
      "rain_6h_mm": 0.0,
      "humidity_avg": 51.7,
      "soil_moisture_avg": 0.0,
      "rain_mult": 0.0,
      "soil_mult": 0.95,
      "humidity_mult": 1.026,
      "raw_dynamic_score": 0.0,
      "dynamic_level": "None"
    },
    {
      "id": "464",
      "country": "China",
      "name": "Shishi",
      "latitude": 24.7367,
      "longitude": 118.634,
      "base_risk": 8.84,
      "rain_6h_mm": 0.8,
      "humidity_avg": 73.2,
      "soil_moisture_avg": 0.0,
      "rain_mult": 0.008,
      "soil_mult": 0.95,
      "humidity_mult": 1.037,
      "raw_dynamic_score": 0.07,
      "dynamic_level": "Low"
    },
    {
      "id": "465",
      "country": "China",
      "name": "Shiyan",
      "latitude": 32.6445,
      "longitude": 110.7836,
      "base_risk": 9.33,
      "rain_6h_mm": 0.0,
      "humidity_avg": 71.7,
      "soil_moisture_avg": 0.0,
      "rain_mult": 0.0,
      "soil_mult": 0.95,
      "humidity_mult": 1.036,
      "raw_dynamic_score": 0.0,
      "dynamic_level": "None"
    },
    {
      "id": "469",
      "country": "China",
      "name": "Shuozhou",
      "latitude": 39.3158,
      "longitude": 112.4225,
      "base_risk": 9.24,
      "rain_6h_mm": 0.0,
      "humidity_avg": 39.5,
      "soil_moisture_avg": 0.0,
      "rain_mult": 0.0,
      "soil_mult": 0.95,
      "humidity_mult": 1.02,
      "raw_dynamic_score": 0.0,
      "dynamic_level": "None"
    },
    {
      "id": "470",
      "country": "China",
      "name": "Sihui",
      "latitude": 23.3462,
      "longitude": 112.6958,
      "base_risk": 8.91,
      "rain_6h_mm": 4.1,
      "humidity_avg": 90.3,
      "soil_moisture_avg": 0.0,
      "rain_mult": 0.041,
      "soil_mult": 0.95,
      "humidity_mult": 1.045,
      "raw_dynamic_score": 0.363,
      "dynamic_level": "Low"
    },
    {
      "id": "471",
      "country": "China",
      "name": "Siping",
      "latitude": 43.1633,
      "longitude": 124.3686,
      "base_risk": 9.4,
      "rain_6h_mm": 0.0,
      "humidity_avg": 51.8,
      "soil_moisture_avg": 0.0,
      "rain_mult": 0.0,
      "soil_mult": 0.95,
      "humidity_mult": 1.026,
      "raw_dynamic_score": 0.0,
      "dynamic_level": "None"
    },
    {
      "id": "476",
      "country": "China",
      "name": "Suizhou",
      "latitude": 31.7111,
      "longitude": 113.3631,
      "base_risk": 9.25,
      "rain_6h_mm": 0.0,
      "humidity_avg": 61.3,
      "soil_moisture_avg": 0.0,
      "rain_mult": 0.0,
      "soil_mult": 0.95,
      "humidity_mult": 1.031,
      "raw_dynamic_score": 0.0,
      "dynamic_level": "None"
    },
    {
      "id": "477",
      "country": "China",
      "name": "Suqian",
      "latitude": 33.9681,
      "longitude": 118.2924,
      "base_risk": 9.15,
      "rain_6h_mm": 0.0,
      "humidity_avg": 61.2,
      "soil_moisture_avg": 0.0,
      "rain_mult": 0.0,
      "soil_mult": 0.95,
      "humidity_mult": 1.031,
      "raw_dynamic_score": 0.0,
      "dynamic_level": "None"
    },
    {
      "id": "478",
      "country": "China",
      "name": "Suzhou, Anhui",
      "latitude": 33.6359,
      "longitude": 116.9747,
      "base_risk": 9.3,
      "rain_6h_mm": 0.0,
      "humidity_avg": 59.3,
      "soil_moisture_avg": 0.0,
      "rain_mult": 0.0,
      "soil_mult": 0.95,
      "humidity_mult": 1.03,
      "raw_dynamic_score": 0.0,
      "dynamic_level": "None"
    },
    {
      "id": "479",
      "country": "China",
      "name": "Suzhou, Jiangsu",
      "latitude": 31.3021,
      "longitude": 120.5853,
      "base_risk": 9.34,
      "rain_6h_mm": 0.0,
      "humidity_avg": 65.3,
      "soil_moisture_avg": 0.0,
      "rain_mult": 0.0,
      "soil_mult": 0.95,
      "humidity_mult": 1.033,
      "raw_dynamic_score": 0.0,
      "dynamic_level": "None"
    },
    {
      "id": "484",
      "country": "China",
      "name": "Taiyuan, Shanxi",
      "latitude": 37.8619,
      "longitude": 112.5516,
      "base_risk": 8.69,
      "rain_6h_mm": 0.0,
      "humidity_avg": 54.3,
      "soil_moisture_avg": 0.0,
      "rain_mult": 0.0,
      "soil_mult": 0.95,
      "humidity_mult": 1.027,
      "raw_dynamic_score": 0.0,
      "dynamic_level": "None"
    },
    {
      "id": "485",
      "country": "China",
      "name": "Taizhou, Jiangsu",
      "latitude": 32.4945,
      "longitude": 119.9029,
      "base_risk": 8.55,
      "rain_6h_mm": 0.0,
      "humidity_avg": 53.2,
      "soil_moisture_avg": 0.0,
      "rain_mult": 0.0,
      "soil_mult": 0.95,
      "humidity_mult": 1.027,
      "raw_dynamic_score": 0.0,
      "dynamic_level": "None"
    },
    {
      "id": "486",
      "country": "China",
      "name": "Taizhou, Zhejiang",
      "latitude": 28.6372,
      "longitude": 121.4185,
      "base_risk": 9.22,
      "rain_6h_mm": 7.9,
      "humidity_avg": 88.3,
      "soil_moisture_avg": 0.0,
      "rain_mult": 0.079,
      "soil_mult": 0.95,
      "humidity_mult": 1.044,
      "raw_dynamic_score": 0.723,
      "dynamic_level": "Low"
    },
    {
      "id": "487",
      "country": "China",
      "name": "Tangshan, Hebei",
      "latitude": 39.6285,
      "longitude": 118.1799,
      "base_risk": 8.71,
      "rain_6h_mm": 0.0,
      "humidity_avg": 63.3,
      "soil_moisture_avg": 0.0,
      "rain_mult": 0.0,
      "soil_mult": 0.95,
      "humidity_mult": 1.032,
      "raw_dynamic_score": 0.0,
      "dynamic_level": "None"
    },
    {
      "id": "492",
      "country": "China",
      "name": "Tieling",
      "latitude": 42.2931,
      "longitude": 123.8414,
      "base_risk": 9.22,
      "rain_6h_mm": 0.0,
      "humidity_avg": 45.7,
      "soil_moisture_avg": 0.0,
      "rain_mult": 0.0,
      "soil_mult": 0.95,
      "humidity_mult": 1.023,
      "raw_dynamic_score": 0.0,
      "dynamic_level": "None"
    },
    {
      "id": "493",
      "country": "China",
      "name": "Tongcheng",
      "latitude": 31.0538,
      "longitude": 116.9556,
      "base_risk": 9.1,
      "rain_6h_mm": 0.0,
      "humidity_avg": 69.3,
      "soil_moisture_avg": 0.0,
      "rain_mult": 0.0,
      "soil_mult": 0.95,
      "humidity_mult": 1.035,
      "raw_dynamic_score": 0.0,
      "dynamic_level": "None"
    },
    {
      "id": "494",
      "country": "China",
      "name": "Tongchuan",
      "latitude": 34.8988,
      "longitude": 108.9506,
      "base_risk": 9.07,
      "rain_6h_mm": 0.0,
      "humidity_avg": 66.5,
      "soil_moisture_avg": 0.0,
      "rain_mult": 0.0,
      "soil_mult": 0.95,
      "humidity_mult": 1.033,
      "raw_dynamic_score": 0.0,
      "dynamic_level": "None"
    },
    {
      "id": "495",
      "country": "China",
      "name": "Tonghua",
      "latitude": 41.7201,
      "longitude": 125.9281,
      "base_risk": 9.22,
      "rain_6h_mm": 0.0,
      "humidity_avg": 78.0,
      "soil_moisture_avg": 0.0,
      "rain_mult": 0.0,
      "soil_mult": 0.95,
      "humidity_mult": 1.039,
      "raw_dynamic_score": 0.0,
      "dynamic_level": "None"
    },
    {
      "id": "500",
      "country": "China",
      "name": "Wafangdian ",
      "latitude": 39.6267,
      "longitude": 121.9949,
      "base_risk": 9.05,
      "rain_6h_mm": 0.0,
      "humidity_avg": 69.5,
      "soil_moisture_avg": 0.0,
      "rain_mult": 0.0,
      "soil_mult": 0.95,
      "humidity_mult": 1.035,
      "raw_dynamic_score": 0.0,
      "dynamic_level": "None"
    },
    {
      "id": "501",
      "country": "China",
      "name": "Wanning",
      "latitude": 18.7955,
      "longitude": 110.3826,
      "base_risk": 9.33,
      "rain_6h_mm": 5.0,
      "humidity_avg": 93.3,
      "soil_moisture_avg": 0.0,
      "rain_mult": 0.05,
      "soil_mult": 0.95,
      "humidity_mult": 1.047,
      "raw_dynamic_score": 0.464,
      "dynamic_level": "Low"
    },
    {
      "id": "502",
      "country": "China",
      "name": "Weifang",
      "latitude": 36.71,
      "longitude": 119.1019,
      "base_risk": 9.19,
      "rain_6h_mm": 0.0,
      "humidity_avg": 42.2,
      "soil_moisture_avg": 0.0,
      "rain_mult": 0.0,
      "soil_mult": 0.95,
      "humidity_mult": 1.021,
      "raw_dynamic_score": 0.0,
      "dynamic_level": "None"
    },
    {
      "id": "503",
      "country": "China",
      "name": "Weihai",
      "latitude": 37.5017,
      "longitude": 122.1136,
      "base_risk": 9.04,
      "rain_6h_mm": 0.0,
      "humidity_avg": 56.2,
      "soil_moisture_avg": 0.0,
      "rain_mult": 0.0,
      "soil_mult": 0.95,
      "humidity_mult": 1.028,
      "raw_dynamic_score": 0.0,
      "dynamic_level": "None"
    },
    {
      "id": "508",
      "country": "China",
      "name": "Wuchuan ",
      "latitude": 21.431,
      "longitude": 110.7762,
      "base_risk": 9.35,
      "rain_6h_mm": 3.0,
      "humidity_avg": 86.8,
      "soil_moisture_avg": 0.0,
      "rain_mult": 0.03,
      "soil_mult": 0.95,
      "humidity_mult": 1.043,
      "raw_dynamic_score": 0.278,
      "dynamic_level": "Low"
    },
    {
      "id": "509",
      "country": "China",
      "name": "Wuhai",
      "latitude": 39.6647,
      "longitude": 106.8122,
      "base_risk": 8.92,
      "rain_6h_mm": 0.0,
      "humidity_avg": 43.2,
      "soil_moisture_avg": 0.0,
      "rain_mult": 0.0,
      "soil_mult": 0.95,
      "humidity_mult": 1.022,
      "raw_dynamic_score": 0.0,
      "dynamic_level": "None"
    },
    {
      "id": "510",
      "country": "China",
      "name": "Wuhan",
      "latitude": 30.5833,
      "longitude": 114.2667,
      "base_risk": 9.44,
      "rain_6h_mm": 0.0,
      "humidity_avg": 62.2,
      "soil_moisture_avg": 0.0,
      "rain_mult": 0.0,
      "soil_mult": 0.95,
      "humidity_mult": 1.031,
      "raw_dynamic_score": 0.0,
      "dynamic_level": "None"
    },