{
  "timestamp": "2025-10-31T22:32:16.233043Z",
  "source": "Open-Meteo",
  "forecast_window_hours": 6,
  "features_evaluated": 358,
  "alerts": [
    {
      "id": "106.0",
      "name": "Navacerrada",
      "latitude": 40.70623067,
      "longitude": -3.972476814,
      "base_risk": 8.91,
      "rain_6h_mm": 0.1,
      "humidity_avg": 86.3,
      "soil_moisture_avg": 0.0,
      "temperature_avg": 11.1,
      "pressure_avg": 901.3,
      "rain_mult": 0.001,
      "soil_mult": 0.8,
      "humidity_mult": 1.073,
      "raw_dynamic_score": 0.008,
      "dynamic_level": "Low"
    },
    {
      "id": "272.0",
      "name": "Anchuelo (Diseminado)",
      "latitude": 40.4843423,
      "longitude": -3.348244904,
      "base_risk": 8.54,
      "rain_6h_mm": 0.0,
      "humidity_avg": 76.5,
      "soil_moisture_avg": 0.0,
      "temperature_avg": 14.7,
      "pressure_avg": 948.7,
      "rain_mult": 0.0,
      "soil_mult": 0.8,
      "humidity_mult": 1.053,
      "raw_dynamic_score": 0.0,
      "dynamic_level": "None"
    },
    {
      "id": "286.0",
      "name": "Anchuelo",
      "latitude": 40.48490594,
      "longitude": -3.349909973,
      "base_risk": 8.53,
      "rain_6h_mm": 0.0,
      "humidity_avg": 76.5,
      "soil_moisture_avg": 0.0,
      "temperature_avg": 14.7,
      "pressure_avg": 948.9,
      "rain_mult": 0.0,
      "soil_mult": 0.8,
      "humidity_mult": 1.053,
      "raw_dynamic_score": 0.0,
      "dynamic_level": "None"
    },
    {
      "id": "393.0",
      "name": "Villar del Olmo",
      "latitude": 40.46859545,
      "longitude": -3.365054696,
      "base_risk": 8.68,
      "rain_6h_mm": 0.0,
      "humidity_avg": 77.3,
      "soil_moisture_avg": 0.0,
      "temperature_avg": 14.8,
      "pressure_avg": 949.6,
      "rain_mult": 0.0,
      "soil_mult": 0.8,
      "humidity_mult": 1.055,
      "raw_dynamic_score": 0.0,
      "dynamic_level": "None"
    },
    {
      "id": "423.0",
      "name": "Villar del Olmo",
      "latitude": 40.47371244,
      "longitude": -3.362564932,
      "base_risk": 8.64,
      "rain_6h_mm": 0.0,
      "humidity_avg": 76.5,
      "soil_moisture_avg": 0.0,
      "temperature_avg": 14.7,
      "pressure_avg": 949.2,
      "rain_mult": 0.0,
      "soil_mult": 0.8,
      "humidity_mult": 1.053,
      "raw_dynamic_score": 0.0,
      "dynamic_level": "None"
    },
    {
      "id": "440.0",
      "name": "Alcalá de Henares",
      "latitude": 40.48231362,
      "longitude": -3.347813178,
      "base_risk": 8.58,
      "rain_6h_mm": 0.0,
      "humidity_avg": 76.5,
      "soil_moisture_avg": 0.0,
      "temperature_avg": 14.7,
      "pressure_avg": 949.2,
      "rain_mult": 0.0,
      "soil_mult": 0.8,
      "humidity_mult": 1.053,
      "raw_dynamic_score": 0.0,
      "dynamic_level": "None"
    },
    {
      "id": "570.0",
      "name": "Hueros, Los",
      "latitude": 40.46925965,
      "longitude": -3.414580388,
      "base_risk": 8.82,
      "rain_6h_mm": 0.0,
      "humidity_avg": 79.7,
      "soil_moisture_avg": 0.0,
      "temperature_avg": 14.4,
      "pressure_avg": 950.2,
      "rain_mult": 0.0,
      "soil_mult": 0.8,
      "humidity_mult": 1.059,
      "raw_dynamic_score": 0.0,
      "dynamic_level": "None"
    },
    {
      "id": "597.0",
      "name": "Pezuela de las Torres (Diseminado)",
      "latitude": 40.46626403,
      "longitude": -3.363127297,
      "base_risk": 8.71,
      "rain_6h_mm": 0.0,
      "humidity_avg": 77.3,
      "soil_moisture_avg": 0.0,
      "temperature_avg": 14.8,
      "pressure_avg": 949.9,
      "rain_mult": 0.0,
      "soil_mult": 0.8,
      "humidity_mult": 1.055,
      "raw_dynamic_score": 0.0,
      "dynamic_level": "None"
    },
    {
      "id": "633.0",
      "name": "Alcalá de Henares",
      "latitude": 40.48151445,
      "longitude": -3.353867683,
      "base_risk": 8.6,
      "rain_6h_mm": 0.0,
      "humidity_avg": 76.5,
      "soil_moisture_avg": 0.0,
      "temperature_avg": 14.7,
      "pressure_avg": 948.3,
      "rain_mult": 0.0,
      "soil_mult": 0.8,
      "humidity_mult": 1.053,
      "raw_dynamic_score": 0.0,
      "dynamic_level": "None"
    },
    {
      "id": "841.0",
      "name": "Mirador de Baztán, El",
      "latitude": 40.46712332,
      "longitude": -3.416427827,
      "base_risk": 8.84,
      "rain_6h_mm": 0.0,
      "humidity_avg": 78.7,
      "soil_moisture_avg": 0.0,
      "temperature_avg": 14.7,
      "pressure_avg": 950.5,
      "rain_mult": 0.0,
      "soil_mult": 0.8,
      "humidity_mult": 1.057,
      "raw_dynamic_score": 0.0,
      "dynamic_level": "None"
    },
    {
      "id": "887.0",
      "name": "Alcalá de Henares",
      "latitude": 40.4707732,
      "longitude": -3.399751404,
      "base_risk": 8.64,
      "rain_6h_mm": 0.0,
      "humidity_avg": 76.5,
      "soil_moisture_avg": 0.0,
      "temperature_avg": 14.8,
      "pressure_avg": 950.4,
      "rain_mult": 0.0,
      "soil_mult": 0.8,
      "humidity_mult": 1.053,
      "raw_dynamic_score": 0.0,
      "dynamic_level": "None"
    },
    {
      "id": "888.0",
      "name": "Alcalá de Henares (Diseminado)",
      "latitude": 40.47350409,
      "longitude": -3.398522976,
      "base_risk": 8.51,
      "rain_6h_mm": 0.0,
      "humidity_avg": 76.5,
      "soil_moisture_avg": 0.0,
      "temperature_avg": 14.7,
      "pressure_avg": 949.6,
      "rain_mult": 0.0,
      "soil_mult": 0.8,
      "humidity_mult": 1.053,
      "raw_dynamic_score": 0.0,
      "dynamic_level": "None"
    },
    {
      "id": "1202.0",
      "name": "Alcalá de Henares",
      "latitude": 40.48653191,
      "longitude": -3.356520687,
      "base_risk": 8.51,
      "rain_6h_mm": 0.0,
      "humidity_avg": 76.5,
      "soil_moisture_avg": 0.0,
      "temperature_avg": 14.6,
      "pressure_avg": 947.6,
      "rain_mult": 0.0,
      "soil_mult": 0.8,
      "humidity_mult": 1.053,
      "raw_dynamic_score": 0.0,
      "dynamic_level": "None"
    },
    {
      "id": "1400.0",
      "name": "Cabanillas de la Sierra",
      "latitude": 40.74511268,
      "longitude": -3.784492436,
      "base_risk": 8.63,
      "rain_6h_mm": 0.0,
      "humidity_avg": 87.2,
      "soil_moisture_avg": 0.0,
      "temperature_avg": 12.5,
      "pressure_avg": 913.9,
      "rain_mult": 0.0,
      "soil_mult": 0.8,
      "humidity_mult": 1.074,
      "raw_dynamic_score": 0.0,
      "dynamic_level": "None"
    },
    {
      "id": "1403.0",
      "name": "Cabanillas de la Sierra (Diseminado)",
      "latitude": 40.74638068,
      "longitude": -3.784948459,
      "base_risk": 8.55,
      "rain_6h_mm": 0.0,
      "humidity_avg": 87.2,
      "soil_moisture_avg": 0.0,
      "temperature_avg": 12.5,
      "pressure_avg": 914.0,
      "rain_mult": 0.0,
      "soil_mult": 0.8,
      "humidity_mult": 1.074,
      "raw_dynamic_score": 0.0,
      "dynamic_level": "None"
    },
    {
      "id": "1930.0",
      "name": "San Lorenzo de El Escorial",
      "latitude": 40.63345925,
      "longitude": -4.013628043,
      "base_risk": 8.68,
      "rain_6h_mm": 0.0,
      "humidity_avg": 86.2,
      "soil_moisture_avg": 0.0,
      "temperature_avg": 12.6,
      "pressure_avg": 917.5,
      "rain_mult": 0.0,
      "soil_mult": 0.8,
      "humidity_mult": 1.072,
      "raw_dynamic_score": 0.0,
      "dynamic_level": "None"
    },
    {
      "id": "2342.0",
      "name": "Pinilla del Valle (Diseminado)",
      "latitude": 40.92636788,
      "longitude": -3.816429001,
      "base_risk": 8.6,
      "rain_6h_mm": 0.0,
      "humidity_avg": 83.7,
      "soil_moisture_avg": 0.0,
      "temperature_avg": 10.6,
      "pressure_avg": 892.9,
      "rain_mult": 0.0,
      "soil_mult": 0.8,
      "humidity_mult": 1.067,
      "raw_dynamic_score": 0.0,
      "dynamic_level": "None"
    },
    {
      "id": "2872.0",
      "name": "Fuenlabrada",
      "latitude": 40.26970406,
      "longitude": -3.744570169,
      "base_risk": 8.58,
      "rain_6h_mm": 0.0,
      "humidity_avg": 80.2,
      "soil_moisture_avg": 0.0,
      "temperature_avg": 14.3,
      "pressure_avg": 945.1,
      "rain_mult": 0.0,
      "soil_mult": 0.8,
      "humidity_mult": 1.06,
      "raw_dynamic_score": 0.0,
      "dynamic_level": "None"
    },
    {
      "id": "3264.0",
      "name": "Villamanrique de Tajo",
      "latitude": 40.06542324,
      "longitude": -3.239051792,
      "base_risk": 8.73,
      "rain_6h_mm": 0.0,
      "humidity_avg": 79.5,
      "soil_moisture_avg": 0.0,
      "temperature_avg": 14.6,
      "pressure_avg": 956.0,
      "rain_mult": 0.0,
      "soil_mult": 0.8,
      "humidity_mult": 1.059,
      "raw_dynamic_score": 0.0,
      "dynamic_level": "None"
    },
    {
      "id": "3267.0",
      "name": "Villamanrique de Tajo",
      "latitude": 40.06613293,
      "longitude": -3.240739722,
      "base_risk": 8.59,
      "rain_6h_mm": 0.0,
      "humidity_avg": 79.5,
      "soil_moisture_avg": 0.0,
      "temperature_avg": 14.6,
      "pressure_avg": 954.9,
      "rain_mult": 0.0,
      "soil_mult": 0.8,
      "humidity_mult": 1.059,
      "raw_dynamic_score": 0.0,
      "dynamic_level": "None"
    },
    {
      "id": "3855.0",
      "name": "Collado Villalba",
      "latitude": 40.6304307,
      "longitude": -4.009466412,
      "base_risk": 8.7,
      "rain_6h_mm": 0.0,
      "humidity_avg": 86.2,
      "soil_moisture_avg": 0.0,
      "temperature_avg": 12.6,
      "pressure_avg": 917.7,
      "rain_mult": 0.0,
      "soil_mult": 0.8,
      "humidity_mult": 1.072,
      "raw_dynamic_score": 0.0,
      "dynamic_level": "None"
    },
    {
      "id": "3923.0",
      "name": "Paracuellos de Jarama",
      "latitude": 40.63704358,
      "longitude": -4.013533941,
      "base_risk": 8.59,
      "rain_6h_mm": 0.0,
      "humidity_avg": 86.2,
      "soil_moisture_avg": 0.0,
      "temperature_avg": 12.6,
      "pressure_avg": 917.3,
      "rain_mult": 0.0,
      "soil_mult": 0.8,
      "humidity_mult": 1.072,
      "raw_dynamic_score": 0.0,
      "dynamic_level": "None"
    },
    {
      "id": "3998.0",
      "name": "Alalpardo",
      "latitude": 40.52902321,
      "longitude": -3.478394339,
      "base_risk": 8.55,
      "rain_6h_mm": 0.0,
      "humidity_avg": 82.7,
      "soil_moisture_avg": 0.0,
      "temperature_avg": 13.6,
      "pressure_avg": 940.8,
      "rain_mult": 0.0,
      "soil_mult": 0.8,
      "humidity_mult": 1.065,
      "raw_dynamic_score": 0.0,
      "dynamic_level": "None"
    },
    {
      "id": "4003.0",
      "name": "Sevilla la Nueva",
      "latitude": 40.52959268,
      "longitude": -3.478130434,
      "base_risk": 8.56,
      "rain_6h_mm": 0.0,
      "humidity_avg": 82.7,
      "soil_moisture_avg": 0.0,
      "temperature_avg": 13.6,
      "pressure_avg": 940.6,
      "rain_mult": 0.0,
      "soil_mult": 0.8,
      "humidity_mult": 1.065,
      "raw_dynamic_score": 0.0,
      "dynamic_level": "None"
    },
    {
      "id": "4059.0",
      "name": "Velilla de San Antonio (Diseminado)",
      "latitude": 40.36521887,
      "longitude": -3.494965112,
      "base_risk": 9.36,
      "rain_6h_mm": 0.0,
      "humidity_avg": 77.2,
      "soil_moisture_avg": 0.0,
      "temperature_avg": 15.0,
      "pressure_avg": 954.2,
      "rain_mult": 0.0,
      "soil_mult": 0.8,
      "humidity_mult": 1.054,
      "raw_dynamic_score": 0.0,
      "dynamic_level": "None"
    },
    {
      "id": "4067.0",
      "name": "Velilla de San Antonio (Diseminado)",
      "latitude": 40.36371003,
      "longitude": -3.484863858,
      "base_risk": 9.0,
      "rain_6h_mm": 0.0,
      "humidity_avg": 77.2,
      "soil_moisture_avg": 0.0,
      "temperature_avg": 14.9,
      "pressure_avg": 953.3,
      "rain_mult": 0.0,
      "soil_mult": 0.8,
      "humidity_mult": 1.054,
      "raw_dynamic_score": 0.0,
      "dynamic_level": "None"
    },
    {
      "id": "4068.0",
      "name": "Velilla de San Antonio (Diseminado)",
      "latitude": 40.36326683,
      "longitude": -3.484459945,
      "base_risk": 9.02,
      "rain_6h_mm": 0.0,
      "humidity_avg": 77.2,
      "soil_moisture_avg": 0.0,
      "temperature_avg": 15.0,
      "pressure_avg": 953.7,
      "rain_mult": 0.0,
      "soil_mult": 0.8,
      "humidity_mult": 1.054,
      "raw_dynamic_score": 0.0,
      "dynamic_level": "None"
    },
    {
      "id": "4105.0",
      "name": "Ajalvir",
      "latitude": 40.52990222,
      "longitude": -3.478534808,
      "base_risk": 8.54,
      "rain_6h_mm": 0.0,
      "humidity_avg": 82.7,
      "soil_moisture_avg": 0.0,
      "temperature_avg": 13.6,
      "pressure_avg": 940.3,
      "rain_mult": 0.0,
      "soil_mult": 0.8,
      "humidity_mult": 1.065,
      "raw_dynamic_score": 0.0,
      "dynamic_level": "None"
    },
    {
      "id": "4230.0",
      "name": "Velilla de San Antonio (Diseminado)",
      "latitude": 40.36461129,
      "longitude": -3.483144251,
      "base_risk": 8.89,
      "rain_6h_mm": 0.0,
      "humidity_avg": 77.2,
      "soil_moisture_avg": 0.0,
      "temperature_avg": 14.9,
      "pressure_avg": 952.6,
      "rain_mult": 0.0,
      "soil_mult": 0.8,
      "humidity_mult": 1.054,
      "raw_dynamic_score": 0.0,
      "dynamic_level": "None"
    },
    {
      "id": "4231.0",
      "name": "Velilla de San Antonio (Diseminado)",
      "latitude": 40.36530873,
      "longitude": -3.481920933,
      "base_risk": 8.83,
      "rain_6h_mm": 0.0,
      "humidity_avg": 77.2,
      "soil_moisture_avg": 0.0,
      "temperature_avg": 14.9,
      "pressure_avg": 953.1,
      "rain_mult": 0.0,
      "soil_mult": 0.8,
      "humidity_mult": 1.054,
      "raw_dynamic_score": 0.0,
      "dynamic_level": "None"
    },
    {
      "id": "4525.0",
      "name": "Patones de Arriba",
      "latitude": 40.85789754,
      "longitude": -3.486688637,
      "base_risk": 8.84,
      "rain_6h_mm": 0.0,
      "humidity_avg": 89.2,
      "soil_moisture_avg": 0.0,
      "temperature_avg": 11.9,
      "pressure_avg": 932.5,
      "rain_mult": 0.0,
      "soil_mult": 0.8,
      "humidity_mult": 1.078,
      "raw_dynamic_score": 0.0,
      "dynamic_level": "None"
    },
    {
      "id": "4527.0",
      "name": "Patones de Arriba (Diseminado)",
      "latitude": 40.85584319,
      "longitude": -3.481358042,
      "base_risk": 9.18,
      "rain_6h_mm": 0.0,
      "humidity_avg": 89.2,
      "soil_moisture_avg": 0.0,
      "temperature_avg": 12.1,
      "pressure_avg": 935.4,
      "rain_mult": 0.0,
      "soil_mult": 0.8,
      "humidity_mult": 1.078,
      "raw_dynamic_score": 0.0,
      "dynamic_level": "None"
    },
    {
      "id": "4562.0",
      "name": "Velilla de San Antonio (Diseminado)",
      "latitude": 40.36835633,
      "longitude": -3.490721456,
      "base_risk": 9.19,
      "rain_6h_mm": 0.0,
      "humidity_avg": 77.2,
      "soil_moisture_avg": 0.0,
      "temperature_avg": 15.0,
      "pressure_avg": 954.0,
      "rain_mult": 0.0,
      "soil_mult": 0.8,
      "humidity_mult": 1.054,
      "raw_dynamic_score": 0.0,
      "dynamic_level": "None"
    },
    {
      "id": "4900.0",
      "name": "Velilla de San Antonio",
      "latitude": 40.36690713,
      "longitude": -3.494886255,
      "base_risk": 9.35,
      "rain_6h_mm": 0.0,
      "humidity_avg": 77.2,
      "soil_moisture_avg": 0.0,
      "temperature_avg": 15.0,
      "pressure_avg": 953.9,
      "rain_mult": 0.0,
      "soil_mult": 0.8,
      "humidity_mult": 1.054,
      "raw_dynamic_score": 0.0,
      "dynamic_level": "None"
    },
    {
      "id": "4903.0",
      "name": "Velilla de San Antonio",
      "latitude": 40.36564851,
      "longitude": -3.482807868,
      "base_risk": 8.87,
      "rain_6h_mm": 0.0,
      "humidity_avg": 77.2,
      "soil_moisture_avg": 0.0,
      "temperature_avg": 14.9,
      "pressure_avg": 953.1,
      "rain_mult": 0.0,
      "soil_mult": 0.8,
      "humidity_mult": 1.054,
      "raw_dynamic_score": 0.0,
      "dynamic_level": "None"
    },
    {
      "id": "5097.0",
      "name": "Velilla de San Antonio",
      "latitude": 40.36726195,
      "longitude": -3.482431171,
      "base_risk": 8.83,
      "rain_6h_mm": 0.0,
      "humidity_avg": 77.2,
      "soil_moisture_avg": 0.0,
      "temperature_avg": 14.9,
      "pressure_avg": 953.0,
      "rain_mult": 0.0,
      "soil_mult": 0.8,
      "humidity_mult": 1.054,
      "raw_dynamic_score": 0.0,
      "dynamic_level": "None"
    },
    {
      "id": "5233.0",
      "name": "Negrales - Los Llanos, Los",
      "latitude": 40.63821532,
      "longitude": -4.019676549,
      "base_risk": 8.54,
      "rain_6h_mm": 0.0,
      "humidity_avg": 86.2,
      "soil_moisture_avg": 0.0,
      "temperature_avg": 12.6,
      "pressure_avg": 917.2,
      "rain_mult": 0.0,
      "soil_mult": 0.8,
      "humidity_mult": 1.072,
      "raw_dynamic_score": 0.0,
      "dynamic_level": "None"
    },
    {
      "id": "5342.0",
      "name": "Molinos, Los (Diseminado)",
      "latitude": 40.46735812,
      "longitude": -3.368085956,
      "base_risk": 8.66,
      "rain_6h_mm": 0.0,
      "humidity_avg": 77.3,
      "soil_moisture_avg": 0.0,
      "temperature_avg": 14.8,
      "pressure_avg": 949.8,
      "rain_mult": 0.0,
      "soil_mult": 0.8,
      "humidity_mult": 1.055,
      "raw_dynamic_score": 0.0,
      "dynamic_level": "None"
    },
    {
      "id": "5439.0",
      "name": "Alcalá de Henares (Diseminado)",
      "latitude": 40.46805229,
      "longitude": -3.366381211,
      "base_risk": 8.66,
      "rain_6h_mm": 0.0,
      "humidity_avg": 77.3,
      "soil_moisture_avg": 0.0,
      "temperature_avg": 14.8,
      "pressure_avg": 949.6,
      "rain_mult": 0.0,
      "soil_mult": 0.8,
      "humidity_mult": 1.055,
      "raw_dynamic_score": 0.0,
      "dynamic_level": "None"
    },
    {
      "id": "6071.0",
      "name": "Alpedrete",
      "latitude": 40.64535319,
      "longitude": -4.021899227,
      "base_risk": 8.52,
      "rain_6h_mm": 0.0,
      "humidity_avg": 86.2,
      "soil_moisture_avg": 0.0,
      "temperature_avg": 12.6,
      "pressure_avg": 916.9,
      "rain_mult": 0.0,
      "soil_mult": 0.8,
      "humidity_mult": 1.072,
      "raw_dynamic_score": 0.0,
      "dynamic_level": "None"
    },
    {
      "id": "6217.0",
      "name": "Torrelaguna (Diseminado)",
      "latitude": 40.82209286,
      "longitude": -3.535483086,
      "base_risk": 8.54,
      "rain_6h_mm": 0.0,
      "humidity_avg": 91.0,
      "soil_moisture_avg": 0.0,
      "temperature_avg": 12.5,
      "pressure_avg": 934.8,
      "rain_mult": 0.0,
      "soil_mult": 0.8,
      "humidity_mult": 1.082,
      "raw_dynamic_score": 0.0,
      "dynamic_level": "None"
    },
    {
      "id": "6226.0",
      "name": "Arganda del Rey",
      "latitude": 40.32107599,
      "longitude": -3.459751811,
      "base_risk": 8.52,
      "rain_6h_mm": 0.0,
      "humidity_avg": 78.2,
      "soil_moisture_avg": 0.0,
      "temperature_avg": 14.7,
      "pressure_avg": 952.8,
      "rain_mult": 0.0,
      "soil_mult": 0.8,
      "humidity_mult": 1.056,
      "raw_dynamic_score": 0.0,
      "dynamic_level": "None"
    },
    {
      "id": "6418.0",
      "name": "Negrales - Los Llanos, Los",
      "latitude": 40.63941197,
      "longitude": -4.018212016,
      "base_risk": 8.59,
      "rain_6h_mm": 0.0,
      "humidity_avg": 86.2,
      "soil_moisture_avg": 0.0,
      "temperature_avg": 12.6,
      "pressure_avg": 917.2,
      "rain_mult": 0.0,
      "soil_mult": 0.8,
      "humidity_mult": 1.072,
      "raw_dynamic_score": 0.0,
      "dynamic_level": "None"
    },
    {
      "id": "6538.0",
      "name": "Aranjuez",
      "latitude": 40.03500409,
      "longitude": -3.61336658,
      "base_risk": 9.09,
      "rain_6h_mm": 0.0,
      "humidity_avg": 80.0,
      "soil_moisture_avg": 0.0,
      "temperature_avg": 14.8,
      "pressure_avg": 959.9,
      "rain_mult": 0.0,
      "soil_mult": 0.8,
      "humidity_mult": 1.06,
      "raw_dynamic_score": 0.0,
      "dynamic_level": "None"
    },
    {
      "id": "6541.0",
      "name": "Aranjuez",
      "latitude": 40.02900912,
      "longitude": -3.624651302,
      "base_risk": 8.98,
      "rain_6h_mm": 0.0,
      "humidity_avg": 76.8,
      "soil_moisture_avg": 0.0,
      "temperature_avg": 15.4,
      "pressure_avg": 960.0,
      "rain_mult": 0.0,
      "soil_mult": 0.8,
      "humidity_mult": 1.054,
      "raw_dynamic_score": 0.0,
      "dynamic_level": "None"
    },
    {
      "id": "6973.0",
      "name": "Daganzo de Arriba",
      "latitude": 40.53820961,
      "longitude": -3.456220095,
      "base_risk": 8.74,
      "rain_6h_mm": 0.0,
      "humidity_avg": 83.8,
      "soil_moisture_avg": 0.0,
      "temperature_avg": 13.7,
      "pressure_avg": 941.8,
      "rain_mult": 0.0,
      "soil_mult": 0.8,
      "humidity_mult": 1.068,
      "raw_dynamic_score": 0.0,
      "dynamic_level": "None"
    },
    {
      "id": "6993.0",
      "name": "Aranjuez",
      "latitude": 40.02889065,
      "longitude": -3.643802317,
      "base_risk": 9.18,
      "rain_6h_mm": 0.0,
      "humidity_avg": 76.8,
      "soil_moisture_avg": 0.0,
      "temperature_avg": 15.4,
      "pressure_avg": 961.1,
      "rain_mult": 0.0,
      "soil_mult": 0.8,
      "humidity_mult": 1.054,
      "raw_dynamic_score": 0.0,
      "dynamic_level": "None"
    },
    {
      "id": "7019.0",
      "name": "Aranjuez",
      "latitude": 40.04122083,
      "longitude": -3.586864511,
      "base_risk": 9.07,
      "rain_6h_mm": 0.0,
      "humidity_avg": 77.5,
      "soil_moisture_avg": 0.0,
      "temperature_avg": 15.0,
      "pressure_avg": 959.8,
      "rain_mult": 0.0,
      "soil_mult": 0.8,
      "humidity_mult": 1.055,
      "raw_dynamic_score": 0.0,
      "dynamic_level": "None"
    },
    {
      "id": "7021.0",
      "name": "Aranjuez",
      "latitude": 40.03635157,
      "longitude": -3.608531414,
      "base_risk": 9.08,
      "rain_6h_mm": 0.0,
      "humidity_avg": 80.0,
      "soil_moisture_avg": 0.0,
      "temperature_avg": 14.8,
      "pressure_avg": 959.9,
      "rain_mult": 0.0,
      "soil_mult": 0.8,
      "humidity_mult": 1.06,
      "raw_dynamic_score": 0.0,
      "dynamic_level": "None"
    },
    {
      "id": "7022.0",
      "name": "Aranjuez",
      "latitude": 40.0361086,
      "longitude": -3.602341593,
      "base_risk": 9.01,
      "rain_6h_mm": 0.0,
      "humidity_avg": 80.0,
      "soil_moisture_avg": 0.0,
      "temperature_avg": 14.7,
      "pressure_avg": 959.4,
      "rain_mult": 0.0,
      "soil_mult": 0.8,
      "humidity_mult": 1.06,
      "raw_dynamic_score": 0.0,
      "dynamic_level": "None"
    },
    {
      "id": "7029.0",
      "name": "Aranjuez",
      "latitude": 40.03388726,
      "longitude": -3.604464125,
      "base_risk": 9.03,
      "rain_6h_mm": 0.0,
      "humidity_avg": 80.0,
      "soil_moisture_avg": 0.0,
      "temperature_avg": 14.8,
      "pressure_avg": 959.9,
      "rain_mult": 0.0,
      "soil_mult": 0.8,
      "humidity_mult": 1.06,
      "raw_dynamic_score": 0.0,
      "dynamic_level": "None"
    },
    {
      "id": "7075.0",
      "name": "Daganzo de Arriba",
      "latitude": 40.53673748,
      "longitude": -3.456174363,
      "base_risk": 8.78,
      "rain_6h_mm": 0.0,
      "humidity_avg": 83.8,
      "soil_moisture_avg": 0.0,
      "temperature_avg": 13.7,
      "pressure_avg": 942.2,
      "rain_mult": 0.0,
      "soil_mult": 0.8,
      "humidity_mult": 1.068,
      "raw_dynamic_score": 0.0,
      "dynamic_level": "None"
    },
    {
      "id": "7084.0",
      "name": "Daganzo de Arriba",
      "latitude": 40.5429398,
      "longitude": -3.454840341,
      "base_risk": 8.53,
      "rain_6h_mm": 0.0,
      "humidity_avg": 83.8,
      "soil_moisture_avg": 0.0,
      "temperature_avg": 13.7,
      "pressure_avg": 941.4,
      "rain_mult": 0.0,
      "soil_mult": 0.8,
      "humidity_mult": 1.068,
      "raw_dynamic_score": 0.0,
      "dynamic_level": "None"
    },
    {
      "id": "7301.0",
      "name": "Aldea del Fresno (Diseminado)",
      "latitude": 40.32436914,
      "longitude": -4.196441854,
      "base_risk": 8.82,
      "rain_6h_mm": 0.0,
      "humidity_avg": 77.8,
      "soil_moisture_avg": 0.0,
      "temperature_avg": 15.6,
      "pressure_avg": 962.5,
      "rain_mult": 0.0,
      "soil_mult": 0.8,
      "humidity_mult": 1.056,
      "raw_dynamic_score": 0.0,
      "dynamic_level": "None"
    },
    {
      "id": "7771.0",
      "name": "Aranjuez",
      "latitude": 40.03191225,
      "longitude": -3.599697978,
      "base_risk": 8.54,
      "rain_6h_mm": 0.0,
      "humidity_avg": 80.0,
      "soil_moisture_avg": 0.0,
      "temperature_avg": 14.7,
      "pressure_avg": 958.7,
      "rain_mult": 0.0,
      "soil_mult": 0.8,
      "humidity_mult": 1.06,
      "raw_dynamic_score": 0.0,
      "dynamic_level": "None"
    },
    {
      "id": "7779.0",
      "name": "Aranjuez",
      "latitude": 40.03756623,
      "longitude": -3.60405899,
      "base_risk": 9.05,
      "rain_6h_mm": 0.0,
      "humidity_avg": 80.0,
      "soil_moisture_avg": 0.0,
      "temperature_avg": 14.8,
      "pressure_avg": 960.1,
      "rain_mult": 0.0,
      "soil_mult": 0.8,
      "humidity_mult": 1.06,
      "raw_dynamic_score": 0.0,
      "dynamic_level": "None"
    },
    {
      "id": "7861.0",
      "name": "Aranjuez",
      "latitude": 40.03587557,
      "longitude": -3.617226504,
      "base_risk": 9.08,
      "rain_6h_mm": 0.0,
      "humidity_avg": 80.0,
      "soil_moisture_avg": 0.0,
      "temperature_avg": 14.8,
      "pressure_avg": 960.1,
      "rain_mult": 0.0,
      "soil_mult": 0.8,
      "humidity_mult": 1.06,
      "raw_dynamic_score": 0.0,
      "dynamic_level": "None"
    },
    {
      "id": "8829.0",
      "name": "Daganzo de Arriba",
      "latitude": 40.54464703,
      "longitude": -3.45772691,
      "base_risk": 8.52,
      "rain_6h_mm": 0.0,
      "humidity_avg": 83.8,
      "soil_moisture_avg": 0.0,
      "temperature_avg": 13.6,
      "pressure_avg": 940.2,
      "rain_mult": 0.0,
      "soil_mult": 0.8,
      "humidity_mult": 1.068,
      "raw_dynamic_score": 0.0,
      "dynamic_level": "None"
    },
    {
      "id": "10740.0",
      "name": "Madrid",
      "latitude": 40.45323171,
      "longitude": -3.77033754,
      "base_risk": 8.54,
      "rain_6h_mm": 0.0,
      "humidity_avg": 78.7,
      "soil_moisture_avg": 0.0,
      "temperature_avg": 14.5,
      "pressure_avg": 945.8,
      "rain_mult": 0.0,
      "soil_mult": 0.8,
      "humidity_mult": 1.057,
      "raw_dynamic_score": 0.0,
      "dynamic_level": "None"
    },
    {
      "id": "10745.0",
      "name": "Madrid",
      "latitude": 40.45440596,
      "longitude": -3.765855206,
      "base_risk": 8.59,
      "rain_6h_mm": 0.0,
      "humidity_avg": 78.7,
      "soil_moisture_avg": 0.0,
      "temperature_avg": 14.4,
      "pressure_avg": 945.4,
      "rain_mult": 0.0,
      "soil_mult": 0.8,
      "humidity_mult": 1.057,
      "raw_dynamic_score": 0.0,
      "dynamic_level": "None"
    },
    {
      "id": "10749.0",
      "name": "Madrid",
      "latitude": 40.45326992,
      "longitude": -3.761411205,
      "base_risk": 8.52,
      "rain_6h_mm": 0.0,
      "humidity_avg": 78.7,
      "soil_moisture_avg": 0.0,
      "temperature_avg": 14.5,
      "pressure_avg": 946.1,
      "rain_mult": 0.0,
      "soil_mult": 0.8,
      "humidity_mult": 1.057,
      "raw_dynamic_score": 0.0,
      "dynamic_level": "None"
    },
    {
      "id": "13412.0",
      "name": "Cerrada, La",
      "latitude": 40.83797765,
      "longitude": -3.486190777,
      "base_risk": 8.59,
      "rain_6h_mm": 0.0,
      "humidity_avg": 89.2,
      "soil_moisture_avg": 0.0,
      "temperature_avg": 12.1,
      "pressure_avg": 936.6,
      "rain_mult": 0.0,
      "soil_mult": 0.8,
      "humidity_mult": 1.078,
      "raw_dynamic_score": 0.0,
      "dynamic_level": "None"
    },
    {
      "id": "13859.0",
      "name": "Fuenlabrada",
      "latitude": 40.54480431,
      "longitude": -3.455264648,
      "base_risk": 8.53,
      "rain_6h_mm": 0.0,
      "humidity_avg": 83.8,
      "soil_moisture_avg": 0.0,
      "temperature_avg": 13.6,
      "pressure_avg": 941.0,
      "rain_mult": 0.0,
      "soil_mult": 0.8,
      "humidity_mult": 1.068,
      "raw_dynamic_score": 0.0,
      "dynamic_level": "None"
    },
    {
      "id": "15169.0",
      "name": "Velilla de San Antonio",
      "latitude": 40.36492261,
      "longitude": -3.482603366,
      "base_risk": 8.84,
      "rain_6h_mm": 0.0,
      "humidity_avg": 77.2,
      "soil_moisture_avg": 0.0,
      "temperature_avg": 14.9,
      "pressure_avg": 952.6,
      "rain_mult": 0.0,
      "soil_mult": 0.8,
      "humidity_mult": 1.054,
      "raw_dynamic_score": 0.0,
      "dynamic_level": "None"
    },
    {
      "id": "15520.0",
      "name": "Cerceda",
      "latitude": 40.70086837,
      "longitude": -3.930601128,
      "base_risk": 8.54,
      "rain_6h_mm": 0.1,
      "humidity_avg": 86.3,
      "soil_moisture_avg": 0.0,
      "temperature_avg": 11.6,
      "pressure_avg": 910.3,
      "rain_mult": 0.001,
      "soil_mult": 0.8,
      "humidity_mult": 1.073,
      "raw_dynamic_score": 0.007,
      "dynamic_level": "Low"
    },
    {
      "id": "15521.0",
      "name": "Vegas - Santa María, Las",
      "latitude": 40.70107159,
      "longitude": -3.929124771,
      "base_risk": 8.7,
      "rain_6h_mm": 0.1,
      "humidity_avg": 86.3,
      "soil_moisture_avg": 0.0,
      "temperature_avg": 11.6,
      "pressure_avg": 910.4,
      "rain_mult": 0.001,
      "soil_mult": 0.8,
      "humidity_mult": 1.073,
      "raw_dynamic_score": 0.007,
      "dynamic_level": "Low"
    },
    {
      "id": "15862.0",
      "name": "Arroyomolinos (Diseminado)",
      "latitude": 40.63714491,
      "longitude": -4.017140266,
      "base_risk": 8.61,
      "rain_6h_mm": 0.0,
      "humidity_avg": 86.2,
      "soil_moisture_avg": 0.0,
      "temperature_avg": 12.6,
      "pressure_avg": 916.5,
      "rain_mult": 0.0,
      "soil_mult": 0.8,
      "humidity_mult": 1.072,
      "raw_dynamic_score": 0.0,
      "dynamic_level": "None"
    },
    {
      "id": "16046.0",
      "name": "Estación, La",
      "latitude": 40.63501547,
      "longitude": -4.013930415,
      "base_risk": 8.65,
      "rain_6h_mm": 0.0,
      "humidity_avg": 86.2,
      "soil_moisture_avg": 0.0,
      "temperature_avg": 12.6,
      "pressure_avg": 917.4,
      "rain_mult": 0.0,
      "soil_mult": 0.8,
      "humidity_mult": 1.072,
      "raw_dynamic_score": 0.0,
      "dynamic_level": "None"
    },
    {
      "id": "16060.0",
      "name": "Arroyomolinos",
      "latitude": 40.63384159,
      "longitude": -4.013777071,
      "base_risk": 8.68,
      "rain_6h_mm": 0.0,
      "humidity_avg": 86.2,
      "soil_moisture_avg": 0.0,
      "temperature_avg": 12.6,
      "pressure_avg": 917.5,
      "rain_mult": 0.0,
      "soil_mult": 0.8,
      "humidity_mult": 1.072,
      "raw_dynamic_score": 0.0,
      "dynamic_level": "None"
    },
    {
      "id": "18722.0",
      "name": "Quintana",
      "latitude": 40.47001657,
      "longitude": -3.525564116,
      "base_risk": 8.55,
      "rain_6h_mm": 0.0,
      "humidity_avg": 82.7,
      "soil_moisture_avg": 0.0,
      "temperature_avg": 14.2,
      "pressure_avg": 951.2,
      "rain_mult": 0.0,
      "soil_mult": 0.8,
      "humidity_mult": 1.065,
      "raw_dynamic_score": 0.0,
      "dynamic_level": "None"
    },
    {
      "id": "18812.0",
      "name": "Quintana",
      "latitude": 40.46023339,
      "longitude": -3.528418149,
      "base_risk": 8.67,
      "rain_6h_mm": 0.0,
      "humidity_avg": 80.5,
      "soil_moisture_avg": 0.0,
      "temperature_avg": 14.4,
      "pressure_avg": 951.8,
      "rain_mult": 0.0,
      "soil_mult": 0.8,
      "humidity_mult": 1.061,
      "raw_dynamic_score": 0.0,
      "dynamic_level": "None"
    },
    {
      "id": "18813.0",
      "name": "Alcorcón",
      "latitude": 40.46031113,
      "longitude": -3.526844932,
      "base_risk": 8.6,
      "rain_6h_mm": 0.0,
      "humidity_avg": 80.5,
      "soil_moisture_avg": 0.0,
      "temperature_avg": 14.4,
      "pressure_avg": 951.6,
      "rain_mult": 0.0,
      "soil_mult": 0.8,
      "humidity_mult": 1.061,
      "raw_dynamic_score": 0.0,
      "dynamic_level": "None"
    },
    {
      "id": "21126.0",
      "name": "Torrejón de la Calzada (Diseminado)",
      "latitude": 40.27046564,
      "longitude": -3.749403704,
      "base_risk": 8.52,
      "rain_6h_mm": 0.0,
      "humidity_avg": 80.2,
      "soil_moisture_avg": 0.0,
      "temperature_avg": 14.3,
      "pressure_avg": 945.4,
      "rain_mult": 0.0,
      "soil_mult": 0.8,
      "humidity_mult": 1.06,
      "raw_dynamic_score": 0.0,
      "dynamic_level": "None"
    },
    {
      "id": "21153.0",
      "name": "Tres Cantos",
      "latitude": 40.06772459,
      "longitude": -3.615281189,
      "base_risk": 8.9,
      "rain_6h_mm": 0.0,
      "humidity_avg": 80.0,
      "soil_moisture_avg": 0.0,
      "temperature_avg": 14.8,
      "pressure_avg": 960.3,
      "rain_mult": 0.0,
      "soil_mult": 0.8,
      "humidity_mult": 1.06,
      "raw_dynamic_score": 0.0,
      "dynamic_level": "None"
    },
    {
      "id": "21265.0",
      "name": "Moralzarzal",
      "latitude": 40.70581613,
      "longitude": -3.979805777,
      "base_risk": 8.52,
      "rain_6h_mm": 0.1,
      "humidity_avg": 86.3,
      "soil_moisture_avg": 0.0,
      "temperature_avg": 11.0,
      "pressure_avg": 899.6,
      "rain_mult": 0.001,
      "soil_mult": 0.8,
      "humidity_mult": 1.073,
      "raw_dynamic_score": 0.007,
      "dynamic_level": "Low"
    },
    {
      "id": "22122.0",
      "name": "Madrid",
      "latitude": 40.46815939,
      "longitude": -3.526159181,
      "base_risk": 8.63,
      "rain_6h_mm": 0.0,
      "humidity_avg": 80.5,
      "soil_moisture_avg": 0.0,
      "temperature_avg": 14.4,
      "pressure_avg": 951.3,
      "rain_mult": 0.0,
      "soil_mult": 0.8,
      "humidity_mult": 1.061,
      "raw_dynamic_score": 0.0,
      "dynamic_level": "None"
    },
    {
      "id": "23106.0",
      "name": "Serna, La (Diseminado)",
      "latitude": 40.0342122,
      "longitude": -3.616444956,
      "base_risk": 9.07,
      "rain_6h_mm": 0.0,
      "humidity_avg": 80.0,
      "soil_moisture_avg": 0.0,
      "temperature_avg": 14.8,
      "pressure_avg": 960.1,
      "rain_mult": 0.0,
      "soil_mult": 0.8,
      "humidity_mult": 1.06,
      "raw_dynamic_score": 0.0,
      "dynamic_level": "None"
    },
    {
      "id": "24538.0",
      "name": "Collado Villalba",
      "latitude": 40.35572772,
      "longitude": -3.482298184,
      "base_risk": 9.36,
      "rain_6h_mm": 0.0,
      "humidity_avg": 77.2,
      "soil_moisture_avg": 0.0,
      "temperature_avg": 15.0,
      "pressure_avg": 954.7,
      "rain_mult": 0.0,
      "soil_mult": 0.8,
      "humidity_mult": 1.054,
      "raw_dynamic_score": 0.0,
      "dynamic_level": "None"
    },
    {
      "id": "24603.0",
      "name": "Velilla de San Antonio (Diseminado)",
      "latitude": 40.35151292,
      "longitude": -3.4804869,
      "base_risk": 9.36,
      "rain_6h_mm": 0.0,
      "humidity_avg": 77.2,
      "soil_moisture_avg": 0.0,
      "temperature_avg": 15.0,
      "pressure_avg": 954.4,
      "rain_mult": 0.0,
      "soil_mult": 0.8,
      "humidity_mult": 1.054,
      "raw_dynamic_score": 0.0,
      "dynamic_level": "None"
    },
    {
      "id": "25738.0",
      "name": "Quintana",
      "latitude": 40.47422992,
      "longitude": -3.531955357,
      "base_risk": 8.53,
      "rain_6h_mm": 0.0,
      "humidity_avg": 81.7,
      "soil_moisture_avg": 0.0,
      "temperature_avg": 14.3,
      "pressure_avg": 951.2,
      "rain_mult": 0.0,
      "soil_mult": 0.8,
      "humidity_mult": 1.063,
      "raw_dynamic_score": 0.0,
      "dynamic_level": "None"
    },
    {
      "id": "25739.0",
      "name": "Fresno de Torote (Diseminado)",
      "latitude": 40.47115819,
      "longitude": -3.529394311,
      "base_risk": 8.55,
      "rain_6h_mm": 0.0,
      "humidity_avg": 82.7,
      "soil_moisture_avg": 0.0,
      "temperature_avg": 14.2,
      "pressure_avg": 951.4,
      "rain_mult": 0.0,
      "soil_mult": 0.8,
      "humidity_mult": 1.065,
      "raw_dynamic_score": 0.0,
      "dynamic_level": "None"
    },
    {
      "id": "25813.0",
      "name": "Madrid",
      "latitude": 40.47025107,
      "longitude": -3.527970462,
      "base_risk": 8.59,
      "rain_6h_mm": 0.0,
      "humidity_avg": 82.7,
      "soil_moisture_avg": 0.0,
      "temperature_avg": 14.2,
      "pressure_avg": 951.2,
      "rain_mult": 0.0,
      "soil_mult": 0.8,
      "humidity_mult": 1.065,
      "raw_dynamic_score": 0.0,
      "dynamic_level": "None"
    },
    {
      "id": "25816.0",
      "name": "San Sebastián de los Reyes (Diseminado)",
      "latitude": 40.53694887,
      "longitude": -3.554980564,
      "base_risk": 8.71,
      "rain_6h_mm": 0.0,
      "humidity_avg": 84.7,
      "soil_moisture_avg": 0.0,
      "temperature_avg": 13.7,
      "pressure_avg": 949.7,
      "rain_mult": 0.0,
      "soil_mult": 0.8,
      "humidity_mult": 1.069,
      "raw_dynamic_score": 0.0,
      "dynamic_level": "None"
    },
    {
      "id": "25994.0",
      "name": "Villanueva de Perales",
      "latitude": 40.5317529,
      "longitude": -3.55582203,
      "base_risk": 8.71,
      "rain_6h_mm": 0.0,
      "humidity_avg": 84.7,
      "soil_moisture_avg": 0.0,
      "temperature_avg": 13.7,
      "pressure_avg": 949.4,
      "rain_mult": 0.0,
      "soil_mult": 0.8,
      "humidity_mult": 1.069,
      "raw_dynamic_score": 0.0,
      "dynamic_level": "None"
    },
    {
      "id": "26041.0",
      "name": "Valle del Río",
      "latitude": 40.63119475,
      "longitude": -3.398294824,
      "base_risk": 8.51,
      "rain_6h_mm": 0.0,
      "humidity_avg": 86.0,
      "soil_moisture_avg": 0.0,
      "temperature_avg": 13.0,
      "pressure_avg": 936.2,
      "rain_mult": 0.0,
      "soil_mult": 0.8,
      "humidity_mult": 1.072,
      "raw_dynamic_score": 0.0,
      "dynamic_level": "None"
    },
    {
      "id": "27060.0",
      "name": "Espinillos (Diseminado)",
      "latitude": 40.47122142,
      "longitude": -3.530486695,
      "base_risk": 8.51,
      "rain_6h_mm": 0.0,
      "humidity_avg": 82.7,
      "soil_moisture_avg": 0.0,
      "temperature_avg": 14.2,
      "pressure_avg": 951.4,
      "rain_mult": 0.0,
      "soil_mult": 0.8,
      "humidity_mult": 1.065,
      "raw_dynamic_score": 0.0,
      "dynamic_level": "None"
    },
    {
      "id": "27840.0",
      "name": "Castellanas, Las (Diseminado)",
      "latitude": 40.63170987,
      "longitude": -3.396786174,
      "base_risk": 8.51,
      "rain_6h_mm": 0.0,
      "humidity_avg": 86.0,
      "soil_moisture_avg": 0.0,
      "temperature_avg": 13.0,
      "pressure_avg": 936.1,
      "rain_mult": 0.0,
      "soil_mult": 0.8,
      "humidity_mult": 1.072,
      "raw_dynamic_score": 0.0,
      "dynamic_level": "None"
    },
    {
      "id": "27927.0",
      "name": "Madrid",
      "latitude": 40.45947113,
      "longitude": -3.526053892,
      "base_risk": 8.6,
      "rain_6h_mm": 0.0,
      "humidity_avg": 80.5,
      "soil_moisture_avg": 0.0,
      "temperature_avg": 14.4,
      "pressure_avg": 951.8,
      "rain_mult": 0.0,
      "soil_mult": 0.8,
      "humidity_mult": 1.061,
      "raw_dynamic_score": 0.0,
      "dynamic_level": "None"
    },
    {
      "id": "28318.0",
      "name": "Quintana",
      "latitude": 40.45772099,
      "longitude": -3.525674587,
      "base_risk": 8.63,
      "rain_6h_mm": 0.0,
      "humidity_avg": 80.5,
      "soil_moisture_avg": 0.0,
      "temperature_avg": 14.4,
      "pressure_avg": 951.6,
      "rain_mult": 0.0,
      "soil_mult": 0.8,
      "humidity_mult": 1.061,
      "raw_dynamic_score": 0.0,
      "dynamic_level": "None"
    },
    {
      "id": "28321.0",
      "name": "Viveros (Diseminado)",
      "latitude": 40.45063835,
      "longitude": -3.523578512,
      "base_risk": 8.59,
      "rain_6h_mm": 0.0,
      "humidity_avg": 80.5,
      "soil_moisture_avg": 0.0,
      "temperature_avg": 14.4,
      "pressure_avg": 951.4,
      "rain_mult": 0.0,
      "soil_mult": 0.8,
      "humidity_mult": 1.061,
      "raw_dynamic_score": 0.0,
      "dynamic_level": "None"
    },
    {
      "id": "32547.0",
      "name": "Bosque, El",
      "latitude": 40.38537243,
      "longitude": -3.94660677,
      "base_risk": 8.65,
      "rain_6h_mm": 0.0,
      "humidity_avg": 80.5,
      "soil_moisture_avg": 0.0,
      "temperature_avg": 14.5,
      "pressure_avg": 950.1,
      "rain_mult": 0.0,
      "soil_mult": 0.8,
      "humidity_mult": 1.061,
      "raw_dynamic_score": 0.0,
      "dynamic_level": "None"
    },
    {
      "id": "36497.0",
      "name": "Álamo, El (Diseminado)",
      "latitude": 40.53748944,
      "longitude": -3.604215078,
      "base_risk": 8.63,
      "rain_6h_mm": 0.0,
      "humidity_avg": 82.7,
      "soil_moisture_avg": 0.0,
      "temperature_avg": 13.7,
      "pressure_avg": 945.4,
      "rain_mult": 0.0,
      "soil_mult": 0.8,
      "humidity_mult": 1.065,
      "raw_dynamic_score": 0.0,
      "dynamic_level": "None"
    },
    {
      "id": "38622.0",
      "name": "Patones de Abajo",
      "latitude": 40.85681868,
      "longitude": -3.48442831,
      "base_risk": 9.04,
      "rain_6h_mm": 0.0,
      "humidity_avg": 89.2,
      "soil_moisture_avg": 0.0,
      "temperature_avg": 12.0,
      "pressure_avg": 934.4,
      "rain_mult": 0.0,
      "soil_mult": 0.8,
      "humidity_mult": 1.078,
      "raw_dynamic_score": 0.0,
      "dynamic_level": "None"
    },
    {
      "id": "38623.0",
      "name": "Patones de Abajo",
      "latitude": 40.85668067,
      "longitude": -3.483940056,
      "base_risk": 9.1,
      "rain_6h_mm": 0.0,
      "humidity_avg": 89.2,
      "soil_moisture_avg": 0.0,
      "temperature_avg": 12.0,
      "pressure_avg": 934.7,
      "rain_mult": 0.0,
      "soil_mult": 0.8,
      "humidity_mult": 1.078,
      "raw_dynamic_score": 0.0,
      "dynamic_level": "None"
    },
    {
      "id": "38626.0",
      "name": "Ribatejada",
      "latitude": 40.85685184,
      "longitude": -3.482945368,
      "base_risk": 9.11,
      "rain_6h_mm": 0.0,
      "humidity_avg": 89.2,
      "soil_moisture_avg": 0.0,
      "temperature_avg": 12.0,
      "pressure_avg": 935.0,
      "rain_mult": 0.0,
      "soil_mult": 0.8,
      "humidity_mult": 1.078,
      "raw_dynamic_score": 0.0,
      "dynamic_level": "None"
    },
    {
      "id": "38707.0",
      "name": "Patones de Abajo",
      "latitude": 40.8541403,
      "longitude": -3.485261663,
      "base_risk": 9.13,
      "rain_6h_mm": 0.0,
      "humidity_avg": 89.2,
      "soil_moisture_avg": 0.0,
      "temperature_avg": 12.0,
      "pressure_avg": 935.2,
      "rain_mult": 0.0,
      "soil_mult": 0.8,
      "humidity_mult": 1.078,
      "raw_dynamic_score": 0.0,
      "dynamic_level": "None"
    },
    {
      "id": "38766.0",
      "name": "Alcobendas",
      "latitude": 40.85750645,
      "longitude": -3.483045136,
      "base_risk": 9.09,
      "rain_6h_mm": 0.0,
      "humidity_avg": 89.2,
      "soil_moisture_avg": 0.0,
      "temperature_avg": 12.0,
      "pressure_avg": 934.9,
      "rain_mult": 0.0,
      "soil_mult": 0.8,
      "humidity_mult": 1.078,
      "raw_dynamic_score": 0.0,
      "dynamic_level": "None"
    },
    {
      "id": "42803.0",
      "name": "Praonal, El (Diseminado)",
      "latitude": 40.29251969,
      "longitude": -3.676266649,
      "base_risk": 8.94,
      "rain_6h_mm": 0.0,
      "humidity_avg": 80.0,
      "soil_moisture_avg": 0.0,
      "temperature_avg": 14.5,
      "pressure_avg": 949.0,
      "rain_mult": 0.0,
      "soil_mult": 0.8,
      "humidity_mult": 1.06,
      "raw_dynamic_score": 0.0,
      "dynamic_level": "None"
    },
    {
      "id": "44863.0",
      "name": "Pozuelo de Alarcón (Diseminado)",
      "latitude": 40.53557096,
      "longitude": -3.380200601,
      "base_risk": 8.54,
      "rain_6h_mm": 0.0,
      "humidity_avg": 82.3,
      "soil_moisture_avg": 0.0,
      "temperature_avg": 13.8,
      "pressure_avg": 944.7,
      "rain_mult": 0.0,
      "soil_mult": 0.8,
      "humidity_mult": 1.065,
      "raw_dynamic_score": 0.0,
      "dynamic_level": "None"
    },
    {
      "id": "44927.0",
      "name": "Butarque (Diseminado)",
      "latitude": 40.35073165,
      "longitude": -3.747308193,
      "base_risk": 8.69,
      "rain_6h_mm": 0.0,
      "humidity_avg": 79.5,
      "soil_moisture_avg": 0.0,
      "temperature_avg": 14.4,
      "pressure_avg": 945.5,
      "rain_mult": 0.0,
      "soil_mult": 0.8,
      "humidity_mult": 1.059,
      "raw_dynamic_score": 0.0,
      "dynamic_level": "None"
    },
    {
      "id": "44929.0",
      "name": "Butarque (Diseminado)",
      "latitude": 40.35081749,
      "longitude": -3.741594759,
      "base_risk": 8.76,
      "rain_6h_mm": 0.0,
      "humidity_avg": 79.5,
      "soil_moisture_avg": 0.0,
      "temperature_avg": 14.5,
      "pressure_avg": 945.9,
      "rain_mult": 0.0,
      "soil_mult": 0.8,
      "humidity_mult": 1.059,
      "raw_dynamic_score": 0.0,
      "dynamic_level": "None"
    },
    {
      "id": "nan",
      "name": "Catarman, Philippines",
      "latitude": 12.4989,
      "longitude": 124.6377,
      "base_risk": 9.2,
      "rain_6h_mm": 0.0,
      "humidity_avg": 87.5,
      "soil_moisture_avg": 0.0,
      "temperature_avg": 27.1,
      "pressure_avg": 1011.3,
      "rain_mult": 0.0,
      "soil_mult": 0.8,
      "humidity_mult": 1.075,
      "raw_dynamic_score": 0.0,
      "dynamic_level": "None"
    },
    {
      "id": "nan",
      "name": "Mawsynram, India",
      "latitude": 25.237,
      "longitude": 91.542,
      "base_risk": 8.99,
      "rain_6h_mm": 4.8,
      "humidity_avg": 86.0,
      "soil_moisture_avg": 0.0,
      "temperature_avg": 20.7,
      "pressure_avg": 925.8,
      "rain_mult": 0.048,
      "soil_mult": 0.8,
      "humidity_mult": 1.072,
      "raw_dynamic_score": 0.37,
      "dynamic_level": "Low"
    },
    {
      "id": "nan",
      "name": "Cherrapunji, India",
      "latitude": 25.311,
      "longitude": 91.75,
      "base_risk": 9.29,
      "rain_6h_mm": 7.3,
      "humidity_avg": 94.3,
      "soil_moisture_avg": 0.0,
      "temperature_avg": 16.0,
      "pressure_avg": 849.1,
      "rain_mult": 0.073,
      "soil_mult": 0.8,
      "humidity_mult": 1.089,
      "raw_dynamic_score": 0.591,
      "dynamic_level": "Low"
    },
    {
      "id": "nan",
      "name": "Mumbai, India",
      "latitude": 19.056,
      "longitude": 72.878,
      "base_risk": 9.42,
      "rain_6h_mm": 0.5,
      "humidity_avg": 85.7,
      "soil_moisture_avg": 0.0,
      "temperature_avg": 27.0,
      "pressure_avg": 1008.2,
      "rain_mult": 0.005,
      "soil_mult": 0.8,
      "humidity_mult": 1.071,
      "raw_dynamic_score": 0.04,
      "dynamic_level": "Low"
    },
    {
      "id": "nan",
      "name": "Kochi, India",
      "latitude": 9.951,
      "longitude": 76.227,
      "base_risk": 9.23,
      "rain_6h_mm": 0.1,
      "humidity_avg": 78.8,
      "soil_moisture_avg": 0.0,
      "temperature_avg": 27.9,
      "pressure_avg": 1011.6,
      "rain_mult": 0.001,
      "soil_mult": 0.8,
      "humidity_mult": 1.058,
      "raw_dynamic_score": 0.008,
      "dynamic_level": "Low"
    },
    {
      "id": "nan",
      "name": "Thiruvananthapuram, India",
      "latitude": 8.484,
      "longitude": 76.976,
      "base_risk": 9.12,
      "rain_6h_mm": 0.0,
      "humidity_avg": 89.3,
      "soil_moisture_avg": 0.0,
      "temperature_avg": 25.4,
      "pressure_avg": 1008.0,
      "rain_mult": 0.0,
      "soil_mult": 0.8,
      "humidity_mult": 1.079,
      "raw_dynamic_score": 0.0,
      "dynamic_level": "None"
    },
    {
      "id": "nan",
      "name": "Kolkata, India",
      "latitude": 22.632,
      "longitude": 88.344,
      "base_risk": 8.64,
      "rain_6h_mm": 0.0,
      "humidity_avg": 92.0,
      "soil_moisture_avg": 0.0,
      "temperature_avg": 26.4,
      "pressure_avg": 1007.8,
      "rain_mult": 0.0,
      "soil_mult": 0.8,
      "humidity_mult": 1.084,
      "raw_dynamic_score": 0.0,
      "dynamic_level": "None"
    },
    {
      "id": "nan",
      "name": "Sylhet, Bangladesh",
      "latitude": 24.954,
      "longitude": 91.868,
      "base_risk": 8.76,
      "rain_6h_mm": 0.0,
      "humidity_avg": 85.3,
      "soil_moisture_avg": 0.0,
      "temperature_avg": 25.2,
      "pressure_avg": 1007.2,
      "rain_mult": 0.0,
      "soil_mult": 0.8,
      "humidity_mult": 1.071,
      "raw_dynamic_score": 0.0,
      "dynamic_level": "None"
    },
    {
      "id": "nan",
      "name": "Cox's Bazar, Bangladesh",
      "latitude": 21.447,
      "longitude": 92.019,
      "base_risk": 9.02,
      "rain_6h_mm": 0.0,
      "humidity_avg": 89.8,
      "soil_moisture_avg": 0.0,
      "temperature_avg": 27.7,
      "pressure_avg": 1008.8,
      "rain_mult": 0.0,
      "soil_mult": 0.8,
      "humidity_mult": 1.08,
      "raw_dynamic_score": 0.0,
      "dynamic_level": "None"
    },
    {
      "id": "nan",
      "name": "Yangon, Myanmar",
      "latitude": 16.866,
      "longitude": 96.235,
      "base_risk": 9.29,
      "rain_6h_mm": 4.6,
      "humidity_avg": 94.2,
      "soil_moisture_avg": 0.0,
      "temperature_avg": 26.5,
      "pressure_avg": 1008.6,
      "rain_mult": 0.046,
      "soil_mult": 0.8,
      "humidity_mult": 1.088,
      "raw_dynamic_score": 0.372,
      "dynamic_level": "Low"
    },
    {
      "id": "nan",
      "name": "Dawei, Myanmar",
      "latitude": 14.062,
      "longitude": 98.214,
      "base_risk": 8.71,
      "rain_6h_mm": 0.0,
      "humidity_avg": 94.5,
      "soil_moisture_avg": 0.0,
      "temperature_avg": 25.6,
      "pressure_avg": 1009.8,
      "rain_mult": 0.0,
      "soil_mult": 0.8,
      "humidity_mult": 1.089,
      "raw_dynamic_score": 0.0,
      "dynamic_level": "None"
    },
    {
      "id": "nan",
      "name": "Hue, Vietnam",
      "latitude": 16.403,
      "longitude": 107.57,
      "base_risk": 8.92,
      "rain_6h_mm": 11.1,
      "humidity_avg": 97.2,
      "soil_moisture_avg": 0.0,
      "temperature_avg": 24.2,
      "pressure_avg": 1013.5,
      "rain_mult": 0.111,
      "soil_mult": 0.8,
      "humidity_mult": 1.094,
      "raw_dynamic_score": 0.867,
      "dynamic_level": "Low"
    },
    {
      "id": "nan",
      "name": "Da Nang, Vietnam",
      "latitude": 15.994,
      "longitude": 108.163,
      "base_risk": 9.31,
      "rain_6h_mm": 8.0,
      "humidity_avg": 93.7,
      "soil_moisture_avg": 0.0,
      "temperature_avg": 24.5,
      "pressure_avg": 1014.6,
      "rain_mult": 0.08,
      "soil_mult": 0.8,
      "humidity_mult": 1.087,
      "raw_dynamic_score": 0.648,
      "dynamic_level": "Low"
    },
    {
      "id": "nan",
      "name": "Sihanoukville, Cambodia",
      "latitude": 10.665,
      "longitude": 103.482,
      "base_risk": 9.33,
      "rain_6h_mm": 12.6,
      "humidity_avg": 88.7,
      "soil_moisture_avg": 0.0,
      "temperature_avg": 26.8,
      "pressure_avg": 1011.3,
      "rain_mult": 0.126,
      "soil_mult": 0.8,
      "humidity_mult": 1.077,
      "raw_dynamic_score": 1.013,
      "dynamic_level": "Low"
    },
    {
      "id": "nan",
      "name": "Bangkok, Thailand",
      "latitude": 13.736,
      "longitude": 100.521,
      "base_risk": 9.0,
      "rain_6h_mm": 2.2,
      "humidity_avg": 92.0,
      "soil_moisture_avg": 0.0,
      "temperature_avg": 25.6,
      "pressure_avg": 1010.0,
      "rain_mult": 0.022,
      "soil_mult": 0.8,
      "humidity_mult": 1.084,
      "raw_dynamic_score": 0.172,
      "dynamic_level": "Low"
    },
    {
      "id": "nan",
      "name": "Vientiane, Laos",
      "latitude": 17.995,
      "longitude": 102.653,
      "base_risk": 8.63,
      "rain_6h_mm": 0.4,
      "humidity_avg": 86.8,
      "soil_moisture_avg": 0.0,
      "temperature_avg": 25.2,
      "pressure_avg": 994.4,
      "rain_mult": 0.004,
      "soil_mult": 0.8,
      "humidity_mult": 1.074,
      "raw_dynamic_score": 0.03,
      "dynamic_level": "Low"
    },
    {
      "id": "nan",
      "name": "Kuala Lumpur, Malaysia",
      "latitude": 3.099,
      "longitude": 101.646,
      "base_risk": 9.06,
      "rain_6h_mm": 2.3,
      "humidity_avg": 89.2,
      "soil_moisture_avg": 0.0,
      "temperature_avg": 26.6,
      "pressure_avg": 1005.9,
      "rain_mult": 0.023,
      "soil_mult": 0.8,
      "humidity_mult": 1.078,
      "raw_dynamic_score": 0.18,
      "dynamic_level": "Low"
    },
    {
      "id": "nan",
      "name": "Kuching, Malaysia",
      "latitude": 1.613,
      "longitude": 110.399,
      "base_risk": 9.4,
      "rain_6h_mm": 0.1,
      "humidity_avg": 85.7,
      "soil_moisture_avg": 0.0,
      "temperature_avg": 26.8,
      "pressure_avg": 1010.1,
      "rain_mult": 0.001,
      "soil_mult": 0.8,
      "humidity_mult": 1.071,
      "raw_dynamic_score": 0.008,
      "dynamic_level": "Low"
    },
    {
      "id": "nan",
      "name": "Kota Kinabalu, Malaysia",
      "latitude": 6.04,
      "longitude": 116.053,
      "base_risk": 8.85,
      "rain_6h_mm": 0.0,
      "humidity_avg": 76.0,
      "soil_moisture_avg": 0.0,
      "temperature_avg": 28.7,
      "pressure_avg": 1011.4,
      "rain_mult": 0.0,
      "soil_mult": 0.8,
      "humidity_mult": 1.052,
      "raw_dynamic_score": 0.0,
      "dynamic_level": "None"
    },
    {
      "id": "nan",
      "name": "Jakarta, Indonesia",
      "latitude": -6.188,
      "longitude": 106.825,
      "base_risk": 9.38,
      "rain_6h_mm": 0.0,
      "humidity_avg": 87.8,
      "soil_moisture_avg": 0.0,
      "temperature_avg": 26.3,
      "pressure_avg": 1010.5,
      "rain_mult": 0.0,
      "soil_mult": 0.8,
      "humidity_mult": 1.076,
      "raw_dynamic_score": 0.0,
      "dynamic_level": "None"
    },
    {
      "id": "nan",
      "name": "Bogor, Indonesia",
      "latitude": -6.595,
      "longitude": 106.857,
      "base_risk": 8.54,
      "rain_6h_mm": 0.0,
      "humidity_avg": 88.8,
      "soil_moisture_avg": 0.0,
      "temperature_avg": 24.8,
      "pressure_avg": 983.6,
      "rain_mult": 0.0,
      "soil_mult": 0.8,
      "humidity_mult": 1.078,
      "raw_dynamic_score": 0.0,
      "dynamic_level": "None"
    },
    {
      "id": "nan",
      "name": "Bandung, Indonesia",
      "latitude": -6.937,
      "longitude": 107.659,
      "base_risk": 8.55,
      "rain_6h_mm": 0.0,
      "humidity_avg": 90.2,
      "soil_moisture_avg": 0.0,
      "temperature_avg": 23.1,
      "pressure_avg": 938.4,
      "rain_mult": 0.0,
      "soil_mult": 0.8,
      "humidity_mult": 1.08,
      "raw_dynamic_score": 0.0,
      "dynamic_level": "None"
    },
    {
      "id": "nan",
      "name": "Lae, Papua New Guinea",
      "latitude": -6.693,
      "longitude": 147.003,
      "base_risk": 9.06,
      "rain_6h_mm": 1.4,
      "humidity_avg": 82.7,
      "soil_moisture_avg": 0.0,
      "temperature_avg": 26.7,
      "pressure_avg": 1008.3,
      "rain_mult": 0.014,
      "soil_mult": 0.8,
      "humidity_mult": 1.065,
      "raw_dynamic_score": 0.108,
      "dynamic_level": "Low"
    },
    {
      "id": "nan",
      "name": "Madang, Papua New Guinea",
      "latitude": -5.277,
      "longitude": 145.8,
      "base_risk": 8.53,
      "rain_6h_mm": 2.4,
      "humidity_avg": 85.3,
      "soil_moisture_avg": 0.0,
      "temperature_avg": 26.1,
      "pressure_avg": 1012.8,
      "rain_mult": 0.024,
      "soil_mult": 0.8,
      "humidity_mult": 1.071,
      "raw_dynamic_score": 0.175,
      "dynamic_level": "Low"
    },
    {
      "id": "nan",
      "name": "Port Moresby, Papua New Guinea",
      "latitude": -9.503,
      "longitude": 147.16,
      "base_risk": 9.01,
      "rain_6h_mm": 0.0,
      "humidity_avg": 81.5,
      "soil_moisture_avg": 0.0,
      "temperature_avg": 28.4,
      "pressure_avg": 1011.5,
      "rain_mult": 0.0,
      "soil_mult": 0.8,
      "humidity_mult": 1.063,
      "raw_dynamic_score": 0.0,
      "dynamic_level": "None"
    },
    {
      "id": "nan",
      "name": "Suva, Fiji",
      "latitude": -18.161,
      "longitude": 178.401,
      "base_risk": 8.76,
      "rain_6h_mm": 0.0,
      "humidity_avg": 68.7,
      "soil_moisture_avg": 0.0,
      "temperature_avg": 27.8,
      "pressure_avg": 1015.7,
      "rain_mult": 0.0,
      "soil_mult": 0.8,
      "humidity_mult": 1.037,
      "raw_dynamic_score": 0.0,
      "dynamic_level": "None"
    },
    {
      "id": "nan",
      "name": "Apia, Samoa",
      "latitude": -13.833,
      "longitude": -171.73,
      "base_risk": 9.47,
      "rain_6h_mm": 0.1,
      "humidity_avg": 73.3,
      "soil_moisture_avg": 0.0,
      "temperature_avg": 29.3,
      "pressure_avg": 1012.9,
      "rain_mult": 0.001,
      "soil_mult": 0.8,
      "humidity_mult": 1.047,
      "raw_dynamic_score": 0.008,
      "dynamic_level": "Low"
    },
    {
      "id": "nan",
      "name": "Palikir, Micronesia",
      "latitude": 6.937,
      "longitude": 158.15,
      "base_risk": 8.81,
      "rain_6h_mm": 0.0,
      "humidity_avg": 78.3,
      "soil_moisture_avg": 0.0,
      "temperature_avg": 27.8,
      "pressure_avg": 1005.1,
      "rain_mult": 0.0,
      "soil_mult": 0.8,
      "humidity_mult": 1.057,
      "raw_dynamic_score": 0.0,
      "dynamic_level": "None"
    },
    {
      "id": "nan",
      "name": "Pohnpei (Kolonia), Micronesia",
      "latitude": 6.924,
      "longitude": 158.229,
      "base_risk": 8.86,
      "rain_6h_mm": 0.0,
      "humidity_avg": 79.2,
      "soil_moisture_avg": 0.0,
      "temperature_avg": 26.7,
      "pressure_avg": 1001.4,
      "rain_mult": 0.0,
      "soil_mult": 0.8,
      "humidity_mult": 1.058,
      "raw_dynamic_score": 0.0,
      "dynamic_level": "None"
    },
    {
      "id": "nan",
      "name": "Cairns, Australia",
      "latitude": -16.86,
      "longitude": 145.81,
      "base_risk": 9.21,
      "rain_6h_mm": 0.0,
      "humidity_avg": 69.3,
      "soil_moisture_avg": 0.0,
      "temperature_avg": 29.9,
      "pressure_avg": 1015.9,
      "rain_mult": 0.0,
      "soil_mult": 0.8,
      "humidity_mult": 1.039,
      "raw_dynamic_score": 0.0,
      "dynamic_level": "None"
    },
    {
      "id": "nan",
      "name": "Innisfail, Australia",
      "latitude": -17.565,
      "longitude": 146.01,
      "base_risk": 8.63,
      "rain_6h_mm": 0.0,
      "humidity_avg": 70.3,
      "soil_moisture_avg": 0.0,
      "temperature_avg": 28.3,
      "pressure_avg": 1014.8,
      "rain_mult": 0.0,
      "soil_mult": 0.8,
      "humidity_mult": 1.041,
      "raw_dynamic_score": 0.0,
      "dynamic_level": "None"
    },
    {
      "id": "nan",
      "name": "Tully, Australia",
      "latitude": -17.912,
      "longitude": 145.922,
      "base_risk": 8.73,
      "rain_6h_mm": 0.0,
      "humidity_avg": 71.3,
      "soil_moisture_avg": 0.0,
      "temperature_avg": 27.2,
      "pressure_avg": 1009.8,
      "rain_mult": 0.0,
      "soil_mult": 0.8,
      "humidity_mult": 1.043,
      "raw_dynamic_score": 0.0,
      "dynamic_level": "None"
    },
    {
      "id": "nan",
      "name": "Darwin, Australia",
      "latitude": -12.463,
      "longitude": 130.825,
      "base_risk": 9.15,
      "rain_6h_mm": 0.0,
      "humidity_avg": 69.7,
      "soil_moisture_avg": 0.0,
      "temperature_avg": 30.9,
      "pressure_avg": 1013.0,
      "rain_mult": 0.0,
      "soil_mult": 0.8,
      "humidity_mult": 1.039,
      "raw_dynamic_score": 0.0,
      "dynamic_level": "None"
    },
    {
      "id": "nan",
      "name": "Hilo, Hawaii, USA",
      "latitude": 19.687,
      "longitude": -155.041,
      "base_risk": 8.62,
      "rain_6h_mm": 0.0,
      "humidity_avg": 78.8,
      "soil_moisture_avg": 0.0,
      "temperature_avg": 22.5,
      "pressure_avg": 1015.8,
      "rain_mult": 0.0,
      "soil_mult": 0.8,
      "humidity_mult": 1.058,
      "raw_dynamic_score": 0.0,
      "dynamic_level": "None"
    },
    {
      "id": "nan",
      "name": "Prince Rupert, Canada",
      "latitude": 54.255,
      "longitude": -130.3,
      "base_risk": 8.51,
      "rain_6h_mm": 6.3,
      "humidity_avg": 81.5,
      "soil_moisture_avg": 0.0,
      "temperature_avg": 10.3,
      "pressure_avg": 989.2,
      "rain_mult": 0.063,
      "soil_mult": 0.8,
      "humidity_mult": 1.063,
      "raw_dynamic_score": 0.456,
      "dynamic_level": "Low"
    },
    {
      "id": "nan",
      "name": "Tofino, Canada",
      "latitude": 49.094,
      "longitude": -125.906,
      "base_risk": 9.46,
      "rain_6h_mm": 0.6,
      "humidity_avg": 95.3,
      "soil_moisture_avg": 0.0,
      "temperature_avg": 11.5,
      "pressure_avg": 1009.6,
      "rain_mult": 0.006,
      "soil_mult": 0.8,
      "humidity_mult": 1.091,
      "raw_dynamic_score": 0.05,
      "dynamic_level": "Low"
    },
    {
      "id": "nan",
      "name": "Vancouver, Canada",
      "latitude": 49.322,
      "longitude": -123.141,
      "base_risk": 9.26,
      "rain_6h_mm": 22.6,
      "humidity_avg": 90.3,
      "soil_moisture_avg": 0.0,
      "temperature_avg": 9.1,
      "pressure_avg": 1010.4,
      "rain_mult": 0.226,
      "soil_mult": 0.8,
      "humidity_mult": 1.081,
      "raw_dynamic_score": 1.809,
      "dynamic_level": "Low"
    },
    {
      "id": "nan",
      "name": "Seattle, USA",
      "latitude": 47.586,
      "longitude": -122.372,
      "base_risk": 9.43,
      "rain_6h_mm": 5.8,
      "humidity_avg": 88.0,
      "soil_moisture_avg": 0.0,
      "temperature_avg": 10.7,
      "pressure_avg": 1014.4,
      "rain_mult": 0.058,
      "soil_mult": 0.8,
      "humidity_mult": 1.076,
      "raw_dynamic_score": 0.471,
      "dynamic_level": "Low"
    },
    {
      "id": "nan",
      "name": "Forks, USA",
      "latitude": 47.95,
      "longitude": -124.425,
      "base_risk": 9.04,
      "rain_6h_mm": 24.2,
      "humidity_avg": 94.0,
      "soil_moisture_avg": 0.0,
      "temperature_avg": 11.2,
      "pressure_avg": 1001.7,
      "rain_mult": 0.242,
      "soil_mult": 0.8,
      "humidity_mult": 1.088,
      "raw_dynamic_score": 1.904,
      "dynamic_level": "Low"
    },
    {
      "id": "nan",
      "name": "Ketchikan, USA",
      "latitude": 55.362,
      "longitude": -131.626,
      "base_risk": 9.28,
      "rain_6h_mm": 6.0,
      "humidity_avg": 84.0,
      "soil_moisture_avg": 0.0,
      "temperature_avg": 8.7,
      "pressure_avg": 978.7,
      "rain_mult": 0.06,
      "soil_mult": 0.8,
      "humidity_mult": 1.068,
      "raw_dynamic_score": 0.476,
      "dynamic_level": "Low"
    },
    {
      "id": "nan",
      "name": "Juneau, USA",
      "latitude": 58.261,
      "longitude": -134.42,
      "base_risk": 8.57,
      "rain_6h_mm": 16.4,
      "humidity_avg": 91.5,
      "soil_moisture_avg": 0.0,
      "temperature_avg": 1.8,
      "pressure_avg": 915.9,
      "rain_mult": 0.164,
      "soil_mult": 0.8,
      "humidity_mult": 1.083,
      "raw_dynamic_score": 1.218,
      "dynamic_level": "Low"
    },
    {
      "id": "nan",
      "name": "Sitka, USA",
      "latitude": 57.113,
      "longitude": -135.31,
      "base_risk": 8.8,
      "rain_6h_mm": 12.4,
      "humidity_avg": 86.5,
      "soil_moisture_avg": 0.0,
      "temperature_avg": 5.3,
      "pressure_avg": 930.9,
      "rain_mult": 0.124,
      "soil_mult": 0.8,
      "humidity_mult": 1.073,
      "raw_dynamic_score": 0.937,
      "dynamic_level": "Low"
    },
    {
      "id": "nan",
      "name": "Tapachula, Mexico",
      "latitude": 14.963,
      "longitude": -92.297,
      "base_risk": 9.46,
      "rain_6h_mm": 1.1,
      "humidity_avg": 71.8,
      "soil_moisture_avg": 0.0,
      "temperature_avg": 28.0,
      "pressure_avg": 982.1,
      "rain_mult": 0.011,
      "soil_mult": 0.8,
      "humidity_mult": 1.044,
      "raw_dynamic_score": 0.087,
      "dynamic_level": "Low"
    },
    {
      "id": "nan",
      "name": "Villahermosa, Mexico",
      "latitude": 17.949,
      "longitude": -92.888,
      "base_risk": 8.61,
      "rain_6h_mm": 0.0,
      "humidity_avg": 64.7,
      "soil_moisture_avg": 0.0,
      "temperature_avg": 26.1,
      "pressure_avg": 1014.1,
      "rain_mult": 0.0,
      "soil_mult": 0.8,
      "humidity_mult": 1.029,
      "raw_dynamic_score": 0.0,
      "dynamic_level": "None"
    },
    {
      "id": "nan",
      "name": "Bluefields, Nicaragua",
      "latitude": 11.986,
      "longitude": -83.784,
      "base_risk": 8.55,
      "rain_6h_mm": 0.2,
      "humidity_avg": 79.7,
      "soil_moisture_avg": 0.0,
      "temperature_avg": 26.8,
      "pressure_avg": 1011.3,
      "rain_mult": 0.002,
      "soil_mult": 0.8,
      "humidity_mult": 1.059,
      "raw_dynamic_score": 0.014,
      "dynamic_level": "Low"
    },
    {
      "id": "nan",
      "name": "La Ceiba, Honduras",
      "latitude": 15.812,
      "longitude": -86.752,
      "base_risk": 9.22,
      "rain_6h_mm": 0.1,
      "humidity_avg": 86.2,
      "soil_moisture_avg": 0.0,
      "temperature_avg": 26.3,
      "pressure_avg": 1015.5,
      "rain_mult": 0.001,
      "soil_mult": 0.8,
      "humidity_mult": 1.072,
      "raw_dynamic_score": 0.008,
      "dynamic_level": "Low"
    },
    {
      "id": "nan",
      "name": "Colón, Panama",
      "latitude": 9.299,
      "longitude": -79.861,
      "base_risk": 8.88,
      "rain_6h_mm": 10.1,
      "humidity_avg": 92.5,
      "soil_moisture_avg": 0.0,
      "temperature_avg": 25.7,
      "pressure_avg": 1008.0,
      "rain_mult": 0.101,
      "soil_mult": 0.8,
      "humidity_mult": 1.085,
      "raw_dynamic_score": 0.778,
      "dynamic_level": "Low"
    },
    {
      "id": "nan",
      "name": "Panama City, Panama",
      "latitude": 8.922,
      "longitude": -79.5,
      "base_risk": 8.72,
      "rain_6h_mm": 1.6,
      "humidity_avg": 92.7,
      "soil_moisture_avg": 0.0,
      "temperature_avg": 25.4,
      "pressure_avg": 1010.8,
      "rain_mult": 0.016,
      "soil_mult": 0.8,
      "humidity_mult": 1.085,
      "raw_dynamic_score": 0.121,
      "dynamic_level": "Low"
    },
    {
      "id": "nan",
      "name": "Limón, Costa Rica",
      "latitude": 10.03,
      "longitude": -83.036,
      "base_risk": 9.16,
      "rain_6h_mm": 7.7,
      "humidity_avg": 94.2,
      "soil_moisture_avg": 0.0,
      "temperature_avg": 23.4,
      "pressure_avg": 1013.0,
      "rain_mult": 0.077,
      "soil_mult": 0.8,
      "humidity_mult": 1.088,
      "raw_dynamic_score": 0.614,
      "dynamic_level": "Low"
    },
    {
      "id": "nan",
      "name": "Bocas del Toro, Panama",
      "latitude": 9.315,
      "longitude": -82.265,
      "base_risk": 9.05,
      "rain_6h_mm": 0.9,
      "humidity_avg": 93.7,
      "soil_moisture_avg": 0.0,
      "temperature_avg": 25.0,
      "pressure_avg": 1011.9,
      "rain_mult": 0.009,
      "soil_mult": 0.8,
      "humidity_mult": 1.087,
      "raw_dynamic_score": 0.071,
      "dynamic_level": "Low"
    },
    {
      "id": "nan",
      "name": "Puerto Barrios, Guatemala",
      "latitude": 15.733,
      "longitude": -88.64,
      "base_risk": 9.35,
      "rain_6h_mm": 0.0,
      "humidity_avg": 82.0,
      "soil_moisture_avg": 0.0,
      "temperature_avg": 23.5,
      "pressure_avg": 1014.8,
      "rain_mult": 0.0,
      "soil_mult": 0.8,
      "humidity_mult": 1.064,
      "raw_dynamic_score": 0.0,
      "dynamic_level": "None"
    },
    {
      "id": "nan",
      "name": "San Juan, Puerto Rico",
      "latitude": 18.486,
      "longitude": -66.146,
      "base_risk": 9.05,
      "rain_6h_mm": 0.0,
      "humidity_avg": 80.0,
      "soil_moisture_avg": 0.0,
      "temperature_avg": 28.0,
      "pressure_avg": 1014.3,
      "rain_mult": 0.0,
      "soil_mult": 0.8,
      "humidity_mult": 1.06,
      "raw_dynamic_score": 0.0,
      "dynamic_level": "None"
    },
    {
      "id": "nan",
      "name": "Santo Domingo, Dominican Republic",
      "latitude": 18.446,
      "longitude": -69.911,
      "base_risk": 8.96,
      "rain_6h_mm": 0.4,
      "humidity_avg": 88.3,
      "soil_moisture_avg": 0.0,
      "temperature_avg": 26.7,
      "pressure_avg": 1014.1,
      "rain_mult": 0.004,
      "soil_mult": 0.8,
      "humidity_mult": 1.077,
      "raw_dynamic_score": 0.031,
      "dynamic_level": "Low"
    },
    {
      "id": "nan",
      "name": "Fort-de-France, Martinique",
      "latitude": 14.676,
      "longitude": -61.058,
      "base_risk": 9.04,
      "rain_6h_mm": 0.0,
      "humidity_avg": 81.2,
      "soil_moisture_avg": 0.0,
      "temperature_avg": 25.1,
      "pressure_avg": 973.4,
      "rain_mult": 0.0,
      "soil_mult": 0.8,
      "humidity_mult": 1.062,
      "raw_dynamic_score": 0.0,
      "dynamic_level": "None"
    },
    {
      "id": "nan",
      "name": "Roseau, Dominica",
      "latitude": 15.361,
      "longitude": -61.368,
      "base_risk": 8.91,
      "rain_6h_mm": 0.0,
      "humidity_avg": 74.8,
      "soil_moisture_avg": 0.0,
      "temperature_avg": 24.8,
      "pressure_avg": 948.8,
      "rain_mult": 0.0,
      "soil_mult": 0.8,
      "humidity_mult": 1.05,
      "raw_dynamic_score": 0.0,
      "dynamic_level": "None"
    },
    {
      "id": "nan",
      "name": "Port of Spain, Trinidad and Tobago",
      "latitude": 10.621,
      "longitude": -61.558,
      "base_risk": 9.05,
      "rain_6h_mm": 0.0,
      "humidity_avg": 82.3,
      "soil_moisture_avg": 0.0,
      "temperature_avg": 27.6,
      "pressure_avg": 1012.5,
      "rain_mult": 0.0,
      "soil_mult": 0.8,
      "humidity_mult": 1.065,
      "raw_dynamic_score": 0.0,
      "dynamic_level": "None"
    },
    {
      "id": "nan",
      "name": "Georgetown, Guyana",
      "latitude": 6.821,
      "longitude": -58.115,
      "base_risk": 9.21,
      "rain_6h_mm": 0.0,
      "humidity_avg": 83.5,
      "soil_moisture_avg": 0.0,
      "temperature_avg": 27.0,
      "pressure_avg": 1012.0,
      "rain_mult": 0.0,
      "soil_mult": 0.8,
      "humidity_mult": 1.067,
      "raw_dynamic_score": 0.0,
      "dynamic_level": "None"
    },
    {
      "id": "nan",
      "name": "Quibdó, Colombia",
      "latitude": 5.672,
      "longitude": -76.654,
      "base_risk": 9.42,
      "rain_6h_mm": 13.8,
      "humidity_avg": 88.5,
      "soil_moisture_avg": 0.0,
      "temperature_avg": 26.2,
      "pressure_avg": 1005.2,
      "rain_mult": 0.138,
      "soil_mult": 0.8,
      "humidity_mult": 1.077,
      "raw_dynamic_score": 1.12,
      "dynamic_level": "Low"
    },
    {
      "id": "nan",
      "name": "Buenaventura, Colombia",
      "latitude": 3.917,
      "longitude": -77.048,
      "base_risk": 8.69,
      "rain_6h_mm": 7.3,
      "humidity_avg": 87.5,
      "soil_moisture_avg": 0.0,
      "temperature_avg": 26.0,
      "pressure_avg": 1008.7,
      "rain_mult": 0.073,
      "soil_mult": 0.8,
      "humidity_mult": 1.075,
      "raw_dynamic_score": 0.546,
      "dynamic_level": "Low"
    },
    {
      "id": "nan",
      "name": "Medellín, Colombia",
      "latitude": 6.184,
      "longitude": -75.539,
      "base_risk": 8.66,
      "rain_6h_mm": 0.0,
      "humidity_avg": 73.5,
      "soil_moisture_avg": 0.0,
      "temperature_avg": 17.2,
      "pressure_avg": 768.9,
      "rain_mult": 0.0,
      "soil_mult": 0.8,
      "humidity_mult": 1.047,
      "raw_dynamic_score": 0.0,
      "dynamic_level": "None"
    },
    {
      "id": "nan",
      "name": "Leticia, Colombia",
      "latitude": -4.275,
      "longitude": -69.899,
      "base_risk": 8.79,
      "rain_6h_mm": 0.0,
      "humidity_avg": 88.0,
      "soil_moisture_avg": 0.0,
      "temperature_avg": 26.4,
      "pressure_avg": 1001.4,
      "rain_mult": 0.0,
      "soil_mult": 0.8,
      "humidity_mult": 1.076,
      "raw_dynamic_score": 0.0,
      "dynamic_level": "None"
    },
    {
      "id": "nan",
      "name": "Iquitos, Peru",
      "latitude": -3.703,
      "longitude": -73.231,
      "base_risk": 9.22,
      "rain_6h_mm": 0.0,
      "humidity_avg": 79.0,
      "soil_moisture_avg": 0.0,
      "temperature_avg": 27.0,
      "pressure_avg": 1001.4,
      "rain_mult": 0.0,
      "soil_mult": 0.8,
      "humidity_mult": 1.058,
      "raw_dynamic_score": 0.0,
      "dynamic_level": "None"
    },
    {
      "id": "nan",
      "name": "Pucallpa, Peru",
      "latitude": -8.399,
      "longitude": -74.553,
      "base_risk": 9.46,
      "rain_6h_mm": 2.2,
      "humidity_avg": 84.8,
      "soil_moisture_avg": 0.0,
      "temperature_avg": 25.8,
      "pressure_avg": 993.0,
      "rain_mult": 0.022,
      "soil_mult": 0.8,
      "humidity_mult": 1.07,
      "raw_dynamic_score": 0.178,
      "dynamic_level": "Low"
    },
    {
      "id": "nan",
      "name": "Belém, Brazil",
      "latitude": -1.435,
      "longitude": -48.543,
      "base_risk": 8.88,
      "rain_6h_mm": 0.0,
      "humidity_avg": 79.7,
      "soil_moisture_avg": 0.0,
      "temperature_avg": 27.9,
      "pressure_avg": 1009.6,
      "rain_mult": 0.0,
      "soil_mult": 0.8,
      "humidity_mult": 1.059,
      "raw_dynamic_score": 0.0,
      "dynamic_level": "None"
    },
    {
      "id": "nan",
      "name": "Macapá, Brazil",
      "latitude": -0.006,
      "longitude": -51.11,
      "base_risk": 8.67,
      "rain_6h_mm": 0.0,
      "humidity_avg": 74.8,
      "soil_moisture_avg": 0.0,
      "temperature_avg": 28.0,
      "pressure_avg": 1010.7,
      "rain_mult": 0.0,
      "soil_mult": 0.8,
      "humidity_mult": 1.05,
      "raw_dynamic_score": 0.0,
      "dynamic_level": "None"
    },
    {
      "id": "nan",
      "name": "São Luís, Brazil",
      "latitude": -2.469,
      "longitude": -44.282,
      "base_risk": 9.39,
      "rain_6h_mm": 0.0,
      "humidity_avg": 80.5,
      "soil_moisture_avg": 0.0,
      "temperature_avg": 27.2,
      "pressure_avg": 1011.6,
      "rain_mult": 0.0,
      "soil_mult": 0.8,
      "humidity_mult": 1.061,
      "raw_dynamic_score": 0.0,
      "dynamic_level": "None"
    },
    {
      "id": "nan",
      "name": "Recife, Brazil",
      "latitude": -8.087,
      "longitude": -34.857,
      "base_risk": 9.11,
      "rain_6h_mm": 0.0,
      "humidity_avg": 81.8,
      "soil_moisture_avg": 0.0,
      "temperature_avg": 23.9,
      "pressure_avg": 1015.5,
      "rain_mult": 0.0,
      "soil_mult": 0.8,
      "humidity_mult": 1.064,
      "raw_dynamic_score": 0.0,
      "dynamic_level": "None"
    },
    {
      "id": "nan",
      "name": "Salvador, Brazil",
      "latitude": -12.957,
      "longitude": -38.541,
      "base_risk": 9.43,
      "rain_6h_mm": 0.0,
      "humidity_avg": 78.7,
      "soil_moisture_avg": 0.0,
      "temperature_avg": 25.4,
      "pressure_avg": 1015.8,
      "rain_mult": 0.0,
      "soil_mult": 0.8,
      "humidity_mult": 1.057,
      "raw_dynamic_score": 0.0,
      "dynamic_level": "None"
    },
    {
      "id": "nan",
      "name": "São Tomé, São Tomé and Príncipe",
      "latitude": 0.336,
      "longitude": 6.77,
      "base_risk": 9.38,
      "rain_6h_mm": 0.0,
      "humidity_avg": 88.0,
      "soil_moisture_avg": 0.0,
      "temperature_avg": 25.9,
      "pressure_avg": 1013.9,
      "rain_mult": 0.0,
      "soil_mult": 0.8,
      "humidity_mult": 1.076,
      "raw_dynamic_score": 0.0,
      "dynamic_level": "None"
    },
    {
      "id": "nan",
      "name": "Libreville, Gabon",
      "latitude": 0.396,
      "longitude": 9.447,
      "base_risk": 9.29,
      "rain_6h_mm": 2.1,
      "humidity_avg": 83.3,
      "soil_moisture_avg": 0.0,
      "temperature_avg": 27.0,
      "pressure_avg": 1009.6,
      "rain_mult": 0.021,
      "soil_mult": 0.8,
      "humidity_mult": 1.067,
      "raw_dynamic_score": 0.166,
      "dynamic_level": "Low"
    },
    {
      "id": "nan",
      "name": "Limbe, Cameroon",
      "latitude": 3.964,
      "longitude": 9.188,
      "base_risk": 9.01,
      "rain_6h_mm": 0.0,
      "humidity_avg": 92.5,
      "soil_moisture_avg": 0.0,
      "temperature_avg": 24.9,
      "pressure_avg": 1013.8,
      "rain_mult": 0.0,
      "soil_mult": 0.8,
      "humidity_mult": 1.085,
      "raw_dynamic_score": 0.0,
      "dynamic_level": "None"
    },
    {
      "id": "nan",
      "name": "Bata, Equatorial Guinea",
      "latitude": 1.803,
      "longitude": 9.805,
      "base_risk": 9.19,
      "rain_6h_mm": 0.0,
      "humidity_avg": 97.2,
      "soil_moisture_avg": 0.0,
      "temperature_avg": 26.6,
      "pressure_avg": 1011.3,
      "rain_mult": 0.0,
      "soil_mult": 0.8,
      "humidity_mult": 1.094,
      "raw_dynamic_score": 0.0,
      "dynamic_level": "None"
    },
    {
      "id": "nan",
      "name": "Malabo, Equatorial Guinea",
      "latitude": 3.79,
      "longitude": 8.823,
      "base_risk": 8.6,
      "rain_6h_mm": 0.1,
      "humidity_avg": 84.5,
      "soil_moisture_avg": 0.0,
      "temperature_avg": 27.4,
      "pressure_avg": 1013.2,
      "rain_mult": 0.001,
      "soil_mult": 0.8,
      "humidity_mult": 1.069,
      "raw_dynamic_score": 0.007,
      "dynamic_level": "Low"
    },
    {
      "id": "nan",
      "name": "Monrovia, Liberia",
      "latitude": 6.295,
      "longitude": -10.787,
      "base_risk": 9.28,
      "rain_6h_mm": 7.4,
      "humidity_avg": 85.3,
      "soil_moisture_avg": 0.0,
      "temperature_avg": 27.1,
      "pressure_avg": 1013.0,
      "rain_mult": 0.074,
      "soil_mult": 0.8,
      "humidity_mult": 1.071,
      "raw_dynamic_score": 0.588,
      "dynamic_level": "Low"
    },
    {
      "id": "nan",
      "name": "Freetown, Sierra Leone",
      "latitude": 8.465,
      "longitude": -13.231,
      "base_risk": 9.41,
      "rain_6h_mm": 2.3,
      "humidity_avg": 84.3,
      "soil_moisture_avg": 0.0,
      "temperature_avg": 26.5,
      "pressure_avg": 1000.9,
      "rain_mult": 0.023,
      "soil_mult": 0.8,
      "humidity_mult": 1.069,
      "raw_dynamic_score": 0.185,
      "dynamic_level": "Low"
    },
    {
      "id": "nan",
      "name": "Abidjan, Côte d’Ivoire",
      "latitude": 5.365,
      "longitude": -4.044,
      "base_risk": 8.57,
      "rain_6h_mm": 0.0,
      "humidity_avg": 90.3,
      "soil_moisture_avg": 0.0,
      "temperature_avg": 25.9,
      "pressure_avg": 1009.2,
      "rain_mult": 0.0,
      "soil_mult": 0.8,
      "humidity_mult": 1.081,
      "raw_dynamic_score": 0.0,
      "dynamic_level": "None"
    },
    {
      "id": "nan",
      "name": "Lagos, Nigeria",
      "latitude": 6.484,
      "longitude": 3.339,
      "base_risk": 9.4,
      "rain_6h_mm": 0.0,
      "humidity_avg": 91.7,
      "soil_moisture_avg": 0.0,
      "temperature_avg": 26.3,
      "pressure_avg": 1012.6,
      "rain_mult": 0.0,
      "soil_mult": 0.8,
      "humidity_mult": 1.083,
      "raw_dynamic_score": 0.0,
      "dynamic_level": "None"
    },
    {
      "id": "nan",
      "name": "Calabar, Nigeria",
      "latitude": 5.018,
      "longitude": 8.346,
      "base_risk": 9.42,
      "rain_6h_mm": 0.0,
      "humidity_avg": 95.8,
      "soil_moisture_avg": 0.0,
      "temperature_avg": 24.9,
      "pressure_avg": 1008.3,
      "rain_mult": 0.0,
      "soil_mult": 0.8,
      "humidity_mult": 1.092,
      "raw_dynamic_score": 0.0,
      "dynamic_level": "None"
    },
    {
      "id": "nan",
      "name": "Kisumu, Kenya",
      "latitude": -0.131,
      "longitude": 34.768,
      "base_risk": 8.56,
      "rain_6h_mm": 1.2,
      "humidity_avg": 83.7,
      "soil_moisture_avg": 0.0,
      "temperature_avg": 21.6,
      "pressure_avg": 890.2,
      "rain_mult": 0.012,
      "soil_mult": 0.8,
      "humidity_mult": 1.067,
      "raw_dynamic_score": 0.088,
      "dynamic_level": "Low"
    },
    {
      "id": "nan",
      "name": "Kampala, Uganda",
      "latitude": 0.367,
      "longitude": 32.602,
      "base_risk": 9.2,
      "rain_6h_mm": 0.0,
      "humidity_avg": 92.0,
      "soil_moisture_avg": 0.0,
      "temperature_avg": 19.6,
      "pressure_avg": 883.1,
      "rain_mult": 0.0,
      "soil_mult": 0.8,
      "humidity_mult": 1.084,
      "raw_dynamic_score": 0.0,
      "dynamic_level": "None"
    },
    {
      "id": "nan",
      "name": "Goma, DR Congo",
      "latitude": -1.679,
      "longitude": 29.182,
      "base_risk": 9.24,
      "rain_6h_mm": 0.1,
      "humidity_avg": 94.7,
      "soil_moisture_avg": 0.0,
      "temperature_avg": 13.5,
      "pressure_avg": 857.2,
      "rain_mult": 0.001,
      "soil_mult": 0.8,
      "humidity_mult": 1.089,
      "raw_dynamic_score": 0.008,
      "dynamic_level": "Low"
    },
    {
      "id": "nan",
      "name": "Bujumbura, Burundi",
      "latitude": -3.381,
      "longitude": 29.399,
      "base_risk": 9.31,
      "rain_6h_mm": 0.0,
      "humidity_avg": 85.5,
      "soil_moisture_avg": 0.0,
      "temperature_avg": 22.9,
      "pressure_avg": 908.8,
      "rain_mult": 0.0,
      "soil_mult": 0.8,
      "humidity_mult": 1.071,
      "raw_dynamic_score": 0.0,
      "dynamic_level": "None"
    },
    {
      "id": "nan",
      "name": "Toamasina, Madagascar",
      "latitude": -18.109,
      "longitude": 49.382,
      "base_risk": 8.54,
      "rain_6h_mm": 0.0,
      "humidity_avg": 96.5,
      "soil_moisture_avg": 0.0,
      "temperature_avg": 20.2,
      "pressure_avg": 1018.8,
      "rain_mult": 0.0,
      "soil_mult": 0.8,
      "humidity_mult": 1.093,
      "raw_dynamic_score": 0.0,
      "dynamic_level": "None"
    },
    {
      "id": "nan",
      "name": "Antalaha, Madagascar",
      "latitude": -14.96,
      "longitude": 50.28,
      "base_risk": 9.04,
      "rain_6h_mm": 0.0,
      "humidity_avg": 84.0,
      "soil_moisture_avg": 0.0,
      "temperature_avg": 20.5,
      "pressure_avg": 1007.4,
      "rain_mult": 0.0,
      "soil_mult": 0.8,
      "humidity_mult": 1.068,
      "raw_dynamic_score": 0.0,
      "dynamic_level": "None"
    },
    {
      "id": "nan",
      "name": "Moroni, Comoros",
      "latitude": -11.763,
      "longitude": 43.235,
      "base_risk": 9.24,
      "rain_6h_mm": 0.0,
      "humidity_avg": 91.7,
      "soil_moisture_avg": 0.0,
      "temperature_avg": 24.9,
      "pressure_avg": 1015.4,
      "rain_mult": 0.0,
      "soil_mult": 0.8,
      "humidity_mult": 1.083,
      "raw_dynamic_score": 0.0,
      "dynamic_level": "None"
    },
    {
      "id": "nan",
      "name": "Victoria, Seychelles",
      "latitude": -4.583,
      "longitude": 55.494,
      "base_risk": 8.82,
      "rain_6h_mm": 0.0,
      "humidity_avg": 84.2,
      "soil_moisture_avg": 0.0,
      "temperature_avg": 26.2,
      "pressure_avg": 1011.4,
      "rain_mult": 0.0,
      "soil_mult": 0.8,
      "humidity_mult": 1.068,
      "raw_dynamic_score": 0.0,
      "dynamic_level": "None"
    },
    {
      "id": "nan",
      "name": "Saint-Denis, Réunion",
      "latitude": -20.898,
      "longitude": 55.488,
      "base_risk": 9.15,
      "rain_6h_mm": 0.0,
      "humidity_avg": 67.7,
      "soil_moisture_avg": 0.0,
      "temperature_avg": 20.7,
      "pressure_avg": 1015.9,
      "rain_mult": 0.0,
      "soil_mult": 0.8,
      "humidity_mult": 1.035,
      "raw_dynamic_score": 0.0,
      "dynamic_level": "None"
    },
    {
      "id": "nan",
      "name": "Maputo, Mozambique",
      "latitude": -25.966,
      "longitude": 32.593,
      "base_risk": 9.42,
      "rain_6h_mm": 0.0,
      "humidity_avg": 94.5,
      "soil_moisture_avg": 0.0,
      "temperature_avg": 20.8,
      "pressure_avg": 1005.1,
      "rain_mult": 0.0,
      "soil_mult": 0.8,
      "humidity_mult": 1.089,
      "raw_dynamic_score": 0.0,
      "dynamic_level": "None"
    },
    {
      "id": "nan",
      "name": "Durban, South Africa",
      "latitude": -29.838,
      "longitude": 31.021,
      "base_risk": 9.24,
      "rain_6h_mm": 0.0,
      "humidity_avg": 87.5,
      "soil_moisture_avg": 0.0,
      "temperature_avg": 20.7,
      "pressure_avg": 1008.0,
      "rain_mult": 0.0,
      "soil_mult": 0.8,
      "humidity_mult": 1.075,
      "raw_dynamic_score": 0.0,
      "dynamic_level": "None"
    },
    {
      "id": "nan",
      "name": "Richards Bay, South Africa",
      "latitude": -28.823,
      "longitude": 32.018,
      "base_risk": 8.56,
      "rain_6h_mm": 0.0,
      "humidity_avg": 87.2,
      "soil_moisture_avg": 0.0,
      "temperature_avg": 22.2,
      "pressure_avg": 1008.6,
      "rain_mult": 0.0,
      "soil_mult": 0.8,
      "humidity_mult": 1.074,
      "raw_dynamic_score": 0.0,
      "dynamic_level": "None"
    },
    {
      "id": "nan",
      "name": "Bergen, Norway",
      "latitude": 60.452,
      "longitude": 5.284,
      "base_risk": 9.31,
      "rain_6h_mm": 1.0,
      "humidity_avg": 67.5,
      "soil_moisture_avg": 0.491,
      "temperature_avg": 11.8,
      "pressure_avg": 1000.8,
      "rain_mult": 0.01,
      "soil_mult": 1.291,
      "humidity_mult": 1.035,
      "raw_dynamic_score": 0.124,
      "dynamic_level": "Low"
    },
    {
      "id": "nan",
      "name": "Glasgow, Scotland",
      "latitude": 55.824,
      "longitude": -4.232,
      "base_risk": 8.91,
      "rain_6h_mm": 3.7,
      "humidity_avg": 85.2,
      "soil_moisture_avg": 0.8,
      "temperature_avg": 10.3,
      "pressure_avg": 982.1,
      "rain_mult": 0.037,
      "soil_mult": 1.6,
      "humidity_mult": 1.07,
      "raw_dynamic_score": 0.565,
      "dynamic_level": "Low"
    },
    {
      "id": "nan",
      "name": "Bilbao, Spain",
      "latitude": 43.283,
      "longitude": -2.935,
      "base_risk": 9.49,
      "rain_6h_mm": 0.0,
      "humidity_avg": 46.0,
      "soil_moisture_avg": 0.0,
      "temperature_avg": 22.0,
      "pressure_avg": 995.2,
      "rain_mult": 0.0,
      "soil_mult": 0.8,
      "humidity_mult": 0.992,
      "raw_dynamic_score": 0.0,
      "dynamic_level": "None"
    },
    {
      "id": "nan",
      "name": "Brest, France",
      "latitude": 48.39,
      "longitude": -4.466,
      "base_risk": 8.9,
      "rain_6h_mm": 5.5,
      "humidity_avg": 79.2,
      "soil_moisture_avg": 0.0,
      "temperature_avg": 14.7,
      "pressure_avg": 992.5,
      "rain_mult": 0.055,
      "soil_mult": 0.8,
      "humidity_mult": 1.058,
      "raw_dynamic_score": 0.414,
      "dynamic_level": "Low"
    },
    {
      "id": "nan",
      "name": "Keelung, Taiwan",
      "latitude": 25.108,
      "longitude": 121.7,
      "base_risk": 9.18,
      "rain_6h_mm": 0.0,
      "humidity_avg": 73.7,
      "soil_moisture_avg": 0.0,
      "temperature_avg": 21.8,
      "pressure_avg": 997.9,
      "rain_mult": 0.0,
      "soil_mult": 0.8,
      "humidity_mult": 1.047,
      "raw_dynamic_score": 0.0,
      "dynamic_level": "None"
    },
    {
      "id": "nan",
      "name": "Taipei, Taiwan",
      "latitude": 25.074,
      "longitude": 121.604,
      "base_risk": 9.37,
      "rain_6h_mm": 0.0,
      "humidity_avg": 70.3,
      "soil_moisture_avg": 0.0,
      "temperature_avg": 22.3,
      "pressure_avg": 1016.1,
      "rain_mult": 0.0,
      "soil_mult": 0.8,
      "humidity_mult": 1.041,
      "raw_dynamic_score": 0.0,
      "dynamic_level": "None"
    },
    {
      "id": "nan",
      "name": "Kagoshima, Japan",
      "latitude": 31.539,
      "longitude": 130.537,
      "base_risk": 9.19,
      "rain_6h_mm": 0.0,
      "humidity_avg": 60.0,
      "soil_moisture_avg": 0.0,
      "temperature_avg": 20.5,
      "pressure_avg": 1012.9,
      "rain_mult": 0.0,
      "soil_mult": 0.8,
      "humidity_mult": 1.02,
      "raw_dynamic_score": 0.0,
      "dynamic_level": "None"
    },
    {
      "id": "nan",
      "name": "Kōchi, Japan",
      "latitude": 33.499,
      "longitude": 133.531,
      "base_risk": 8.53,
      "rain_6h_mm": 0.0,
      "humidity_avg": 68.3,
      "soil_moisture_avg": 0.0,
      "temperature_avg": 16.9,
      "pressure_avg": 1005.6,
      "rain_mult": 0.0,
      "soil_mult": 0.8,
      "humidity_mult": 1.037,
      "raw_dynamic_score": 0.0,
      "dynamic_level": "None"
    },
    {
      "id": "nan",
      "name": "Yakushima (Miyanoura), Japan",
      "latitude": 30.427,
      "longitude": 130.631,
      "base_risk": 8.55,
      "rain_6h_mm": 0.0,
      "humidity_avg": 58.8,
      "soil_moisture_avg": 0.0,
      "temperature_avg": 22.9,
      "pressure_avg": 1014.0,
      "rain_mult": 0.0,
      "soil_mult": 0.8,
      "humidity_mult": 1.018,
      "raw_dynamic_score": 0.0,
      "dynamic_level": "None"
    },
    {
      "id": "nan",
      "name": "Rize, Türkiye",
      "latitude": 41.005,
      "longitude": 40.561,
      "base_risk": 9.34,
      "rain_6h_mm": 0.0,
      "humidity_avg": 54.3,
      "soil_moisture_avg": 0.0,
      "temperature_avg": 10.7,
      "pressure_avg": 991.8,
      "rain_mult": 0.0,
      "soil_mult": 0.8,
      "humidity_mult": 1.009,
      "raw_dynamic_score": 0.0,
      "dynamic_level": "None"
    },
    {
      "id": "nan",
      "name": "Salalah, Oman",
      "latitude": 17.019,
      "longitude": 54.132,
      "base_risk": 9.24,
      "rain_6h_mm": 0.0,
      "humidity_avg": 51.5,
      "soil_moisture_avg": 0.0,
      "temperature_avg": 24.8,
      "pressure_avg": 1011.3,
      "rain_mult": 0.0,
      "soil_mult": 0.8,
      "humidity_mult": 1.003,
      "raw_dynamic_score": 0.0,
      "dynamic_level": "None"
    },
    {
      "id": "nan",
      "name": "Mawsynram, India",
      "latitude": 25.317,
      "longitude": 91.602,
      "base_risk": 9.46,
      "rain_6h_mm": 6.7,
      "humidity_avg": 91.7,
      "soil_moisture_avg": 0.0,
      "temperature_avg": 15.8,
      "pressure_avg": 841.3,
      "rain_mult": 0.067,
      "soil_mult": 0.8,
      "humidity_mult": 1.083,
      "raw_dynamic_score": 0.549,
      "dynamic_level": "Low"
    },
    {
      "id": "nan",
      "name": "Cherrapunji, India",
      "latitude": 25.231,
      "longitude": 91.73,
      "base_risk": 9.05,
      "rain_6h_mm": 2.6,
      "humidity_avg": 84.3,
      "soil_moisture_avg": 0.0,
      "temperature_avg": 22.4,
      "pressure_avg": 889.5,
      "rain_mult": 0.026,
      "soil_mult": 0.8,
      "humidity_mult": 1.069,
      "raw_dynamic_score": 0.201,
      "dynamic_level": "Low"
    },
    {
      "id": "nan",
      "name": "Mumbai, India",
      "latitude": 19.136,
      "longitude": 72.858,
      "base_risk": 8.65,
      "rain_6h_mm": 0.1,
      "humidity_avg": 84.8,
      "soil_moisture_avg": 0.0,
      "temperature_avg": 27.1,
      "pressure_avg": 1007.4,
      "rain_mult": 0.001,
      "soil_mult": 0.8,
      "humidity_mult": 1.07,
      "raw_dynamic_score": 0.007,
      "dynamic_level": "Low"
    },
    {
      "id": "nan",
      "name": "Mangalore, India",
      "latitude": 12.974,
      "longitude": 74.816,
      "base_risk": 9.47,
      "rain_6h_mm": 0.0,
      "humidity_avg": 74.8,
      "soil_moisture_avg": 0.0,
      "temperature_avg": 27.9,
      "pressure_avg": 1009.7,
      "rain_mult": 0.0,
      "soil_mult": 0.8,
      "humidity_mult": 1.05,
      "raw_dynamic_score": 0.0,
      "dynamic_level": "None"
    },
    {
      "id": "nan",
      "name": "Kochi, India",
      "latitude": 9.891,
      "longitude": 76.227,
      "base_risk": 8.9,
      "rain_6h_mm": 0.0,
      "humidity_avg": 76.3,
      "soil_moisture_avg": 0.0,
      "temperature_avg": 28.1,
      "pressure_avg": 1012.0,
      "rain_mult": 0.0,
      "soil_mult": 0.8,
      "humidity_mult": 1.053,
      "raw_dynamic_score": 0.0,
      "dynamic_level": "None"
    },
    {
      "id": "nan",
      "name": "Thiruvananthapuram, India",
      "latitude": 8.544,
      "longitude": 76.956,
      "base_risk": 8.66,
      "rain_6h_mm": 0.0,
      "humidity_avg": 88.5,
      "soil_moisture_avg": 0.0,
      "temperature_avg": 25.5,
      "pressure_avg": 1008.4,
      "rain_mult": 0.0,
      "soil_mult": 0.8,
      "humidity_mult": 1.077,
      "raw_dynamic_score": 0.0,
      "dynamic_level": "None"
    },
    {
      "id": "nan",
      "name": "Sylhet, Bangladesh",
      "latitude": 24.874,
      "longitude": 91.888,
      "base_risk": 8.63,
      "rain_6h_mm": 0.9,
      "humidity_avg": 90.7,
      "soil_moisture_avg": 0.0,
      "temperature_avg": 24.9,
      "pressure_avg": 1008.3,
      "rain_mult": 0.009,
      "soil_mult": 0.8,
      "humidity_mult": 1.081,
      "raw_dynamic_score": 0.067,
      "dynamic_level": "Low"
    },
    {
      "id": "nan",
      "name": "Chattogram, Bangladesh",
      "latitude": 22.396,
      "longitude": 91.743,
      "base_risk": 9.25,
      "rain_6h_mm": 0.5,
      "humidity_avg": 87.0,
      "soil_moisture_avg": 0.0,
      "temperature_avg": 28.4,
      "pressure_avg": 1009.7,
      "rain_mult": 0.005,
      "soil_mult": 0.8,
      "humidity_mult": 1.074,
      "raw_dynamic_score": 0.04,
      "dynamic_level": "Low"
    },
    {
      "id": "nan",
      "name": "Cox's Bazar, Bangladesh",
      "latitude": 21.367,
      "longitude": 92.019,
      "base_risk": 9.25,
      "rain_6h_mm": 0.2,
      "humidity_avg": 85.0,
      "soil_moisture_avg": 0.0,
      "temperature_avg": 28.9,
      "pressure_avg": 1003.7,
      "rain_mult": 0.002,
      "soil_mult": 0.8,
      "humidity_mult": 1.07,
      "raw_dynamic_score": 0.016,
      "dynamic_level": "Low"
    },
    {
      "id": "nan",
      "name": "Yangon, Myanmar",
      "latitude": 16.806,
      "longitude": 96.175,
      "base_risk": 9.25,
      "rain_6h_mm": 6.7,
      "humidity_avg": 94.7,
      "soil_moisture_avg": 0.0,
      "temperature_avg": 26.5,
      "pressure_avg": 1007.9,
      "rain_mult": 0.067,
      "soil_mult": 0.8,
      "humidity_mult": 1.089,
      "raw_dynamic_score": 0.54,
      "dynamic_level": "Low"
    },
    {
      "id": "nan",
      "name": "Ho Chi Minh City, Vietnam",
      "latitude": 10.803,
      "longitude": 106.61,
      "base_risk": 8.8,
      "rain_6h_mm": 0.0,
      "humidity_avg": 89.2,
      "soil_moisture_avg": 0.0,
      "temperature_avg": 26.8,
      "pressure_avg": 1011.5,
      "rain_mult": 0.0,
      "soil_mult": 0.8,
      "humidity_mult": 1.078,
      "raw_dynamic_score": 0.0,
      "dynamic_level": "None"
    },
    {
      "id": "nan",
      "name": "Hue, Vietnam",
      "latitude": 16.463,
      "longitude": 107.63,
      "base_risk": 8.93,
      "rain_6h_mm": 3.5,
      "humidity_avg": 91.2,
      "soil_moisture_avg": 0.0,
      "temperature_avg": 26.0,
      "pressure_avg": 1014.3,
      "rain_mult": 0.035,
      "soil_mult": 0.8,
      "humidity_mult": 1.082,
      "raw_dynamic_score": 0.271,
      "dynamic_level": "Low"
    },
    {
      "id": "nan",
      "name": "Da Nang, Vietnam",
      "latitude": 16.074,
      "longitude": 108.243,
      "base_risk": 9.43,
      "rain_6h_mm": 3.3,
      "humidity_avg": 93.2,
      "soil_moisture_avg": 0.0,
      "temperature_avg": 24.3,
      "pressure_avg": 1014.8,
      "rain_mult": 0.033,
      "soil_mult": 0.8,
      "humidity_mult": 1.086,
      "raw_dynamic_score": 0.27,
      "dynamic_level": "Low"
    },
    {
      "id": "nan",
      "name": "Sihanoukville, Cambodia",
      "latitude": 10.585,
      "longitude": 103.542,
      "base_risk": 8.53,
      "rain_6h_mm": 11.8,
      "humidity_avg": 87.8,
      "soil_moisture_avg": 0.0,
      "temperature_avg": 27.0,
      "pressure_avg": 1011.9,
      "rain_mult": 0.118,
      "soil_mult": 0.8,
      "humidity_mult": 1.076,
      "raw_dynamic_score": 0.866,
      "dynamic_level": "Low"
    },
    {
      "id": "nan",
      "name": "Bangkok, Thailand",
      "latitude": 13.816,
      "longitude": 100.501,
      "base_risk": 8.78,
      "rain_6h_mm": 3.9,
      "humidity_avg": 93.8,
      "soil_moisture_avg": 0.0,
      "temperature_avg": 25.5,
      "pressure_avg": 1010.8,
      "rain_mult": 0.039,
      "soil_mult": 0.8,
      "humidity_mult": 1.088,
      "raw_dynamic_score": 0.298,
      "dynamic_level": "Low"
    },
    {
      "id": "nan",
      "name": "Chiang Mai, Thailand",
      "latitude": 18.848,
      "longitude": 98.966,
      "base_risk": 9.19,
      "rain_6h_mm": 12.4,
      "humidity_avg": 95.7,
      "soil_moisture_avg": 0.0,
      "temperature_avg": 22.0,
      "pressure_avg": 977.4,
      "rain_mult": 0.124,
      "soil_mult": 0.8,
      "humidity_mult": 1.091,
      "raw_dynamic_score": 0.995,
      "dynamic_level": "Low"
    },
    {
      "id": "nan",
      "name": "Vientiane, Laos",
      "latitude": 17.935,
      "longitude": 102.593,
      "base_risk": 8.55,
      "rain_6h_mm": 0.5,
      "humidity_avg": 81.3,
      "soil_moisture_avg": 0.0,
      "temperature_avg": 25.8,
      "pressure_avg": 994.4,
      "rain_mult": 0.005,
      "soil_mult": 0.8,
      "humidity_mult": 1.063,
      "raw_dynamic_score": 0.036,
      "dynamic_level": "Low"
    },
    {
      "id": "nan",
      "name": "Kuala Lumpur, Malaysia",
      "latitude": 3.159,
      "longitude": 101.646,
      "base_risk": 9.04,
      "rain_6h_mm": 0.8,
      "humidity_avg": 85.0,
      "soil_moisture_avg": 0.0,
      "temperature_avg": 26.9,
      "pressure_avg": 1001.5,
      "rain_mult": 0.008,
      "soil_mult": 0.8,
      "humidity_mult": 1.07,
      "raw_dynamic_score": 0.062,
      "dynamic_level": "Low"
    },
    {
      "id": "nan",
      "name": "Kota Kinabalu, Malaysia",
      "latitude": 5.96,
      "longitude": 116.073,
      "base_risk": 9.01,
      "rain_6h_mm": 0.0,
      "humidity_avg": 68.7,
      "soil_moisture_avg": 0.0,
      "temperature_avg": 28.4,
      "pressure_avg": 1009.5,
      "rain_mult": 0.0,
      "soil_mult": 0.8,
      "humidity_mult": 1.037,
      "raw_dynamic_score": 0.0,
      "dynamic_level": "None"
    },
    {
      "id": "nan",
      "name": "Singapore, Singapore",
      "latitude": 1.392,
      "longitude": 103.84,
      "base_risk": 9.06,
      "rain_6h_mm": 0.1,
      "humidity_avg": 81.3,
      "soil_moisture_avg": 0.0,
      "temperature_avg": 28.4,
      "pressure_avg": 1009.4,
      "rain_mult": 0.001,
      "soil_mult": 0.8,
      "humidity_mult": 1.063,
      "raw_dynamic_score": 0.008,
      "dynamic_level": "Low"
    },
    {
      "id": "nan",
      "name": "Jakarta, Indonesia",
      "latitude": -6.268,
      "longitude": 106.805,
      "base_risk": 8.98,
      "rain_6h_mm": 0.1,
      "humidity_avg": 83.2,
      "soil_moisture_avg": 0.0,
      "temperature_avg": 27.0,
      "pressure_avg": 1008.9,
      "rain_mult": 0.001,
      "soil_mult": 0.8,
      "humidity_mult": 1.066,
      "raw_dynamic_score": 0.008,
      "dynamic_level": "Low"
    },
    {
      "id": "nan",
      "name": "Bogor, Indonesia",
      "latitude": -6.655,
      "longitude": 106.857,
      "base_risk": 9.02,
      "rain_6h_mm": 0.0,
      "humidity_avg": 88.8,
      "soil_moisture_avg": 0.0,
      "temperature_avg": 23.3,
      "pressure_avg": 961.0,
      "rain_mult": 0.0,
      "soil_mult": 0.8,
      "humidity_mult": 1.078,
      "raw_dynamic_score": 0.0,
      "dynamic_level": "None"
    },
    {
      "id": "nan",
      "name": "Bandung, Indonesia",
      "latitude": -6.877,
      "longitude": 107.599,
      "base_risk": 9.08,
      "rain_6h_mm": 0.0,
      "humidity_avg": 86.7,
      "soil_moisture_avg": 0.0,
      "temperature_avg": 23.3,
      "pressure_avg": 923.5,
      "rain_mult": 0.0,
      "soil_mult": 0.8,
      "humidity_mult": 1.073,
      "raw_dynamic_score": 0.0,
      "dynamic_level": "None"
    },
    {
      "id": "nan",
      "name": "Lae, Papua New Guinea",
      "latitude": -6.753,
      "longitude": 146.983,
      "base_risk": 9.49,
      "rain_6h_mm": 2.9,
      "humidity_avg": 82.7,
      "soil_moisture_avg": 0.0,
      "temperature_avg": 27.4,
      "pressure_avg": 1013.4,
      "rain_mult": 0.029,
      "soil_mult": 0.8,
      "humidity_mult": 1.065,
      "raw_dynamic_score": 0.235,
      "dynamic_level": "Low"
    },
    {
      "id": "nan",
      "name": "Madang, Papua New Guinea",
      "latitude": -5.217,
      "longitude": 145.78,
      "base_risk": 9.47,
      "rain_6h_mm": 4.1,
      "humidity_avg": 84.0,
      "soil_moisture_avg": 0.0,
      "temperature_avg": 26.6,
      "pressure_avg": 1011.4,
      "rain_mult": 0.041,
      "soil_mult": 0.8,
      "humidity_mult": 1.068,
      "raw_dynamic_score": 0.332,
      "dynamic_level": "Low"
    },