{
  "timestamp": "2025-11-02T16:33:10.268297Z",
  "source": "Open-Meteo",
  "forecast_window_hours": 6,
  "features_evaluated": 358,
  "alerts": [
    {
      "id": "106.0",
      "name": "Navacerrada",
      "latitude": 40.70623067,
      "longitude": -3.972476814,
      "base_risk": 8.91,
      "rain_6h_mm": 0.0,
      "humidity_avg": 46.7,
      "soil_moisture_avg": 0.0,
      "temperature_avg": 10.9,
      "pressure_avg": 907.2,
      "rain_mult": 0.0,
      "soil_mult": 0.95,
      "humidity_mult": 1.023,
      "raw_dynamic_score": 0.0,
      "dynamic_level": "None"
    },
    {
      "id": "272.0",
      "name": "Anchuelo (Diseminado)",
      "latitude": 40.4843423,
      "longitude": -3.348244904,
      "base_risk": 8.54,
      "rain_6h_mm": 0.0,
      "humidity_avg": 43.2,
      "soil_moisture_avg": 0.0,
      "temperature_avg": 15.1,
      "pressure_avg": 954.9,
      "rain_mult": 0.0,
      "soil_mult": 0.95,
      "humidity_mult": 1.022,
      "raw_dynamic_score": 0.0,
      "dynamic_level": "None"
    },
    {
      "id": "286.0",
      "name": "Anchuelo",
      "latitude": 40.48490594,
      "longitude": -3.349909973,
      "base_risk": 8.53,
      "rain_6h_mm": 0.0,
      "humidity_avg": 43.2,
      "soil_moisture_avg": 0.0,
      "temperature_avg": 15.1,
      "pressure_avg": 955.2,
      "rain_mult": 0.0,
      "soil_mult": 0.95,
      "humidity_mult": 1.022,
      "raw_dynamic_score": 0.0,
      "dynamic_level": "None"
    },
    {
      "id": "393.0",
      "name": "Villar del Olmo",
      "latitude": 40.46859545,
      "longitude": -3.365054696,
      "base_risk": 8.68,
      "rain_6h_mm": 0.0,
      "humidity_avg": 44.2,
      "soil_moisture_avg": 0.0,
      "temperature_avg": 15.2,
      "pressure_avg": 955.6,
      "rain_mult": 0.0,
      "soil_mult": 0.95,
      "humidity_mult": 1.022,
      "raw_dynamic_score": 0.0,
      "dynamic_level": "None"
    },
    {
      "id": "423.0",
      "name": "Villar del Olmo",
      "latitude": 40.47371244,
      "longitude": -3.362564932,
      "base_risk": 8.64,
      "rain_6h_mm": 0.0,
      "humidity_avg": 43.2,
      "soil_moisture_avg": 0.0,
      "temperature_avg": 15.2,
      "pressure_avg": 955.4,
      "rain_mult": 0.0,
      "soil_mult": 0.95,
      "humidity_mult": 1.022,
      "raw_dynamic_score": 0.0,
      "dynamic_level": "None"
    },
    {
      "id": "440.0",
      "name": "Alcalá de Henares",
      "latitude": 40.48231362,
      "longitude": -3.347813178,
      "base_risk": 8.58,
      "rain_6h_mm": 0.0,
      "humidity_avg": 43.2,
      "soil_moisture_avg": 0.0,
      "temperature_avg": 15.2,
      "pressure_avg": 955.4,
      "rain_mult": 0.0,
      "soil_mult": 0.95,
      "humidity_mult": 1.022,
      "raw_dynamic_score": 0.0,
      "dynamic_level": "None"
    },
    {
      "id": "570.0",
      "name": "Hueros, Los",
      "latitude": 40.46925965,
      "longitude": -3.414580388,
      "base_risk": 8.82,
      "rain_6h_mm": 0.0,
      "humidity_avg": 46.8,
      "soil_moisture_avg": 0.0,
      "temperature_avg": 14.9,
      "pressure_avg": 956.4,
      "rain_mult": 0.0,
      "soil_mult": 0.95,
      "humidity_mult": 1.023,
      "raw_dynamic_score": 0.0,
      "dynamic_level": "None"
    },
    {
      "id": "597.0",
      "name": "Pezuela de las Torres (Diseminado)",
      "latitude": 40.46626403,
      "longitude": -3.363127297,
      "base_risk": 8.71,
      "rain_6h_mm": 0.0,
      "humidity_avg": 44.2,
      "soil_moisture_avg": 0.0,
      "temperature_avg": 15.2,
      "pressure_avg": 956.0,
      "rain_mult": 0.0,
      "soil_mult": 0.95,
      "humidity_mult": 1.022,
      "raw_dynamic_score": 0.0,
      "dynamic_level": "None"
    },
    {
      "id": "633.0",
      "name": "Alcalá de Henares",
      "latitude": 40.48151445,
      "longitude": -3.353867683,
      "base_risk": 8.6,
      "rain_6h_mm": 0.0,
      "humidity_avg": 43.2,
      "soil_moisture_avg": 0.0,
      "temperature_avg": 15.1,
      "pressure_avg": 954.5,
      "rain_mult": 0.0,
      "soil_mult": 0.95,
      "humidity_mult": 1.022,
      "raw_dynamic_score": 0.0,
      "dynamic_level": "None"
    },
    {
      "id": "841.0",
      "name": "Mirador de Baztán, El",
      "latitude": 40.46712332,
      "longitude": -3.416427827,
      "base_risk": 8.84,
      "rain_6h_mm": 0.0,
      "humidity_avg": 46.2,
      "soil_moisture_avg": 0.0,
      "temperature_avg": 15.1,
      "pressure_avg": 956.6,
      "rain_mult": 0.0,
      "soil_mult": 0.95,
      "humidity_mult": 1.023,
      "raw_dynamic_score": 0.0,
      "dynamic_level": "None"
    },
    {
      "id": "887.0",
      "name": "Alcalá de Henares",
      "latitude": 40.4707732,
      "longitude": -3.399751404,
      "base_risk": 8.64,
      "rain_6h_mm": 0.0,
      "humidity_avg": 43.2,
      "soil_moisture_avg": 0.0,
      "temperature_avg": 15.2,
      "pressure_avg": 956.6,
      "rain_mult": 0.0,
      "soil_mult": 0.95,
      "humidity_mult": 1.022,
      "raw_dynamic_score": 0.0,
      "dynamic_level": "None"
    },
    {
      "id": "888.0",
      "name": "Alcalá de Henares (Diseminado)",
      "latitude": 40.47350409,
      "longitude": -3.398522976,
      "base_risk": 8.51,
      "rain_6h_mm": 0.0,
      "humidity_avg": 43.2,
      "soil_moisture_avg": 0.0,
      "temperature_avg": 15.2,
      "pressure_avg": 955.8,
      "rain_mult": 0.0,
      "soil_mult": 0.95,
      "humidity_mult": 1.022,
      "raw_dynamic_score": 0.0,
      "dynamic_level": "None"
    },
    {
      "id": "1202.0",
      "name": "Alcalá de Henares",
      "latitude": 40.48653191,
      "longitude": -3.356520687,
      "base_risk": 8.51,
      "rain_6h_mm": 0.0,
      "humidity_avg": 43.2,
      "soil_moisture_avg": 0.0,
      "temperature_avg": 15.1,
      "pressure_avg": 953.8,
      "rain_mult": 0.0,
      "soil_mult": 0.95,
      "humidity_mult": 1.022,
      "raw_dynamic_score": 0.0,
      "dynamic_level": "None"
    },
    {
      "id": "1400.0",
      "name": "Cabanillas de la Sierra",
      "latitude": 40.74511268,
      "longitude": -3.784492436,
      "base_risk": 8.63,
      "rain_6h_mm": 0.0,
      "humidity_avg": 58.7,
      "soil_moisture_avg": 0.0,
      "temperature_avg": 12.4,
      "pressure_avg": 919.8,
      "rain_mult": 0.0,
      "soil_mult": 0.95,
      "humidity_mult": 1.029,
      "raw_dynamic_score": 0.0,
      "dynamic_level": "None"
    },
    {
      "id": "1403.0",
      "name": "Cabanillas de la Sierra (Diseminado)",
      "latitude": 40.74638068,
      "longitude": -3.784948459,
      "base_risk": 8.55,
      "rain_6h_mm": 0.0,
      "humidity_avg": 58.7,
      "soil_moisture_avg": 0.0,
      "temperature_avg": 12.4,
      "pressure_avg": 919.9,
      "rain_mult": 0.0,
      "soil_mult": 0.95,
      "humidity_mult": 1.029,
      "raw_dynamic_score": 0.0,
      "dynamic_level": "None"
    },
    {
      "id": "1930.0",
      "name": "San Lorenzo de El Escorial",
      "latitude": 40.63345925,
      "longitude": -4.013628043,
      "base_risk": 8.68,
      "rain_6h_mm": 0.0,
      "humidity_avg": 48.2,
      "soil_moisture_avg": 0.0,
      "temperature_avg": 12.7,
      "pressure_avg": 923.5,
      "rain_mult": 0.0,
      "soil_mult": 0.95,
      "humidity_mult": 1.024,
      "raw_dynamic_score": 0.0,
      "dynamic_level": "None"
    },
    {
      "id": "2342.0",
      "name": "Pinilla del Valle (Diseminado)",
      "latitude": 40.92636788,
      "longitude": -3.816429001,
      "base_risk": 8.6,
      "rain_6h_mm": 0.0,
      "humidity_avg": 57.8,
      "soil_moisture_avg": 0.0,
      "temperature_avg": 8.5,
      "pressure_avg": 899.4,
      "rain_mult": 0.0,
      "soil_mult": 0.95,
      "humidity_mult": 1.029,
      "raw_dynamic_score": 0.0,
      "dynamic_level": "None"
    },
    {
      "id": "2872.0",
      "name": "Fuenlabrada",
      "latitude": 40.26970406,
      "longitude": -3.744570169,
      "base_risk": 8.58,
      "rain_6h_mm": 0.0,
      "humidity_avg": 49.2,
      "soil_moisture_avg": 0.0,
      "temperature_avg": 14.6,
      "pressure_avg": 951.3,
      "rain_mult": 0.0,
      "soil_mult": 0.95,
      "humidity_mult": 1.025,
      "raw_dynamic_score": 0.0,
      "dynamic_level": "None"
    },
    {
      "id": "3264.0",
      "name": "Villamanrique de Tajo",
      "latitude": 40.06542324,
      "longitude": -3.239051792,
      "base_risk": 8.73,
      "rain_6h_mm": 0.0,
      "humidity_avg": 50.8,
      "soil_moisture_avg": 0.0,
      "temperature_avg": 15.4,
      "pressure_avg": 961.7,
      "rain_mult": 0.0,
      "soil_mult": 0.95,
      "humidity_mult": 1.025,
      "raw_dynamic_score": 0.0,
      "dynamic_level": "None"
    },
    {
      "id": "3267.0",
      "name": "Villamanrique de Tajo",
      "latitude": 40.06613293,
      "longitude": -3.240739722,
      "base_risk": 8.59,
      "rain_6h_mm": 0.0,
      "humidity_avg": 50.8,
      "soil_moisture_avg": 0.0,
      "temperature_avg": 15.4,
      "pressure_avg": 960.7,
      "rain_mult": 0.0,
      "soil_mult": 0.95,
      "humidity_mult": 1.025,
      "raw_dynamic_score": 0.0,
      "dynamic_level": "None"
    },
    {
      "id": "3855.0",
      "name": "Collado Villalba",
      "latitude": 40.6304307,
      "longitude": -4.009466412,
      "base_risk": 8.7,
      "rain_6h_mm": 0.0,
      "humidity_avg": 48.2,
      "soil_moisture_avg": 0.0,
      "temperature_avg": 12.7,
      "pressure_avg": 923.7,
      "rain_mult": 0.0,
      "soil_mult": 0.95,
      "humidity_mult": 1.024,
      "raw_dynamic_score": 0.0,
      "dynamic_level": "None"
    },
    {
      "id": "3923.0",
      "name": "Paracuellos de Jarama",
      "latitude": 40.63704358,
      "longitude": -4.013533941,
      "base_risk": 8.59,
      "rain_6h_mm": 0.0,
      "humidity_avg": 48.2,
      "soil_moisture_avg": 0.0,
      "temperature_avg": 12.7,
      "pressure_avg": 923.2,
      "rain_mult": 0.0,
      "soil_mult": 0.95,
      "humidity_mult": 1.024,
      "raw_dynamic_score": 0.0,
      "dynamic_level": "None"
    },
    {
      "id": "3998.0",
      "name": "Alalpardo",
      "latitude": 40.52902321,
      "longitude": -3.478394339,
      "base_risk": 8.55,
      "rain_6h_mm": 0.0,
      "humidity_avg": 49.0,
      "soil_moisture_avg": 0.0,
      "temperature_avg": 14.3,
      "pressure_avg": 946.9,
      "rain_mult": 0.0,
      "soil_mult": 0.95,
      "humidity_mult": 1.024,
      "raw_dynamic_score": 0.0,
      "dynamic_level": "None"
    },
    {
      "id": "4003.0",
      "name": "Sevilla la Nueva",
      "latitude": 40.52959268,
      "longitude": -3.478130434,
      "base_risk": 8.56,
      "rain_6h_mm": 0.0,
      "humidity_avg": 49.0,
      "soil_moisture_avg": 0.0,
      "temperature_avg": 14.3,
      "pressure_avg": 946.8,
      "rain_mult": 0.0,
      "soil_mult": 0.95,
      "humidity_mult": 1.024,
      "raw_dynamic_score": 0.0,
      "dynamic_level": "None"
    },
    {
      "id": "4059.0",
      "name": "Velilla de San Antonio (Diseminado)",
      "latitude": 40.36521887,
      "longitude": -3.494965112,
      "base_risk": 9.36,
      "rain_6h_mm": 0.0,
      "humidity_avg": 53.5,
      "soil_moisture_avg": 0.0,
      "temperature_avg": 15.6,
      "pressure_avg": 960.4,
      "rain_mult": 0.0,
      "soil_mult": 0.95,
      "humidity_mult": 1.027,
      "raw_dynamic_score": 0.0,
      "dynamic_level": "None"
    },
    {
      "id": "4067.0",
      "name": "Velilla de San Antonio (Diseminado)",
      "latitude": 40.36371003,
      "longitude": -3.484863858,
      "base_risk": 9.0,
      "rain_6h_mm": 0.0,
      "humidity_avg": 53.5,
      "soil_moisture_avg": 0.0,
      "temperature_avg": 15.5,
      "pressure_avg": 959.4,
      "rain_mult": 0.0,
      "soil_mult": 0.95,
      "humidity_mult": 1.027,
      "raw_dynamic_score": 0.0,
      "dynamic_level": "None"
    },
    {
      "id": "4068.0",
      "name": "Velilla de San Antonio (Diseminado)",
      "latitude": 40.36326683,
      "longitude": -3.484459945,
      "base_risk": 9.02,
      "rain_6h_mm": 0.0,
      "humidity_avg": 53.5,
      "soil_moisture_avg": 0.0,
      "temperature_avg": 15.6,
      "pressure_avg": 959.8,
      "rain_mult": 0.0,
      "soil_mult": 0.95,
      "humidity_mult": 1.027,
      "raw_dynamic_score": 0.0,
      "dynamic_level": "None"
    },
    {
      "id": "4105.0",
      "name": "Ajalvir",
      "latitude": 40.52990222,
      "longitude": -3.478534808,
      "base_risk": 8.54,
      "rain_6h_mm": 0.0,
      "humidity_avg": 49.0,
      "soil_moisture_avg": 0.0,
      "temperature_avg": 14.3,
      "pressure_avg": 946.5,
      "rain_mult": 0.0,
      "soil_mult": 0.95,
      "humidity_mult": 1.024,
      "raw_dynamic_score": 0.0,
      "dynamic_level": "None"
    },
    {
      "id": "4230.0",
      "name": "Velilla de San Antonio (Diseminado)",
      "latitude": 40.36461129,
      "longitude": -3.483144251,
      "base_risk": 8.89,
      "rain_6h_mm": 0.0,
      "humidity_avg": 53.5,
      "soil_moisture_avg": 0.0,
      "temperature_avg": 15.5,
      "pressure_avg": 958.7,
      "rain_mult": 0.0,
      "soil_mult": 0.95,
      "humidity_mult": 1.027,
      "raw_dynamic_score": 0.0,
      "dynamic_level": "None"
    },
    {
      "id": "4231.0",
      "name": "Velilla de San Antonio (Diseminado)",
      "latitude": 40.36530873,
      "longitude": -3.481920933,
      "base_risk": 8.83,
      "rain_6h_mm": 0.0,
      "humidity_avg": 53.5,
      "soil_moisture_avg": 0.0,
      "temperature_avg": 15.5,
      "pressure_avg": 959.2,
      "rain_mult": 0.0,
      "soil_mult": 0.95,
      "humidity_mult": 1.027,
      "raw_dynamic_score": 0.0,
      "dynamic_level": "None"
    },
    {
      "id": "4525.0",
      "name": "Patones de Arriba",
      "latitude": 40.85789754,
      "longitude": -3.486688637,
      "base_risk": 8.84,
      "rain_6h_mm": 0.0,
      "humidity_avg": 53.5,
      "soil_moisture_avg": 0.0,
      "temperature_avg": 12.1,
      "pressure_avg": 938.8,
      "rain_mult": 0.0,
      "soil_mult": 0.95,
      "humidity_mult": 1.027,
      "raw_dynamic_score": 0.0,
      "dynamic_level": "None"
    },
    {
      "id": "4527.0",
      "name": "Patones de Arriba (Diseminado)",
      "latitude": 40.85584319,
      "longitude": -3.481358042,
      "base_risk": 9.18,
      "rain_6h_mm": 0.0,
      "humidity_avg": 53.5,
      "soil_moisture_avg": 0.0,
      "temperature_avg": 12.3,
      "pressure_avg": 941.8,
      "rain_mult": 0.0,
      "soil_mult": 0.95,
      "humidity_mult": 1.027,
      "raw_dynamic_score": 0.0,
      "dynamic_level": "None"
    },
    {
      "id": "4562.0",
      "name": "Velilla de San Antonio (Diseminado)",
      "latitude": 40.36835633,
      "longitude": -3.490721456,
      "base_risk": 9.19,
      "rain_6h_mm": 0.0,
      "humidity_avg": 53.5,
      "soil_moisture_avg": 0.0,
      "temperature_avg": 15.6,
      "pressure_avg": 960.1,
      "rain_mult": 0.0,
      "soil_mult": 0.95,
      "humidity_mult": 1.027,
      "raw_dynamic_score": 0.0,
      "dynamic_level": "None"
    },
    {
      "id": "4900.0",
      "name": "Velilla de San Antonio",
      "latitude": 40.36690713,
      "longitude": -3.494886255,
      "base_risk": 9.35,
      "rain_6h_mm": 0.0,
      "humidity_avg": 53.5,
      "soil_moisture_avg": 0.0,
      "temperature_avg": 15.6,
      "pressure_avg": 960.0,
      "rain_mult": 0.0,
      "soil_mult": 0.95,
      "humidity_mult": 1.027,
      "raw_dynamic_score": 0.0,
      "dynamic_level": "None"
    },
    {
      "id": "4903.0",
      "name": "Velilla de San Antonio",
      "latitude": 40.36564851,
      "longitude": -3.482807868,
      "base_risk": 8.87,
      "rain_6h_mm": 0.0,
      "humidity_avg": 53.5,
      "soil_moisture_avg": 0.0,
      "temperature_avg": 15.5,
      "pressure_avg": 959.2,
      "rain_mult": 0.0,
      "soil_mult": 0.95,
      "humidity_mult": 1.027,
      "raw_dynamic_score": 0.0,
      "dynamic_level": "None"
    },
    {
      "id": "5097.0",
      "name": "Velilla de San Antonio",
      "latitude": 40.36726195,
      "longitude": -3.482431171,
      "base_risk": 8.83,
      "rain_6h_mm": 0.0,
      "humidity_avg": 53.5,
      "soil_moisture_avg": 0.0,
      "temperature_avg": 15.5,
      "pressure_avg": 959.1,
      "rain_mult": 0.0,
      "soil_mult": 0.95,
      "humidity_mult": 1.027,
      "raw_dynamic_score": 0.0,
      "dynamic_level": "None"
    },
    {
      "id": "5233.0",
      "name": "Negrales - Los Llanos, Los",
      "latitude": 40.63821532,
      "longitude": -4.019676549,
      "base_risk": 8.54,
      "rain_6h_mm": 0.0,
      "humidity_avg": 48.2,
      "soil_moisture_avg": 0.0,
      "temperature_avg": 12.7,
      "pressure_avg": 923.1,
      "rain_mult": 0.0,
      "soil_mult": 0.95,
      "humidity_mult": 1.024,
      "raw_dynamic_score": 0.0,
      "dynamic_level": "None"
    },
    {
      "id": "5342.0",
      "name": "Molinos, Los (Diseminado)",
      "latitude": 40.46735812,
      "longitude": -3.368085956,
      "base_risk": 8.66,
      "rain_6h_mm": 0.0,
      "humidity_avg": 44.2,
      "soil_moisture_avg": 0.0,
      "temperature_avg": 15.2,
      "pressure_avg": 955.9,
      "rain_mult": 0.0,
      "soil_mult": 0.95,
      "humidity_mult": 1.022,
      "raw_dynamic_score": 0.0,
      "dynamic_level": "None"
    },
    {
      "id": "5439.0",
      "name": "Alcalá de Henares (Diseminado)",
      "latitude": 40.46805229,
      "longitude": -3.366381211,
      "base_risk": 8.66,
      "rain_6h_mm": 0.0,
      "humidity_avg": 44.2,
      "soil_moisture_avg": 0.0,
      "temperature_avg": 15.2,
      "pressure_avg": 955.6,
      "rain_mult": 0.0,
      "soil_mult": 0.95,
      "humidity_mult": 1.022,
      "raw_dynamic_score": 0.0,
      "dynamic_level": "None"
    },
    {
      "id": "5637.0",
      "name": "Rozas de Madrid, Las",
      "latitude": 40.8177328,
      "longitude": -3.536314052,
      "base_risk": 8.7,
      "rain_6h_mm": 0.0,
      "humidity_avg": 52.0,
      "soil_moisture_avg": 0.0,
      "temperature_avg": 12.8,
      "pressure_avg": 941.3,
      "rain_mult": 0.0,
      "soil_mult": 0.95,
      "humidity_mult": 1.026,
      "raw_dynamic_score": 0.0,
      "dynamic_level": "None"
    },
    {
      "id": "6217.0",
      "name": "Torrelaguna (Diseminado)",
      "latitude": 40.82209286,
      "longitude": -3.535483086,
      "base_risk": 8.54,
      "rain_6h_mm": 0.0,
      "humidity_avg": 52.0,
      "soil_moisture_avg": 0.0,
      "temperature_avg": 12.7,
      "pressure_avg": 941.1,
      "rain_mult": 0.0,
      "soil_mult": 0.95,
      "humidity_mult": 1.026,
      "raw_dynamic_score": 0.0,
      "dynamic_level": "None"
    },
    {
      "id": "6226.0",
      "name": "Arganda del Rey",
      "latitude": 40.32107599,
      "longitude": -3.459751811,
      "base_risk": 8.52,
      "rain_6h_mm": 0.0,
      "humidity_avg": 55.3,
      "soil_moisture_avg": 0.0,
      "temperature_avg": 15.3,
      "pressure_avg": 958.9,
      "rain_mult": 0.0,
      "soil_mult": 0.95,
      "humidity_mult": 1.028,
      "raw_dynamic_score": 0.0,
      "dynamic_level": "None"
    },
    {
      "id": "6271.0",
      "name": "Cotorredondo",
      "latitude": 40.24827142,
      "longitude": -3.950183328,
      "base_risk": 8.56,
      "rain_6h_mm": 0.0,
      "humidity_avg": 50.0,
      "soil_moisture_avg": 0.0,
      "temperature_avg": 14.5,
      "pressure_avg": 959.1,
      "rain_mult": 0.0,
      "soil_mult": 0.95,
      "humidity_mult": 1.025,
      "raw_dynamic_score": 0.0,
      "dynamic_level": "None"
    },
    {
      "id": "6418.0",
      "name": "Negrales - Los Llanos, Los",
      "latitude": 40.63941197,
      "longitude": -4.018212016,
      "base_risk": 8.59,
      "rain_6h_mm": 0.0,
      "humidity_avg": 48.2,
      "soil_moisture_avg": 0.0,
      "temperature_avg": 12.7,
      "pressure_avg": 923.1,
      "rain_mult": 0.0,
      "soil_mult": 0.95,
      "humidity_mult": 1.024,
      "raw_dynamic_score": 0.0,
      "dynamic_level": "None"
    },
    {
      "id": "6541.0",
      "name": "Aranjuez",
      "latitude": 40.02900912,
      "longitude": -3.624651302,
      "base_risk": 8.98,
      "rain_6h_mm": 0.0,
      "humidity_avg": 47.3,
      "soil_moisture_avg": 0.0,
      "temperature_avg": 15.4,
      "pressure_avg": 966.0,
      "rain_mult": 0.0,
      "soil_mult": 0.95,
      "humidity_mult": 1.024,
      "raw_dynamic_score": 0.0,
      "dynamic_level": "None"
    },
    {
      "id": "6542.0",
      "name": "Meco",
      "latitude": 40.03231106,
      "longitude": -3.62339282,
      "base_risk": 9.07,
      "rain_6h_mm": 0.0,
      "humidity_avg": 48.7,
      "soil_moisture_avg": 0.0,
      "temperature_avg": 15.2,
      "pressure_avg": 966.5,
      "rain_mult": 0.0,
      "soil_mult": 0.95,
      "humidity_mult": 1.024,
      "raw_dynamic_score": 0.0,
      "dynamic_level": "None"
    },
    {
      "id": "6973.0",
      "name": "Daganzo de Arriba",
      "latitude": 40.53820961,
      "longitude": -3.456220095,
      "base_risk": 8.74,
      "rain_6h_mm": 0.0,
      "humidity_avg": 48.8,
      "soil_moisture_avg": 0.0,
      "temperature_avg": 14.0,
      "pressure_avg": 948.0,
      "rain_mult": 0.0,
      "soil_mult": 0.95,
      "humidity_mult": 1.024,
      "raw_dynamic_score": 0.0,
      "dynamic_level": "None"
    },
    {
      "id": "7019.0",
      "name": "Aranjuez",
      "latitude": 40.04122083,
      "longitude": -3.586864511,
      "base_risk": 9.07,
      "rain_6h_mm": 0.0,
      "humidity_avg": 47.5,
      "soil_moisture_avg": 0.0,
      "temperature_avg": 15.4,
      "pressure_avg": 965.8,
      "rain_mult": 0.0,
      "soil_mult": 0.95,
      "humidity_mult": 1.024,
      "raw_dynamic_score": 0.0,
      "dynamic_level": "None"
    },
    {
      "id": "7020.0",
      "name": "Aranjuez",
      "latitude": 40.0393903,
      "longitude": -3.606112056,
      "base_risk": 9.12,
      "rain_6h_mm": 0.0,
      "humidity_avg": 48.7,
      "soil_moisture_avg": 0.0,
      "temperature_avg": 15.2,
      "pressure_avg": 966.3,
      "rain_mult": 0.0,
      "soil_mult": 0.95,
      "humidity_mult": 1.024,
      "raw_dynamic_score": 0.0,
      "dynamic_level": "None"
    },
    {
      "id": "7021.0",
      "name": "Aranjuez",
      "latitude": 40.03635157,
      "longitude": -3.608531414,
      "base_risk": 9.08,
      "rain_6h_mm": 0.0,
      "humidity_avg": 48.7,
      "soil_moisture_avg": 0.0,
      "temperature_avg": 15.2,
      "pressure_avg": 965.9,
      "rain_mult": 0.0,
      "soil_mult": 0.95,
      "humidity_mult": 1.024,
      "raw_dynamic_score": 0.0,
      "dynamic_level": "None"
    },
    {
      "id": "7029.0",
      "name": "Aranjuez",
      "latitude": 40.03388726,
      "longitude": -3.604464125,
      "base_risk": 9.03,
      "rain_6h_mm": 0.0,
      "humidity_avg": 48.7,
      "soil_moisture_avg": 0.0,
      "temperature_avg": 15.2,
      "pressure_avg": 965.9,
      "rain_mult": 0.0,
      "soil_mult": 0.95,
      "humidity_mult": 1.024,
      "raw_dynamic_score": 0.0,
      "dynamic_level": "None"
    },
    {
      "id": "7030.0",
      "name": "Miraflores de la Sierra",
      "latitude": 40.03462197,
      "longitude": -3.60681123,
      "base_risk": 9.05,
      "rain_6h_mm": 0.0,
      "humidity_avg": 48.7,
      "soil_moisture_avg": 0.0,
      "temperature_avg": 15.2,
      "pressure_avg": 965.9,
      "rain_mult": 0.0,
      "soil_mult": 0.95,
      "humidity_mult": 1.024,
      "raw_dynamic_score": 0.0,
      "dynamic_level": "None"
    },
    {
      "id": "7075.0",
      "name": "Daganzo de Arriba",
      "latitude": 40.53673748,
      "longitude": -3.456174363,
      "base_risk": 8.78,
      "rain_6h_mm": 0.0,
      "humidity_avg": 48.8,
      "soil_moisture_avg": 0.0,
      "temperature_avg": 14.0,
      "pressure_avg": 948.5,
      "rain_mult": 0.0,
      "soil_mult": 0.95,
      "humidity_mult": 1.024,
      "raw_dynamic_score": 0.0,
      "dynamic_level": "None"
    },
    {
      "id": "7301.0",
      "name": "Aldea del Fresno (Diseminado)",
      "latitude": 40.32436914,
      "longitude": -4.196441854,
      "base_risk": 8.82,
      "rain_6h_mm": 0.0,
      "humidity_avg": 48.7,
      "soil_moisture_avg": 0.0,
      "temperature_avg": 15.1,
      "pressure_avg": 969.1,
      "rain_mult": 0.0,
      "soil_mult": 0.95,
      "humidity_mult": 1.024,
      "raw_dynamic_score": 0.0,
      "dynamic_level": "None"
    },
    {
      "id": "7768.0",
      "name": "Aranjuez",
      "latitude": 40.03492818,
      "longitude": -3.587512804,
      "base_risk": 8.8,
      "rain_6h_mm": 0.0,
      "humidity_avg": 47.5,
      "soil_moisture_avg": 0.0,
      "temperature_avg": 15.3,
      "pressure_avg": 965.0,
      "rain_mult": 0.0,
      "soil_mult": 0.95,
      "humidity_mult": 1.024,
      "raw_dynamic_score": 0.0,
      "dynamic_level": "None"
    },
    {
      "id": "7771.0",
      "name": "Aranjuez",
      "latitude": 40.03191225,
      "longitude": -3.599697978,
      "base_risk": 8.54,
      "rain_6h_mm": 0.0,
      "humidity_avg": 48.7,
      "soil_moisture_avg": 0.0,
      "temperature_avg": 15.1,
      "pressure_avg": 964.8,
      "rain_mult": 0.0,
      "soil_mult": 0.95,
      "humidity_mult": 1.024,
      "raw_dynamic_score": 0.0,
      "dynamic_level": "None"
    },
    {
      "id": "7861.0",
      "name": "Aranjuez",
      "latitude": 40.03587557,
      "longitude": -3.617226504,
      "base_risk": 9.08,
      "rain_6h_mm": 0.0,
      "humidity_avg": 48.7,
      "soil_moisture_avg": 0.0,
      "temperature_avg": 15.2,
      "pressure_avg": 966.2,
      "rain_mult": 0.0,
      "soil_mult": 0.95,
      "humidity_mult": 1.024,
      "raw_dynamic_score": 0.0,
      "dynamic_level": "None"
    },
    {
      "id": "7862.0",
      "name": "Berzosa, La",
      "latitude": 40.03474034,
      "longitude": -3.618327634,
      "base_risk": 9.04,
      "rain_6h_mm": 0.0,
      "humidity_avg": 48.7,
      "soil_moisture_avg": 0.0,
      "temperature_avg": 15.2,
      "pressure_avg": 965.9,
      "rain_mult": 0.0,
      "soil_mult": 0.95,
      "humidity_mult": 1.024,
      "raw_dynamic_score": 0.0,
      "dynamic_level": "None"
    },
    {
      "id": "8829.0",
      "name": "Daganzo de Arriba",
      "latitude": 40.54464703,
      "longitude": -3.45772691,
      "base_risk": 8.52,
      "rain_6h_mm": 0.0,
      "humidity_avg": 48.8,
      "soil_moisture_avg": 0.0,
      "temperature_avg": 14.0,
      "pressure_avg": 946.4,
      "rain_mult": 0.0,
      "soil_mult": 0.95,
      "humidity_mult": 1.024,
      "raw_dynamic_score": 0.0,
      "dynamic_level": "None"
    },
    {
      "id": "10745.0",
      "name": "Madrid",
      "latitude": 40.45440596,
      "longitude": -3.765855206,
      "base_risk": 8.59,
      "rain_6h_mm": 0.0,
      "humidity_avg": 47.0,
      "soil_moisture_avg": 0.0,
      "temperature_avg": 15.3,
      "pressure_avg": 951.5,
      "rain_mult": 0.0,
      "soil_mult": 0.95,
      "humidity_mult": 1.024,
      "raw_dynamic_score": 0.0,
      "dynamic_level": "None"
    },
    {
      "id": "10746.0",
      "name": "Madrid",
      "latitude": 40.4550349,
      "longitude": -3.760406846,
      "base_risk": 8.68,
      "rain_6h_mm": 0.0,
      "humidity_avg": 47.0,
      "soil_moisture_avg": 0.0,
      "temperature_avg": 15.3,
      "pressure_avg": 952.6,
      "rain_mult": 0.0,
      "soil_mult": 0.95,
      "humidity_mult": 1.024,
      "raw_dynamic_score": 0.0,
      "dynamic_level": "None"
    },
    {
      "id": "10749.0",
      "name": "Madrid",
      "latitude": 40.45326992,
      "longitude": -3.761411205,
      "base_risk": 8.52,
      "rain_6h_mm": 0.0,
      "humidity_avg": 47.0,
      "soil_moisture_avg": 0.0,
      "temperature_avg": 15.3,
      "pressure_avg": 952.3,
      "rain_mult": 0.0,
      "soil_mult": 0.95,
      "humidity_mult": 1.024,
      "raw_dynamic_score": 0.0,
      "dynamic_level": "None"
    },
    {
      "id": "13859.0",
      "name": "Fuenlabrada",
      "latitude": 40.54480431,
      "longitude": -3.455264648,
      "base_risk": 8.53,
      "rain_6h_mm": 0.0,
      "humidity_avg": 48.8,
      "soil_moisture_avg": 0.0,
      "temperature_avg": 14.0,
      "pressure_avg": 947.2,
      "rain_mult": 0.0,
      "soil_mult": 0.95,
      "humidity_mult": 1.024,
      "raw_dynamic_score": 0.0,
      "dynamic_level": "None"
    },
    {
      "id": "14692.0",
      "name": "Estación, La",
      "latitude": 40.63239499,
      "longitude": -4.012220327,
      "base_risk": 8.7,
      "rain_6h_mm": 0.0,
      "humidity_avg": 48.2,
      "soil_moisture_avg": 0.0,
      "temperature_avg": 12.7,
      "pressure_avg": 923.5,
      "rain_mult": 0.0,
      "soil_mult": 0.95,
      "humidity_mult": 1.024,
      "raw_dynamic_score": 0.0,
      "dynamic_level": "None"
    },
    {
      "id": "15169.0",
      "name": "Velilla de San Antonio",
      "latitude": 40.36492261,
      "longitude": -3.482603366,
      "base_risk": 8.84,
      "rain_6h_mm": 0.0,
      "humidity_avg": 53.5,
      "soil_moisture_avg": 0.0,
      "temperature_avg": 15.5,
      "pressure_avg": 958.7,
      "rain_mult": 0.0,
      "soil_mult": 0.95,
      "humidity_mult": 1.027,
      "raw_dynamic_score": 0.0,
      "dynamic_level": "None"
    },
    {
      "id": "15521.0",
      "name": "Vegas - Santa María, Las",
      "latitude": 40.70107159,
      "longitude": -3.929124771,
      "base_risk": 8.7,
      "rain_6h_mm": 0.0,
      "humidity_avg": 46.7,
      "soil_moisture_avg": 0.0,
      "temperature_avg": 11.4,
      "pressure_avg": 916.4,
      "rain_mult": 0.0,
      "soil_mult": 0.95,
      "humidity_mult": 1.023,
      "raw_dynamic_score": 0.0,
      "dynamic_level": "None"
    },
    {
      "id": "15860.0",
      "name": "Estación, La",
      "latitude": 40.63603127,
      "longitude": -4.01469132,
      "base_risk": 8.63,
      "rain_6h_mm": 0.0,
      "humidity_avg": 48.2,
      "soil_moisture_avg": 0.0,
      "temperature_avg": 12.7,
      "pressure_avg": 923.3,
      "rain_mult": 0.0,
      "soil_mult": 0.95,
      "humidity_mult": 1.024,
      "raw_dynamic_score": 0.0,
      "dynamic_level": "None"
    },
    {
      "id": "15862.0",
      "name": "Arroyomolinos (Diseminado)",
      "latitude": 40.63714491,
      "longitude": -4.017140266,
      "base_risk": 8.61,
      "rain_6h_mm": 0.0,
      "humidity_avg": 48.2,
      "soil_moisture_avg": 0.0,
      "temperature_avg": 12.6,
      "pressure_avg": 922.5,
      "rain_mult": 0.0,
      "soil_mult": 0.95,
      "humidity_mult": 1.024,
      "raw_dynamic_score": 0.0,
      "dynamic_level": "None"
    },
    {
      "id": "16046.0",
      "name": "Estación, La",
      "latitude": 40.63501547,
      "longitude": -4.013930415,
      "base_risk": 8.65,
      "rain_6h_mm": 0.0,
      "humidity_avg": 48.2,
      "soil_moisture_avg": 0.0,
      "temperature_avg": 12.7,
      "pressure_avg": 923.3,
      "rain_mult": 0.0,
      "soil_mult": 0.95,
      "humidity_mult": 1.024,
      "raw_dynamic_score": 0.0,
      "dynamic_level": "None"
    },
    {
      "id": "16060.0",
      "name": "Arroyomolinos",
      "latitude": 40.63384159,
      "longitude": -4.013777071,
      "base_risk": 8.68,
      "rain_6h_mm": 0.0,
      "humidity_avg": 48.2,
      "soil_moisture_avg": 0.0,
      "temperature_avg": 12.7,
      "pressure_avg": 923.5,
      "rain_mult": 0.0,
      "soil_mult": 0.95,
      "humidity_mult": 1.024,
      "raw_dynamic_score": 0.0,
      "dynamic_level": "None"
    },
    {
      "id": "16364.0",
      "name": "Madrid",
      "latitude": 40.13735064,
      "longitude": -3.573868547,
      "base_risk": 8.56,
      "rain_6h_mm": 0.0,
      "humidity_avg": 49.0,
      "soil_moisture_avg": 0.0,
      "temperature_avg": 15.4,
      "pressure_avg": 965.1,
      "rain_mult": 0.0,
      "soil_mult": 0.95,
      "humidity_mult": 1.024,
      "raw_dynamic_score": 0.0,
      "dynamic_level": "None"
    },
    {
      "id": "18722.0",
      "name": "Quintana",
      "latitude": 40.47001657,
      "longitude": -3.525564116,
      "base_risk": 8.55,
      "rain_6h_mm": 0.0,
      "humidity_avg": 49.0,
      "soil_moisture_avg": 0.0,
      "temperature_avg": 14.9,
      "pressure_avg": 957.5,
      "rain_mult": 0.0,
      "soil_mult": 0.95,
      "humidity_mult": 1.024,
      "raw_dynamic_score": 0.0,
      "dynamic_level": "None"
    },
    {
      "id": "18812.0",
      "name": "Quintana",
      "latitude": 40.46023339,
      "longitude": -3.528418149,
      "base_risk": 8.67,
      "rain_6h_mm": 0.0,
      "humidity_avg": 47.2,
      "soil_moisture_avg": 0.0,
      "temperature_avg": 15.2,
      "pressure_avg": 958.0,
      "rain_mult": 0.0,
      "soil_mult": 0.95,
      "humidity_mult": 1.024,
      "raw_dynamic_score": 0.0,
      "dynamic_level": "None"
    },
    {
      "id": "18813.0",
      "name": "Alcorcón",
      "latitude": 40.46031113,
      "longitude": -3.526844932,
      "base_risk": 8.6,
      "rain_6h_mm": 0.0,
      "humidity_avg": 47.2,
      "soil_moisture_avg": 0.0,
      "temperature_avg": 15.2,
      "pressure_avg": 957.9,
      "rain_mult": 0.0,
      "soil_mult": 0.95,
      "humidity_mult": 1.024,
      "raw_dynamic_score": 0.0,
      "dynamic_level": "None"
    },
    {
      "id": "21126.0",
      "name": "Torrejón de la Calzada (Diseminado)",
      "latitude": 40.27046564,
      "longitude": -3.749403704,
      "base_risk": 8.52,
      "rain_6h_mm": 0.0,
      "humidity_avg": 49.2,
      "soil_moisture_avg": 0.0,
      "temperature_avg": 14.6,
      "pressure_avg": 951.6,
      "rain_mult": 0.0,
      "soil_mult": 0.95,
      "humidity_mult": 1.025,
      "raw_dynamic_score": 0.0,
      "dynamic_level": "None"
    },
    {
      "id": "21153.0",
      "name": "Tres Cantos",
      "latitude": 40.06772459,
      "longitude": -3.615281189,
      "base_risk": 8.9,
      "rain_6h_mm": 0.0,
      "humidity_avg": 48.7,
      "soil_moisture_avg": 0.0,
      "temperature_avg": 15.2,
      "pressure_avg": 966.4,
      "rain_mult": 0.0,
      "soil_mult": 0.95,
      "humidity_mult": 1.024,
      "raw_dynamic_score": 0.0,
      "dynamic_level": "None"
    },
    {
      "id": "21265.0",
      "name": "Moralzarzal",
      "latitude": 40.70581613,
      "longitude": -3.979805777,
      "base_risk": 8.52,
      "rain_6h_mm": 0.0,
      "humidity_avg": 46.7,
      "soil_moisture_avg": 0.0,
      "temperature_avg": 10.8,
      "pressure_avg": 905.4,
      "rain_mult": 0.0,
      "soil_mult": 0.95,
      "humidity_mult": 1.023,
      "raw_dynamic_score": 0.0,
      "dynamic_level": "None"
    },
    {
      "id": "23106.0",
      "name": "Serna, La (Diseminado)",
      "latitude": 40.0342122,
      "longitude": -3.616444956,
      "base_risk": 9.07,
      "rain_6h_mm": 0.0,
      "humidity_avg": 48.7,
      "soil_moisture_avg": 0.0,
      "temperature_avg": 15.2,
      "pressure_avg": 966.2,
      "rain_mult": 0.0,
      "soil_mult": 0.95,
      "humidity_mult": 1.024,
      "raw_dynamic_score": 0.0,
      "dynamic_level": "None"
    },
    {
      "id": "24538.0",
      "name": "Collado Villalba",
      "latitude": 40.35572772,
      "longitude": -3.482298184,
      "base_risk": 9.36,
      "rain_6h_mm": 0.0,
      "humidity_avg": 53.5,
      "soil_moisture_avg": 0.0,
      "temperature_avg": 15.6,
      "pressure_avg": 960.8,
      "rain_mult": 0.0,
      "soil_mult": 0.95,
      "humidity_mult": 1.027,
      "raw_dynamic_score": 0.0,
      "dynamic_level": "None"
    },
    {
      "id": "24603.0",
      "name": "Velilla de San Antonio (Diseminado)",
      "latitude": 40.35151292,
      "longitude": -3.4804869,
      "base_risk": 9.36,
      "rain_6h_mm": 0.0,
      "humidity_avg": 53.5,
      "soil_moisture_avg": 0.0,
      "temperature_avg": 15.6,
      "pressure_avg": 960.6,
      "rain_mult": 0.0,
      "soil_mult": 0.95,
      "humidity_mult": 1.027,
      "raw_dynamic_score": 0.0,
      "dynamic_level": "None"
    },
    {
      "id": "25738.0",
      "name": "Quintana",
      "latitude": 40.47422992,
      "longitude": -3.531955357,
      "base_risk": 8.53,
      "rain_6h_mm": 0.0,
      "humidity_avg": 46.8,
      "soil_moisture_avg": 0.0,
      "temperature_avg": 15.1,
      "pressure_avg": 957.6,
      "rain_mult": 0.0,
      "soil_mult": 0.95,
      "humidity_mult": 1.023,
      "raw_dynamic_score": 0.0,
      "dynamic_level": "None"
    },
    {
      "id": "25739.0",
      "name": "Fresno de Torote (Diseminado)",
      "latitude": 40.47115819,
      "longitude": -3.529394311,
      "base_risk": 8.55,
      "rain_6h_mm": 0.0,
      "humidity_avg": 49.0,
      "soil_moisture_avg": 0.0,
      "temperature_avg": 14.9,
      "pressure_avg": 957.6,
      "rain_mult": 0.0,
      "soil_mult": 0.95,
      "humidity_mult": 1.024,
      "raw_dynamic_score": 0.0,
      "dynamic_level": "None"
    },
    {
      "id": "25812.0",
      "name": "Madrid",
      "latitude": 40.47018677,
      "longitude": -3.528635872,
      "base_risk": 8.57,
      "rain_6h_mm": 0.0,
      "humidity_avg": 49.0,
      "soil_moisture_avg": 0.0,
      "temperature_avg": 14.9,
      "pressure_avg": 957.7,
      "rain_mult": 0.0,
      "soil_mult": 0.95,
      "humidity_mult": 1.024,
      "raw_dynamic_score": 0.0,
      "dynamic_level": "None"
    },
    {
      "id": "25816.0",
      "name": "San Sebastián de los Reyes (Diseminado)",
      "latitude": 40.53694887,
      "longitude": -3.554980564,
      "base_risk": 8.71,
      "rain_6h_mm": 0.0,
      "humidity_avg": 50.8,
      "soil_moisture_avg": 0.0,
      "temperature_avg": 14.2,
      "pressure_avg": 956.0,
      "rain_mult": 0.0,
      "soil_mult": 0.95,
      "humidity_mult": 1.025,
      "raw_dynamic_score": 0.0,
      "dynamic_level": "None"
    },
    {
      "id": "25994.0",
      "name": "Villanueva de Perales",
      "latitude": 40.5317529,
      "longitude": -3.55582203,
      "base_risk": 8.71,
      "rain_6h_mm": 0.0,
      "humidity_avg": 50.8,
      "soil_moisture_avg": 0.0,
      "temperature_avg": 14.2,
      "pressure_avg": 955.7,
      "rain_mult": 0.0,
      "soil_mult": 0.95,
      "humidity_mult": 1.025,
      "raw_dynamic_score": 0.0,
      "dynamic_level": "None"
    },
    {
      "id": "26041.0",
      "name": "Valle del Río",
      "latitude": 40.63119475,
      "longitude": -3.398294824,
      "base_risk": 8.51,
      "rain_6h_mm": 0.0,
      "humidity_avg": 48.0,
      "soil_moisture_avg": 0.0,
      "temperature_avg": 13.4,
      "pressure_avg": 942.4,
      "rain_mult": 0.0,
      "soil_mult": 0.95,
      "humidity_mult": 1.024,
      "raw_dynamic_score": 0.0,
      "dynamic_level": "None"
    },
    {
      "id": "27060.0",
      "name": "Espinillos (Diseminado)",
      "latitude": 40.47122142,
      "longitude": -3.530486695,
      "base_risk": 8.51,
      "rain_6h_mm": 0.0,
      "humidity_avg": 49.0,
      "soil_moisture_avg": 0.0,
      "temperature_avg": 14.9,
      "pressure_avg": 957.6,
      "rain_mult": 0.0,
      "soil_mult": 0.95,
      "humidity_mult": 1.024,
      "raw_dynamic_score": 0.0,
      "dynamic_level": "None"
    },
    {
      "id": "27840.0",
      "name": "Castellanas, Las (Diseminado)",
      "latitude": 40.63170987,
      "longitude": -3.396786174,
      "base_risk": 8.51,
      "rain_6h_mm": 0.0,
      "humidity_avg": 48.0,
      "soil_moisture_avg": 0.0,
      "temperature_avg": 13.4,
      "pressure_avg": 942.3,
      "rain_mult": 0.0,
      "soil_mult": 0.95,
      "humidity_mult": 1.024,
      "raw_dynamic_score": 0.0,
      "dynamic_level": "None"
    },
    {
      "id": "27927.0",
      "name": "Madrid",
      "latitude": 40.45947113,
      "longitude": -3.526053892,
      "base_risk": 8.6,
      "rain_6h_mm": 0.0,
      "humidity_avg": 47.2,
      "soil_moisture_avg": 0.0,
      "temperature_avg": 15.2,
      "pressure_avg": 958.0,
      "rain_mult": 0.0,
      "soil_mult": 0.95,
      "humidity_mult": 1.024,
      "raw_dynamic_score": 0.0,
      "dynamic_level": "None"
    },
    {
      "id": "28321.0",
      "name": "Viveros (Diseminado)",
      "latitude": 40.45063835,
      "longitude": -3.523578512,
      "base_risk": 8.59,
      "rain_6h_mm": 0.0,
      "humidity_avg": 47.2,
      "soil_moisture_avg": 0.0,
      "temperature_avg": 15.2,
      "pressure_avg": 957.6,
      "rain_mult": 0.0,
      "soil_mult": 0.95,
      "humidity_mult": 1.024,
      "raw_dynamic_score": 0.0,
      "dynamic_level": "None"
    },
    {
      "id": "32547.0",
      "name": "Bosque, El",
      "latitude": 40.38537243,
      "longitude": -3.94660677,
      "base_risk": 8.65,
      "rain_6h_mm": 0.0,
      "humidity_avg": 49.3,
      "soil_moisture_avg": 0.0,
      "temperature_avg": 14.8,
      "pressure_avg": 956.2,
      "rain_mult": 0.0,
      "soil_mult": 0.95,
      "humidity_mult": 1.025,
      "raw_dynamic_score": 0.0,
      "dynamic_level": "None"
    },
    {
      "id": "36497.0",
      "name": "Álamo, El (Diseminado)",
      "latitude": 40.53748944,
      "longitude": -3.604215078,
      "base_risk": 8.63,
      "rain_6h_mm": 0.0,
      "humidity_avg": 48.8,
      "soil_moisture_avg": 0.0,
      "temperature_avg": 14.3,
      "pressure_avg": 951.6,
      "rain_mult": 0.0,
      "soil_mult": 0.95,
      "humidity_mult": 1.024,
      "raw_dynamic_score": 0.0,
      "dynamic_level": "None"
    },
    {
      "id": "38623.0",
      "name": "Patones de Abajo",
      "latitude": 40.85668067,
      "longitude": -3.483940056,
      "base_risk": 9.1,
      "rain_6h_mm": 0.0,
      "humidity_avg": 53.5,
      "soil_moisture_avg": 0.0,
      "temperature_avg": 12.2,
      "pressure_avg": 941.1,
      "rain_mult": 0.0,
      "soil_mult": 0.95,
      "humidity_mult": 1.027,
      "raw_dynamic_score": 0.0,
      "dynamic_level": "None"
    },
    {
      "id": "38626.0",
      "name": "Ribatejada",
      "latitude": 40.85685184,
      "longitude": -3.482945368,
      "base_risk": 9.11,
      "rain_6h_mm": 0.0,
      "humidity_avg": 53.5,
      "soil_moisture_avg": 0.0,
      "temperature_avg": 12.2,
      "pressure_avg": 941.3,
      "rain_mult": 0.0,
      "soil_mult": 0.95,
      "humidity_mult": 1.027,
      "raw_dynamic_score": 0.0,
      "dynamic_level": "None"
    },
    {
      "id": "38707.0",
      "name": "Patones de Abajo",
      "latitude": 40.8541403,
      "longitude": -3.485261663,
      "base_risk": 9.13,
      "rain_6h_mm": 0.0,
      "humidity_avg": 53.5,
      "soil_moisture_avg": 0.0,
      "temperature_avg": 12.2,
      "pressure_avg": 941.5,
      "rain_mult": 0.0,
      "soil_mult": 0.95,
      "humidity_mult": 1.027,
      "raw_dynamic_score": 0.0,
      "dynamic_level": "None"
    },
    {
      "id": "42803.0",
      "name": "Praonal, El (Diseminado)",
      "latitude": 40.29251969,
      "longitude": -3.676266649,
      "base_risk": 8.94,
      "rain_6h_mm": 0.0,
      "humidity_avg": 45.5,
      "soil_moisture_avg": 0.0,
      "temperature_avg": 15.3,
      "pressure_avg": 955.1,
      "rain_mult": 0.0,
      "soil_mult": 0.95,
      "humidity_mult": 1.023,
      "raw_dynamic_score": 0.0,
      "dynamic_level": "None"
    },
    {
      "id": "44863.0",
      "name": "Pozuelo de Alarcón (Diseminado)",
      "latitude": 40.53557096,
      "longitude": -3.380200601,
      "base_risk": 8.54,
      "rain_6h_mm": 0.0,
      "humidity_avg": 47.0,
      "soil_moisture_avg": 0.0,
      "temperature_avg": 14.2,
      "pressure_avg": 950.9,
      "rain_mult": 0.0,
      "soil_mult": 0.95,
      "humidity_mult": 1.024,
      "raw_dynamic_score": 0.0,
      "dynamic_level": "None"
    },
    {
      "id": "44927.0",
      "name": "Butarque (Diseminado)",
      "latitude": 40.35073165,
      "longitude": -3.747308193,
      "base_risk": 8.69,
      "rain_6h_mm": 0.0,
      "humidity_avg": 44.0,
      "soil_moisture_avg": 0.0,
      "temperature_avg": 15.4,
      "pressure_avg": 951.7,
      "rain_mult": 0.0,
      "soil_mult": 0.95,
      "humidity_mult": 1.022,
      "raw_dynamic_score": 0.0,
      "dynamic_level": "None"
    },
    {
      "id": "nan",
      "name": "Da Nang, Vietnam",
      "latitude": 16.0544,
      "longitude": 108.2022,
      "base_risk": 9.1,
      "rain_6h_mm": 58.0,
      "humidity_avg": 95.5,
      "soil_moisture_avg": 0.0,
      "temperature_avg": 24.7,
      "pressure_avg": 1009.7,
      "rain_mult": 0.58,
      "soil_mult": 0.95,
      "humidity_mult": 1.048,
      "raw_dynamic_score": 5.254,
      "dynamic_level": "Medium"
    },
    {
      "id": "nan",
      "name": "Catarman, Philippines",
      "latitude": 12.4989,
      "longitude": 124.6377,
      "base_risk": 9.2,
      "rain_6h_mm": 1.1,
      "humidity_avg": 92.3,
      "soil_moisture_avg": 0.0,
      "temperature_avg": 26.0,
      "pressure_avg": 1008.4,
      "rain_mult": 0.011,
      "soil_mult": 0.95,
      "humidity_mult": 1.046,
      "raw_dynamic_score": 0.101,
      "dynamic_level": "Low"
    },
    {
      "id": "nan",
      "name": "Mawsynram, India",
      "latitude": 25.237,
      "longitude": 91.542,
      "base_risk": 8.99,
      "rain_6h_mm": 0.0,
      "humidity_avg": 85.5,
      "soil_moisture_avg": 0.0,
      "temperature_avg": 20.6,
      "pressure_avg": 924.9,
      "rain_mult": 0.0,
      "soil_mult": 0.95,
      "humidity_mult": 1.043,
      "raw_dynamic_score": 0.0,
      "dynamic_level": "None"
    },
    {
      "id": "nan",
      "name": "Mumbai, India",
      "latitude": 19.056,
      "longitude": 72.878,
      "base_risk": 9.42,
      "rain_6h_mm": 1.5,
      "humidity_avg": 87.5,
      "soil_moisture_avg": 0.0,
      "temperature_avg": 26.7,
      "pressure_avg": 1012.7,
      "rain_mult": 0.015,
      "soil_mult": 0.95,
      "humidity_mult": 1.044,
      "raw_dynamic_score": 0.14,
      "dynamic_level": "Low"
    },
    {
      "id": "nan",
      "name": "Mangalore, India",
      "latitude": 12.914,
      "longitude": 74.876,
      "base_risk": 8.91,
      "rain_6h_mm": 0.0,
      "humidity_avg": 80.2,
      "soil_moisture_avg": 0.0,
      "temperature_avg": 27.2,
      "pressure_avg": 1009.5,
      "rain_mult": 0.0,
      "soil_mult": 0.95,
      "humidity_mult": 1.04,
      "raw_dynamic_score": 0.0,
      "dynamic_level": "None"
    },
    {
      "id": "nan",
      "name": "Kochi, India",
      "latitude": 9.951,
      "longitude": 76.227,
      "base_risk": 9.23,
      "rain_6h_mm": 0.0,
      "humidity_avg": 71.0,
      "soil_moisture_avg": 0.0,
      "temperature_avg": 28.9,
      "pressure_avg": 1013.4,
      "rain_mult": 0.0,
      "soil_mult": 0.95,
      "humidity_mult": 1.036,
      "raw_dynamic_score": 0.0,
      "dynamic_level": "None"
    },
    {
      "id": "nan",
      "name": "Thiruvananthapuram, India",
      "latitude": 8.484,
      "longitude": 76.976,
      "base_risk": 9.12,
      "rain_6h_mm": 0.0,
      "humidity_avg": 78.8,
      "soil_moisture_avg": 0.0,
      "temperature_avg": 26.0,
      "pressure_avg": 1009.7,
      "rain_mult": 0.0,
      "soil_mult": 0.95,
      "humidity_mult": 1.039,
      "raw_dynamic_score": 0.0,
      "dynamic_level": "None"
    },
    {
      "id": "nan",
      "name": "Kolkata, India",
      "latitude": 22.632,
      "longitude": 88.344,
      "base_risk": 8.64,
      "rain_6h_mm": 0.0,
      "humidity_avg": 90.0,
      "soil_moisture_avg": 0.0,
      "temperature_avg": 24.6,
      "pressure_avg": 1008.5,
      "rain_mult": 0.0,
      "soil_mult": 0.95,
      "humidity_mult": 1.045,
      "raw_dynamic_score": 0.0,
      "dynamic_level": "None"
    },
    {
      "id": "nan",
      "name": "Sylhet, Bangladesh",
      "latitude": 24.954,
      "longitude": 91.868,
      "base_risk": 8.76,
      "rain_6h_mm": 0.1,
      "humidity_avg": 95.5,
      "soil_moisture_avg": 0.0,
      "temperature_avg": 24.5,
      "pressure_avg": 1006.5,
      "rain_mult": 0.001,
      "soil_mult": 0.95,
      "humidity_mult": 1.048,
      "raw_dynamic_score": 0.009,
      "dynamic_level": "Low"
    },
    {
      "id": "nan",
      "name": "Cox's Bazar, Bangladesh",
      "latitude": 21.447,
      "longitude": 92.019,
      "base_risk": 9.02,
      "rain_6h_mm": 0.7,
      "humidity_avg": 89.5,
      "soil_moisture_avg": 0.0,
      "temperature_avg": 27.3,
      "pressure_avg": 1007.8,
      "rain_mult": 0.007,
      "soil_mult": 0.95,
      "humidity_mult": 1.045,
      "raw_dynamic_score": 0.063,
      "dynamic_level": "Low"
    },
    {
      "id": "nan",
      "name": "Yangon, Myanmar",
      "latitude": 16.866,
      "longitude": 96.235,
      "base_risk": 9.29,
      "rain_6h_mm": 9.6,
      "humidity_avg": 96.5,
      "soil_moisture_avg": 0.0,
      "temperature_avg": 25.4,
      "pressure_avg": 1007.1,
      "rain_mult": 0.096,
      "soil_mult": 0.95,
      "humidity_mult": 1.048,
      "raw_dynamic_score": 0.888,
      "dynamic_level": "Low"
    },
    {
      "id": "nan",
      "name": "Dawei, Myanmar",
      "latitude": 14.062,
      "longitude": 98.214,
      "base_risk": 8.71,
      "rain_6h_mm": 5.6,
      "humidity_avg": 96.5,
      "soil_moisture_avg": 0.0,
      "temperature_avg": 24.7,
      "pressure_avg": 1010.3,
      "rain_mult": 0.056,
      "soil_mult": 0.95,
      "humidity_mult": 1.048,
      "raw_dynamic_score": 0.486,
      "dynamic_level": "Low"
    },
    {
      "id": "nan",
      "name": "Ho Chi Minh City, Vietnam",
      "latitude": 10.863,
      "longitude": 106.63,
      "base_risk": 8.63,
      "rain_6h_mm": 1.1,
      "humidity_avg": 93.0,
      "soil_moisture_avg": 0.0,
      "temperature_avg": 25.1,
      "pressure_avg": 1008.8,
      "rain_mult": 0.011,
      "soil_mult": 0.95,
      "humidity_mult": 1.046,
      "raw_dynamic_score": 0.094,
      "dynamic_level": "Low"
    },
    {
      "id": "nan",
      "name": "Hue, Vietnam",
      "latitude": 16.403,
      "longitude": 107.57,
      "base_risk": 8.92,
      "rain_6h_mm": 28.8,
      "humidity_avg": 95.5,
      "soil_moisture_avg": 0.0,
      "temperature_avg": 24.1,
      "pressure_avg": 1010.8,
      "rain_mult": 0.288,
      "soil_mult": 0.95,
      "humidity_mult": 1.048,
      "raw_dynamic_score": 2.557,
      "dynamic_level": "Low"
    },
    {
      "id": "nan",
      "name": "Da Nang, Vietnam",
      "latitude": 15.994,
      "longitude": 108.163,
      "base_risk": 9.31,
      "rain_6h_mm": 79.5,
      "humidity_avg": 94.2,
      "soil_moisture_avg": 0.0,
      "temperature_avg": 23.9,
      "pressure_avg": 1010.9,
      "rain_mult": 0.795,
      "soil_mult": 0.95,
      "humidity_mult": 1.047,
      "raw_dynamic_score": 7.362,
      "dynamic_level": "Medium"
    },
    {
      "id": "nan",
      "name": "Sihanoukville, Cambodia",
      "latitude": 10.665,
      "longitude": 103.482,
      "base_risk": 9.33,
      "rain_6h_mm": 7.1,
      "humidity_avg": 85.0,
      "soil_moisture_avg": 0.0,
      "temperature_avg": 27.7,
      "pressure_avg": 1010.2,
      "rain_mult": 0.071,
      "soil_mult": 0.95,
      "humidity_mult": 1.042,
      "raw_dynamic_score": 0.656,
      "dynamic_level": "Low"
    },
    {
      "id": "nan",
      "name": "Bangkok, Thailand",
      "latitude": 13.736,
      "longitude": 100.521,
      "base_risk": 9.0,
      "rain_6h_mm": 1.1,
      "humidity_avg": 91.0,
      "soil_moisture_avg": 0.0,
      "temperature_avg": 26.2,
      "pressure_avg": 1009.5,
      "rain_mult": 0.011,
      "soil_mult": 0.95,
      "humidity_mult": 1.046,
      "raw_dynamic_score": 0.098,
      "dynamic_level": "Low"
    },
    {
      "id": "nan",
      "name": "Chiang Mai, Thailand",
      "latitude": 18.788,
      "longitude": 98.986,
      "base_risk": 8.74,
      "rain_6h_mm": 5.4,
      "humidity_avg": 95.7,
      "soil_moisture_avg": 0.0,
      "temperature_avg": 24.2,
      "pressure_avg": 975.6,
      "rain_mult": 0.054,
      "soil_mult": 0.95,
      "humidity_mult": 1.048,
      "raw_dynamic_score": 0.47,
      "dynamic_level": "Low"
    },
    {
      "id": "nan",
      "name": "Vientiane, Laos",
      "latitude": 17.995,
      "longitude": 102.653,
      "base_risk": 8.63,
      "rain_6h_mm": 0.0,
      "humidity_avg": 76.2,
      "soil_moisture_avg": 0.0,
      "temperature_avg": 23.5,
      "pressure_avg": 993.7,
      "rain_mult": 0.0,
      "soil_mult": 0.95,
      "humidity_mult": 1.038,
      "raw_dynamic_score": 0.0,
      "dynamic_level": "None"
    },
    {
      "id": "nan",
      "name": "Kuala Lumpur, Malaysia",
      "latitude": 3.099,
      "longitude": 101.646,
      "base_risk": 9.06,
      "rain_6h_mm": 1.7,
      "humidity_avg": 93.3,
      "soil_moisture_avg": 0.0,
      "temperature_avg": 26.2,
      "pressure_avg": 1005.3,
      "rain_mult": 0.017,
      "soil_mult": 0.95,
      "humidity_mult": 1.047,
      "raw_dynamic_score": 0.153,
      "dynamic_level": "Low"
    },
    {
      "id": "nan",
      "name": "Kuching, Malaysia",
      "latitude": 1.613,
      "longitude": 110.399,
      "base_risk": 9.4,
      "rain_6h_mm": 0.0,
      "humidity_avg": 91.3,
      "soil_moisture_avg": 0.0,
      "temperature_avg": 26.5,
      "pressure_avg": 1009.1,
      "rain_mult": 0.0,
      "soil_mult": 0.95,
      "humidity_mult": 1.046,
      "raw_dynamic_score": 0.0,
      "dynamic_level": "None"
    },
    {
      "id": "nan",
      "name": "Kota Kinabalu, Malaysia",
      "latitude": 6.04,
      "longitude": 116.053,
      "base_risk": 8.85,
      "rain_6h_mm": 0.2,
      "humidity_avg": 78.0,
      "soil_moisture_avg": 0.0,
      "temperature_avg": 28.8,
      "pressure_avg": 1010.2,
      "rain_mult": 0.002,
      "soil_mult": 0.95,
      "humidity_mult": 1.039,
      "raw_dynamic_score": 0.017,
      "dynamic_level": "Low"
    },
    {
      "id": "nan",
      "name": "Jakarta, Indonesia",
      "latitude": -6.188,
      "longitude": 106.825,
      "base_risk": 9.38,
      "rain_6h_mm": 0.0,
      "humidity_avg": 89.0,
      "soil_moisture_avg": 0.0,
      "temperature_avg": 26.0,
      "pressure_avg": 1009.3,
      "rain_mult": 0.0,
      "soil_mult": 0.95,
      "humidity_mult": 1.044,
      "raw_dynamic_score": 0.0,
      "dynamic_level": "None"
    },
    {
      "id": "nan",
      "name": "Bogor, Indonesia",
      "latitude": -6.595,
      "longitude": 106.857,
      "base_risk": 8.54,
      "rain_6h_mm": 0.0,
      "humidity_avg": 92.8,
      "soil_moisture_avg": 0.0,
      "temperature_avg": 24.4,
      "pressure_avg": 982.5,
      "rain_mult": 0.0,
      "soil_mult": 0.95,
      "humidity_mult": 1.046,
      "raw_dynamic_score": 0.0,
      "dynamic_level": "None"
    },
    {
      "id": "nan",
      "name": "Bandung, Indonesia",
      "latitude": -6.937,
      "longitude": 107.659,
      "base_risk": 8.55,
      "rain_6h_mm": 0.0,
      "humidity_avg": 91.3,
      "soil_moisture_avg": 0.0,
      "temperature_avg": 23.4,
      "pressure_avg": 937.3,
      "rain_mult": 0.0,
      "soil_mult": 0.95,
      "humidity_mult": 1.046,
      "raw_dynamic_score": 0.0,
      "dynamic_level": "None"
    },
    {
      "id": "nan",
      "name": "Lae, Papua New Guinea",
      "latitude": -6.693,
      "longitude": 147.003,
      "base_risk": 9.06,
      "rain_6h_mm": 0.0,
      "humidity_avg": 91.0,
      "soil_moisture_avg": 0.0,
      "temperature_avg": 23.7,
      "pressure_avg": 1004.6,
      "rain_mult": 0.0,
      "soil_mult": 0.95,
      "humidity_mult": 1.046,
      "raw_dynamic_score": 0.0,
      "dynamic_level": "None"
    },
    {
      "id": "nan",
      "name": "Madang, Papua New Guinea",
      "latitude": -5.277,
      "longitude": 145.8,
      "base_risk": 8.53,
      "rain_6h_mm": 0.0,
      "humidity_avg": 97.0,
      "soil_moisture_avg": 0.0,
      "temperature_avg": 22.9,
      "pressure_avg": 1009.2,
      "rain_mult": 0.0,
      "soil_mult": 0.95,
      "humidity_mult": 1.048,
      "raw_dynamic_score": 0.0,
      "dynamic_level": "None"
    },
    {
      "id": "nan",
      "name": "Honiara, Solomon Islands",
      "latitude": -9.393,
      "longitude": 159.91,
      "base_risk": 8.76,
      "rain_6h_mm": 0.0,
      "humidity_avg": 96.8,
      "soil_moisture_avg": 0.0,
      "temperature_avg": 23.3,
      "pressure_avg": 1009.2,
      "rain_mult": 0.0,
      "soil_mult": 0.95,
      "humidity_mult": 1.048,
      "raw_dynamic_score": 0.0,
      "dynamic_level": "None"
    },
    {
      "id": "nan",
      "name": "Suva, Fiji",
      "latitude": -18.161,
      "longitude": 178.401,
      "base_risk": 8.76,
      "rain_6h_mm": 0.0,
      "humidity_avg": 91.8,
      "soil_moisture_avg": 0.0,
      "temperature_avg": 23.5,
      "pressure_avg": 1013.0,
      "rain_mult": 0.0,
      "soil_mult": 0.95,
      "humidity_mult": 1.046,
      "raw_dynamic_score": 0.0,
      "dynamic_level": "None"
    },
    {
      "id": "nan",
      "name": "Apia, Samoa",
      "latitude": -13.833,
      "longitude": -171.73,
      "base_risk": 9.47,
      "rain_6h_mm": 0.7,
      "humidity_avg": 80.7,
      "soil_moisture_avg": 0.0,
      "temperature_avg": 27.8,
      "pressure_avg": 1011.7,
      "rain_mult": 0.007,
      "soil_mult": 0.95,
      "humidity_mult": 1.04,
      "raw_dynamic_score": 0.066,
      "dynamic_level": "Low"
    },
    {
      "id": "nan",
      "name": "Pohnpei (Kolonia), Micronesia",
      "latitude": 6.924,
      "longitude": 158.229,
      "base_risk": 8.86,
      "rain_6h_mm": 2.8,
      "humidity_avg": 83.2,
      "soil_moisture_avg": 0.0,
      "temperature_avg": 26.1,
      "pressure_avg": 998.0,
      "rain_mult": 0.028,
      "soil_mult": 0.95,
      "humidity_mult": 1.042,
      "raw_dynamic_score": 0.245,
      "dynamic_level": "Low"
    },
    {
      "id": "nan",
      "name": "Port Vila, Vanuatu",
      "latitude": -17.673,
      "longitude": 168.287,
      "base_risk": 9.34,
      "rain_6h_mm": 0.0,
      "humidity_avg": 85.2,
      "soil_moisture_avg": 0.0,
      "temperature_avg": 26.0,
      "pressure_avg": 1008.0,
      "rain_mult": 0.0,
      "soil_mult": 0.95,
      "humidity_mult": 1.043,
      "raw_dynamic_score": 0.0,
      "dynamic_level": "None"
    },
    {
      "id": "nan",
      "name": "Cairns, Australia",
      "latitude": -16.86,
      "longitude": 145.81,
      "base_risk": 9.21,
      "rain_6h_mm": 0.0,
      "humidity_avg": 97.2,
      "soil_moisture_avg": 0.0,
      "temperature_avg": 23.0,
      "pressure_avg": 1010.9,
      "rain_mult": 0.0,
      "soil_mult": 0.95,
      "humidity_mult": 1.049,
      "raw_dynamic_score": 0.0,
      "dynamic_level": "None"
    },
    {
      "id": "nan",
      "name": "Tully, Australia",
      "latitude": -17.912,
      "longitude": 145.922,
      "base_risk": 8.73,
      "rain_6h_mm": 0.0,
      "humidity_avg": 97.2,
      "soil_moisture_avg": 0.0,
      "temperature_avg": 20.5,
      "pressure_avg": 1004.5,
      "rain_mult": 0.0,
      "soil_mult": 0.95,
      "humidity_mult": 1.049,
      "raw_dynamic_score": 0.0,
      "dynamic_level": "None"
    },
    {
      "id": "nan",
      "name": "Darwin, Australia",
      "latitude": -12.463,
      "longitude": 130.825,
      "base_risk": 9.15,
      "rain_6h_mm": 0.0,
      "humidity_avg": 79.0,
      "soil_moisture_avg": 0.0,
      "temperature_avg": 29.3,
      "pressure_avg": 1008.3,
      "rain_mult": 0.0,
      "soil_mult": 0.95,
      "humidity_mult": 1.04,
      "raw_dynamic_score": 0.0,
      "dynamic_level": "None"
    },
    {
      "id": "nan",
      "name": "Hilo, Hawaii, USA",
      "latitude": 19.687,
      "longitude": -155.041,
      "base_risk": 8.62,
      "rain_6h_mm": 0.0,
      "humidity_avg": 70.3,
      "soil_moisture_avg": 0.0,
      "temperature_avg": 18.8,
      "pressure_avg": 1012.9,
      "rain_mult": 0.0,
      "soil_mult": 0.95,
      "humidity_mult": 1.035,
      "raw_dynamic_score": 0.0,
      "dynamic_level": "None"
    },
    {
      "id": "nan",
      "name": "Prince Rupert, Canada",
      "latitude": 54.255,
      "longitude": -130.3,
      "base_risk": 8.51,
      "rain_6h_mm": 4.8,
      "humidity_avg": 82.5,
      "soil_moisture_avg": 0.0,
      "temperature_avg": 6.9,
      "pressure_avg": 1009.8,
      "rain_mult": 0.048,
      "soil_mult": 0.95,
      "humidity_mult": 1.041,
      "raw_dynamic_score": 0.404,
      "dynamic_level": "Low"
    },
    {
      "id": "nan",
      "name": "Tofino, Canada",
      "latitude": 49.094,
      "longitude": -125.906,
      "base_risk": 9.46,
      "rain_6h_mm": 0.0,
      "humidity_avg": 73.2,
      "soil_moisture_avg": 0.0,
      "temperature_avg": 9.6,
      "pressure_avg": 1025.9,
      "rain_mult": 0.0,
      "soil_mult": 0.95,
      "humidity_mult": 1.037,
      "raw_dynamic_score": 0.0,
      "dynamic_level": "None"
    },
    {
      "id": "nan",
      "name": "Vancouver, Canada",
      "latitude": 49.322,
      "longitude": -123.141,
      "base_risk": 9.26,
      "rain_6h_mm": 0.3,
      "humidity_avg": 82.3,
      "soil_moisture_avg": 0.0,
      "temperature_avg": 7.9,
      "pressure_avg": 1026.8,
      "rain_mult": 0.003,
      "soil_mult": 0.95,
      "humidity_mult": 1.041,
      "raw_dynamic_score": 0.027,
      "dynamic_level": "Low"
    },
    {
      "id": "nan",
      "name": "Forks, USA",
      "latitude": 47.95,
      "longitude": -124.425,
      "base_risk": 9.04,
      "rain_6h_mm": 0.0,
      "humidity_avg": 79.7,
      "soil_moisture_avg": 0.0,
      "temperature_avg": 8.5,
      "pressure_avg": 1018.6,
      "rain_mult": 0.0,
      "soil_mult": 0.95,
      "humidity_mult": 1.04,
      "raw_dynamic_score": 0.0,
      "dynamic_level": "None"
    },
    {
      "id": "nan",
      "name": "Ketchikan, USA",
      "latitude": 55.362,
      "longitude": -131.626,
      "base_risk": 9.28,
      "rain_6h_mm": 5.1,
      "humidity_avg": 88.3,
      "soil_moisture_avg": 0.0,
      "temperature_avg": 5.5,
      "pressure_avg": 1000.3,
      "rain_mult": 0.051,
      "soil_mult": 0.95,
      "humidity_mult": 1.044,
      "raw_dynamic_score": 0.469,
      "dynamic_level": "Low"
    },
    {
      "id": "nan",
      "name": "Juneau, USA",
      "latitude": 58.261,
      "longitude": -134.42,
      "base_risk": 8.57,
      "rain_6h_mm": 4.4,
      "humidity_avg": 91.2,
      "soil_moisture_avg": 0.0,
      "temperature_avg": -0.1,
      "pressure_avg": 939.4,
      "rain_mult": 0.044,
      "soil_mult": 0.95,
      "humidity_mult": 1.046,
      "raw_dynamic_score": 0.375,
      "dynamic_level": "Low"
    },
    {
      "id": "nan",
      "name": "Sitka, USA",
      "latitude": 57.113,
      "longitude": -135.31,
      "base_risk": 8.8,
      "rain_6h_mm": 1.1,
      "humidity_avg": 82.8,
      "soil_moisture_avg": 0.0,
      "temperature_avg": 3.3,
      "pressure_avg": 954.6,
      "rain_mult": 0.011,
      "soil_mult": 0.95,
      "humidity_mult": 1.041,
      "raw_dynamic_score": 0.096,
      "dynamic_level": "Low"
    },
    {
      "id": "nan",
      "name": "Tapachula, Mexico",
      "latitude": 14.963,
      "longitude": -92.297,
      "base_risk": 9.46,
      "rain_6h_mm": 0.1,
      "humidity_avg": 62.0,
      "soil_moisture_avg": 0.0,
      "temperature_avg": 30.6,
      "pressure_avg": 983.2,
      "rain_mult": 0.001,
      "soil_mult": 0.95,
      "humidity_mult": 1.031,
      "raw_dynamic_score": 0.009,
      "dynamic_level": "Low"
    },
    {
      "id": "nan",
      "name": "Villahermosa, Mexico",
      "latitude": 17.949,
      "longitude": -92.888,
      "base_risk": 8.61,
      "rain_6h_mm": 0.0,
      "humidity_avg": 58.3,
      "soil_moisture_avg": 0.0,
      "temperature_avg": 28.7,
      "pressure_avg": 1015.7,
      "rain_mult": 0.0,
      "soil_mult": 0.95,
      "humidity_mult": 1.029,
      "raw_dynamic_score": 0.0,
      "dynamic_level": "None"
    },
    {
      "id": "nan",
      "name": "Xalapa, Mexico",
      "latitude": 19.543,
      "longitude": -96.91,
      "base_risk": 8.59,
      "rain_6h_mm": 0.0,
      "humidity_avg": 68.8,
      "soil_moisture_avg": 0.0,
      "temperature_avg": 16.5,
      "pressure_avg": 864.1,
      "rain_mult": 0.0,
      "soil_mult": 0.95,
      "humidity_mult": 1.034,
      "raw_dynamic_score": 0.0,
      "dynamic_level": "None"
    },
    {
      "id": "nan",
      "name": "Bluefields, Nicaragua",
      "latitude": 11.986,
      "longitude": -83.784,
      "base_risk": 8.55,
      "rain_6h_mm": 2.1,
      "humidity_avg": 92.8,
      "soil_moisture_avg": 0.0,
      "temperature_avg": 25.0,
      "pressure_avg": 1011.3,
      "rain_mult": 0.021,
      "soil_mult": 0.95,
      "humidity_mult": 1.046,
      "raw_dynamic_score": 0.178,
      "dynamic_level": "Low"
    },
    {
      "id": "nan",
      "name": "La Ceiba, Honduras",
      "latitude": 15.812,
      "longitude": -86.752,
      "base_risk": 9.22,
      "rain_6h_mm": 0.0,
      "humidity_avg": 69.0,
      "soil_moisture_avg": 0.0,
      "temperature_avg": 29.1,
      "pressure_avg": 1014.5,
      "rain_mult": 0.0,
      "soil_mult": 0.95,
      "humidity_mult": 1.034,
      "raw_dynamic_score": 0.0,
      "dynamic_level": "None"
    },
    {
      "id": "nan",
      "name": "Colón, Panama",
      "latitude": 9.299,
      "longitude": -79.861,
      "base_risk": 8.88,
      "rain_6h_mm": 7.5,
      "humidity_avg": 89.8,
      "soil_moisture_avg": 0.0,
      "temperature_avg": 26.9,
      "pressure_avg": 1007.7,
      "rain_mult": 0.075,
      "soil_mult": 0.95,
      "humidity_mult": 1.045,
      "raw_dynamic_score": 0.661,
      "dynamic_level": "Low"
    },
    {
      "id": "nan",
      "name": "Panama City, Panama",
      "latitude": 8.922,
      "longitude": -79.5,
      "base_risk": 8.72,
      "rain_6h_mm": 2.5,
      "humidity_avg": 82.0,
      "soil_moisture_avg": 0.0,
      "temperature_avg": 28.0,
      "pressure_avg": 1010.6,
      "rain_mult": 0.025,
      "soil_mult": 0.95,
      "humidity_mult": 1.041,
      "raw_dynamic_score": 0.216,
      "dynamic_level": "Low"
    },
    {
      "id": "nan",
      "name": "Limón, Costa Rica",
      "latitude": 10.03,
      "longitude": -83.036,
      "base_risk": 9.16,
      "rain_6h_mm": 0.0,
      "humidity_avg": 76.2,
      "soil_moisture_avg": 0.0,
      "temperature_avg": 27.2,
      "pressure_avg": 1011.7,
      "rain_mult": 0.0,
      "soil_mult": 0.95,
      "humidity_mult": 1.038,
      "raw_dynamic_score": 0.0,
      "dynamic_level": "None"
    },
    {
      "id": "nan",
      "name": "Bocas del Toro, Panama",
      "latitude": 9.315,
      "longitude": -82.265,
      "base_risk": 9.05,
      "rain_6h_mm": 0.0,
      "humidity_avg": 77.5,
      "soil_moisture_avg": 0.0,
      "temperature_avg": 28.1,
      "pressure_avg": 1011.0,
      "rain_mult": 0.0,
      "soil_mult": 0.95,
      "humidity_mult": 1.039,
      "raw_dynamic_score": 0.0,
      "dynamic_level": "None"
    },
    {
      "id": "nan",
      "name": "Puerto Barrios, Guatemala",
      "latitude": 15.733,
      "longitude": -88.64,
      "base_risk": 9.35,
      "rain_6h_mm": 0.0,
      "humidity_avg": 72.0,
      "soil_moisture_avg": 0.0,
      "temperature_avg": 26.5,
      "pressure_avg": 1014.5,
      "rain_mult": 0.0,
      "soil_mult": 0.95,
      "humidity_mult": 1.036,
      "raw_dynamic_score": 0.0,
      "dynamic_level": "None"
    },
    {
      "id": "nan",
      "name": "San Juan, Puerto Rico",
      "latitude": 18.486,
      "longitude": -66.146,
      "base_risk": 9.05,
      "rain_6h_mm": 0.0,
      "humidity_avg": 60.5,
      "soil_moisture_avg": 0.0,
      "temperature_avg": 31.5,
      "pressure_avg": 1015.6,
      "rain_mult": 0.0,
      "soil_mult": 0.95,
      "humidity_mult": 1.03,
      "raw_dynamic_score": 0.0,
      "dynamic_level": "None"
    },
    {
      "id": "nan",
      "name": "Santo Domingo, Dominican Republic",
      "latitude": 18.446,
      "longitude": -69.911,
      "base_risk": 8.96,
      "rain_6h_mm": 4.9,
      "humidity_avg": 87.8,
      "soil_moisture_avg": 0.0,
      "temperature_avg": 27.2,
      "pressure_avg": 1015.9,
      "rain_mult": 0.049,
      "soil_mult": 0.95,
      "humidity_mult": 1.044,
      "raw_dynamic_score": 0.435,
      "dynamic_level": "Low"
    },
    {
      "id": "nan",
      "name": "Fort-de-France, Martinique",
      "latitude": 14.676,
      "longitude": -61.058,
      "base_risk": 9.04,
      "rain_6h_mm": 0.1,
      "humidity_avg": 67.7,
      "soil_moisture_avg": 0.0,
      "temperature_avg": 27.8,
      "pressure_avg": 973.7,
      "rain_mult": 0.001,
      "soil_mult": 0.95,
      "humidity_mult": 1.034,
      "raw_dynamic_score": 0.009,
      "dynamic_level": "Low"
    },
    {
      "id": "nan",
      "name": "Roseau, Dominica",
      "latitude": 15.361,
      "longitude": -61.368,
      "base_risk": 8.91,
      "rain_6h_mm": 0.0,
      "humidity_avg": 59.5,
      "soil_moisture_avg": 0.0,
      "temperature_avg": 26.2,
      "pressure_avg": 949.2,
      "rain_mult": 0.0,
      "soil_mult": 0.95,
      "humidity_mult": 1.03,
      "raw_dynamic_score": 0.0,
      "dynamic_level": "None"
    },
    {
      "id": "nan",
      "name": "Port of Spain, Trinidad and Tobago",
      "latitude": 10.621,
      "longitude": -61.558,
      "base_risk": 9.05,
      "rain_6h_mm": 0.1,
      "humidity_avg": 57.8,
      "soil_moisture_avg": 0.0,
      "temperature_avg": 31.3,
      "pressure_avg": 1011.8,
      "rain_mult": 0.001,
      "soil_mult": 0.95,
      "humidity_mult": 1.029,
      "raw_dynamic_score": 0.009,
      "dynamic_level": "Low"
    },
    {
      "id": "nan",
      "name": "Georgetown, Guyana",
      "latitude": 6.821,
      "longitude": -58.115,
      "base_risk": 9.21,
      "rain_6h_mm": 0.4,
      "humidity_avg": 66.8,
      "soil_moisture_avg": 0.0,
      "temperature_avg": 30.2,
      "pressure_avg": 1011.5,
      "rain_mult": 0.004,
      "soil_mult": 0.95,
      "humidity_mult": 1.033,
      "raw_dynamic_score": 0.036,
      "dynamic_level": "Low"
    },
    {
      "id": "nan",
      "name": "Quibdó, Colombia",
      "latitude": 5.672,
      "longitude": -76.654,
      "base_risk": 9.42,
      "rain_6h_mm": 4.2,
      "humidity_avg": 85.2,
      "soil_moisture_avg": 0.0,
      "temperature_avg": 27.4,
      "pressure_avg": 1005.7,
      "rain_mult": 0.042,
      "soil_mult": 0.95,
      "humidity_mult": 1.043,
      "raw_dynamic_score": 0.392,
      "dynamic_level": "Low"
    },
    {
      "id": "nan",
      "name": "Buenaventura, Colombia",
      "latitude": 3.917,
      "longitude": -77.048,
      "base_risk": 8.69,
      "rain_6h_mm": 2.8,
      "humidity_avg": 89.5,
      "soil_moisture_avg": 0.0,
      "temperature_avg": 25.8,
      "pressure_avg": 1009.1,
      "rain_mult": 0.028,
      "soil_mult": 0.95,
      "humidity_mult": 1.045,
      "raw_dynamic_score": 0.241,
      "dynamic_level": "Low"
    },
    {
      "id": "nan",
      "name": "Medellín, Colombia",
      "latitude": 6.184,
      "longitude": -75.539,
      "base_risk": 8.66,
      "rain_6h_mm": 0.0,
      "humidity_avg": 59.2,
      "soil_moisture_avg": 0.0,
      "temperature_avg": 20.2,
      "pressure_avg": 770.5,
      "rain_mult": 0.0,
      "soil_mult": 0.95,
      "humidity_mult": 1.03,
      "raw_dynamic_score": 0.0,
      "dynamic_level": "None"
    },
    {
      "id": "nan",
      "name": "Leticia, Colombia",
      "latitude": -4.275,
      "longitude": -69.899,
      "base_risk": 8.79,
      "rain_6h_mm": 2.3,
      "humidity_avg": 77.3,
      "soil_moisture_avg": 0.0,
      "temperature_avg": 29.4,
      "pressure_avg": 1001.1,
      "rain_mult": 0.023,
      "soil_mult": 0.95,
      "humidity_mult": 1.039,
      "raw_dynamic_score": 0.199,
      "dynamic_level": "Low"
    },
    {
      "id": "nan",
      "name": "Pucallpa, Peru",
      "latitude": -8.399,
      "longitude": -74.553,
      "base_risk": 9.46,
      "rain_6h_mm": 0.6,
      "humidity_avg": 64.8,
      "soil_moisture_avg": 0.0,
      "temperature_avg": 30.3,
      "pressure_avg": 992.9,
      "rain_mult": 0.006,
      "soil_mult": 0.95,
      "humidity_mult": 1.032,
      "raw_dynamic_score": 0.056,
      "dynamic_level": "Low"
    },
    {
      "id": "nan",
      "name": "Manaus, Brazil",
      "latitude": -3.119,
      "longitude": -60.041,
      "base_risk": 9.4,
      "rain_6h_mm": 0.2,
      "humidity_avg": 56.7,
      "soil_moisture_avg": 0.0,
      "temperature_avg": 33.1,
      "pressure_avg": 1004.9,
      "rain_mult": 0.002,
      "soil_mult": 0.95,
      "humidity_mult": 1.028,
      "raw_dynamic_score": 0.018,
      "dynamic_level": "Low"
    },
    {
      "id": "nan",
      "name": "Belém, Brazil",
      "latitude": -1.435,
      "longitude": -48.543,
      "base_risk": 8.88,
      "rain_6h_mm": 0.0,
      "humidity_avg": 71.0,
      "soil_moisture_avg": 0.0,
      "temperature_avg": 28.9,
      "pressure_avg": 1008.5,
      "rain_mult": 0.0,
      "soil_mult": 0.95,
      "humidity_mult": 1.036,
      "raw_dynamic_score": 0.0,
      "dynamic_level": "None"
    },
    {
      "id": "nan",
      "name": "Macapá, Brazil",
      "latitude": -0.006,
      "longitude": -51.11,
      "base_risk": 8.67,
      "rain_6h_mm": 0.0,
      "humidity_avg": 48.5,
      "soil_moisture_avg": 0.0,
      "temperature_avg": 33.4,
      "pressure_avg": 1009.4,
      "rain_mult": 0.0,
      "soil_mult": 0.95,
      "humidity_mult": 1.024,
      "raw_dynamic_score": 0.0,
      "dynamic_level": "None"
    },
    {
      "id": "nan",
      "name": "São Luís, Brazil",
      "latitude": -2.469,
      "longitude": -44.282,
      "base_risk": 9.39,
      "rain_6h_mm": 0.0,
      "humidity_avg": 70.8,
      "soil_moisture_avg": 0.0,
      "temperature_avg": 28.4,
      "pressure_avg": 1010.7,
      "rain_mult": 0.0,
      "soil_mult": 0.95,
      "humidity_mult": 1.035,
      "raw_dynamic_score": 0.0,
      "dynamic_level": "None"
    },
    {
      "id": "nan",
      "name": "Santos, Brazil",
      "latitude": -23.9,
      "longitude": -46.333,
      "base_risk": 9.05,
      "rain_6h_mm": 34.7,
      "humidity_avg": 96.3,
      "soil_moisture_avg": 0.0,
      "temperature_avg": 20.2,
      "pressure_avg": 1011.3,
      "rain_mult": 0.347,
      "soil_mult": 0.95,
      "humidity_mult": 1.048,
      "raw_dynamic_score": 3.127,
      "dynamic_level": "Low"
    },
    {
      "id": "nan",
      "name": "Salvador, Brazil",
      "latitude": -12.957,
      "longitude": -38.541,
      "base_risk": 9.43,
      "rain_6h_mm": 0.0,
      "humidity_avg": 61.3,
      "soil_moisture_avg": 0.0,
      "temperature_avg": 27.7,
      "pressure_avg": 1013.8,
      "rain_mult": 0.0,
      "soil_mult": 0.95,
      "humidity_mult": 1.031,
      "raw_dynamic_score": 0.0,
      "dynamic_level": "None"
    },
    {
      "id": "nan",
      "name": "São Tomé, São Tomé and Príncipe",
      "latitude": 0.336,
      "longitude": 6.77,
      "base_risk": 9.38,
      "rain_6h_mm": 2.9,
      "humidity_avg": 86.8,
      "soil_moisture_avg": 0.0,
      "temperature_avg": 26.7,
      "pressure_avg": 1012.3,
      "rain_mult": 0.029,
      "soil_mult": 0.95,
      "humidity_mult": 1.043,
      "raw_dynamic_score": 0.27,
      "dynamic_level": "Low"
    },
    {
      "id": "nan",
      "name": "Libreville, Gabon",
      "latitude": 0.396,
      "longitude": 9.447,
      "base_risk": 9.29,
      "rain_6h_mm": 0.6,
      "humidity_avg": 83.5,
      "soil_moisture_avg": 0.0,
      "temperature_avg": 26.9,
      "pressure_avg": 1008.4,
      "rain_mult": 0.006,
      "soil_mult": 0.95,
      "humidity_mult": 1.042,
      "raw_dynamic_score": 0.055,
      "dynamic_level": "Low"
    },
    {
      "id": "nan",
      "name": "Limbe, Cameroon",
      "latitude": 3.964,
      "longitude": 9.188,
      "base_risk": 9.01,
      "rain_6h_mm": 0.6,
      "humidity_avg": 90.2,
      "soil_moisture_avg": 0.0,
      "temperature_avg": 25.9,
      "pressure_avg": 1012.9,
      "rain_mult": 0.006,
      "soil_mult": 0.95,
      "humidity_mult": 1.045,
      "raw_dynamic_score": 0.054,
      "dynamic_level": "Low"
    },
    {
      "id": "nan",
      "name": "Bata, Equatorial Guinea",
      "latitude": 1.803,
      "longitude": 9.805,
      "base_risk": 9.19,
      "rain_6h_mm": 1.2,
      "humidity_avg": 89.5,
      "soil_moisture_avg": 0.0,
      "temperature_avg": 27.6,
      "pressure_avg": 1010.4,
      "rain_mult": 0.012,
      "soil_mult": 0.95,
      "humidity_mult": 1.045,
      "raw_dynamic_score": 0.109,
      "dynamic_level": "Low"
    },
    {
      "id": "nan",
      "name": "Malabo, Equatorial Guinea",
      "latitude": 3.79,
      "longitude": 8.823,
      "base_risk": 8.6,
      "rain_6h_mm": 1.9,
      "humidity_avg": 85.5,
      "soil_moisture_avg": 0.0,
      "temperature_avg": 27.5,
      "pressure_avg": 1012.1,
      "rain_mult": 0.019,
      "soil_mult": 0.95,
      "humidity_mult": 1.043,
      "raw_dynamic_score": 0.162,
      "dynamic_level": "Low"
    },
    {
      "id": "nan",
      "name": "Freetown, Sierra Leone",
      "latitude": 8.465,
      "longitude": -13.231,
      "base_risk": 9.41,
      "rain_6h_mm": 0.5,
      "humidity_avg": 81.5,
      "soil_moisture_avg": 0.0,
      "temperature_avg": 27.3,
      "pressure_avg": 998.9,
      "rain_mult": 0.005,
      "soil_mult": 0.95,
      "humidity_mult": 1.041,
      "raw_dynamic_score": 0.047,
      "dynamic_level": "Low"
    },
    {
      "id": "nan",
      "name": "Abidjan, Côte d’Ivoire",
      "latitude": 5.365,
      "longitude": -4.044,
      "base_risk": 8.57,
      "rain_6h_mm": 0.0,
      "humidity_avg": 84.5,
      "soil_moisture_avg": 0.0,
      "temperature_avg": 27.0,
      "pressure_avg": 1007.2,
      "rain_mult": 0.0,
      "soil_mult": 0.95,
      "humidity_mult": 1.042,
      "raw_dynamic_score": 0.0,
      "dynamic_level": "None"
    },
    {
      "id": "nan",
      "name": "Lagos, Nigeria",
      "latitude": 6.484,
      "longitude": 3.339,
      "base_risk": 9.4,
      "rain_6h_mm": 0.0,
      "humidity_avg": 81.8,
      "soil_moisture_avg": 0.0,
      "temperature_avg": 28.0,
      "pressure_avg": 1010.7,
      "rain_mult": 0.0,
      "soil_mult": 0.95,
      "humidity_mult": 1.041,
      "raw_dynamic_score": 0.0,
      "dynamic_level": "None"
    },
    {
      "id": "nan",
      "name": "Calabar, Nigeria",
      "latitude": 5.018,
      "longitude": 8.346,
      "base_risk": 9.42,
      "rain_6h_mm": 1.3,
      "humidity_avg": 86.5,
      "soil_moisture_avg": 0.0,
      "temperature_avg": 26.7,
      "pressure_avg": 1007.1,
      "rain_mult": 0.013,
      "soil_mult": 0.95,
      "humidity_mult": 1.043,
      "raw_dynamic_score": 0.121,
      "dynamic_level": "Low"
    },
    {
      "id": "nan",
      "name": "Kisumu, Kenya",
      "latitude": -0.131,
      "longitude": 34.768,
      "base_risk": 8.56,
      "rain_6h_mm": 3.7,
      "humidity_avg": 79.5,
      "soil_moisture_avg": 0.0,
      "temperature_avg": 22.8,
      "pressure_avg": 891.8,
      "rain_mult": 0.037,
      "soil_mult": 0.95,
      "humidity_mult": 1.04,
      "raw_dynamic_score": 0.313,
      "dynamic_level": "Low"
    },
    {
      "id": "nan",
      "name": "Kampala, Uganda",
      "latitude": 0.367,
      "longitude": 32.602,
      "base_risk": 9.2,
      "rain_6h_mm": 0.0,
      "humidity_avg": 92.3,
      "soil_moisture_avg": 0.0,
      "temperature_avg": 20.5,
      "pressure_avg": 884.5,
      "rain_mult": 0.0,
      "soil_mult": 0.95,
      "humidity_mult": 1.046,
      "raw_dynamic_score": 0.0,
      "dynamic_level": "None"
    },
    {
      "id": "nan",
      "name": "Bujumbura, Burundi",
      "latitude": -3.381,
      "longitude": 29.399,
      "base_risk": 9.31,
      "rain_6h_mm": 0.9,
      "humidity_avg": 76.0,
      "soil_moisture_avg": 0.0,
      "temperature_avg": 26.1,
      "pressure_avg": 909.7,
      "rain_mult": 0.009,
      "soil_mult": 0.95,
      "humidity_mult": 1.038,
      "raw_dynamic_score": 0.083,
      "dynamic_level": "Low"
    },
    {
      "id": "nan",
      "name": "Toamasina, Madagascar",
      "latitude": -18.109,
      "longitude": 49.382,
      "base_risk": 8.54,
      "rain_6h_mm": 0.0,
      "humidity_avg": 93.3,
      "soil_moisture_avg": 0.0,
      "temperature_avg": 20.4,
      "pressure_avg": 1020.5,
      "rain_mult": 0.0,
      "soil_mult": 0.95,
      "humidity_mult": 1.047,
      "raw_dynamic_score": 0.0,
      "dynamic_level": "None"
    },
    {
      "id": "nan",
      "name": "Antalaha, Madagascar",
      "latitude": -14.96,
      "longitude": 50.28,
      "base_risk": 9.04,
      "rain_6h_mm": 0.0,
      "humidity_avg": 79.7,
      "soil_moisture_avg": 0.0,
      "temperature_avg": 24.9,
      "pressure_avg": 1009.8,
      "rain_mult": 0.0,
      "soil_mult": 0.95,
      "humidity_mult": 1.04,
      "raw_dynamic_score": 0.0,
      "dynamic_level": "None"
    },
    {
      "id": "nan",
      "name": "Moroni, Comoros",
      "latitude": -11.763,
      "longitude": 43.235,
      "base_risk": 9.24,
      "rain_6h_mm": 0.0,
      "humidity_avg": 75.2,
      "soil_moisture_avg": 0.0,
      "temperature_avg": 27.2,
      "pressure_avg": 1017.5,
      "rain_mult": 0.0,
      "soil_mult": 0.95,
      "humidity_mult": 1.038,
      "raw_dynamic_score": 0.0,
      "dynamic_level": "None"
    },
    {
      "id": "nan",
      "name": "Victoria, Seychelles",
      "latitude": -4.583,
      "longitude": 55.494,
      "base_risk": 8.82,
      "rain_6h_mm": 0.1,
      "humidity_avg": 83.7,
      "soil_moisture_avg": 0.0,
      "temperature_avg": 26.3,
      "pressure_avg": 1014.8,
      "rain_mult": 0.001,
      "soil_mult": 0.95,
      "humidity_mult": 1.042,
      "raw_dynamic_score": 0.009,
      "dynamic_level": "Low"
    },
    {
      "id": "nan",
      "name": "Saint-Denis, Réunion",
      "latitude": -20.898,
      "longitude": 55.488,
      "base_risk": 9.15,
      "rain_6h_mm": 0.0,
      "humidity_avg": 72.0,
      "soil_moisture_avg": 0.0,
      "temperature_avg": 20.9,
      "pressure_avg": 1018.7,
      "rain_mult": 0.0,
      "soil_mult": 0.95,
      "humidity_mult": 1.036,
      "raw_dynamic_score": 0.0,
      "dynamic_level": "None"
    },
    {
      "id": "nan",
      "name": "Maputo, Mozambique",
      "latitude": -25.966,
      "longitude": 32.593,
      "base_risk": 9.42,
      "rain_6h_mm": 0.0,
      "humidity_avg": 80.8,
      "soil_moisture_avg": 0.0,
      "temperature_avg": 20.3,
      "pressure_avg": 1019.4,
      "rain_mult": 0.0,
      "soil_mult": 0.95,
      "humidity_mult": 1.04,
      "raw_dynamic_score": 0.0,
      "dynamic_level": "None"
    },
    {
      "id": "nan",
      "name": "Durban, South Africa",
      "latitude": -29.838,
      "longitude": 31.021,
      "base_risk": 9.24,
      "rain_6h_mm": 0.1,
      "humidity_avg": 87.8,
      "soil_moisture_avg": 0.0,
      "temperature_avg": 16.6,
      "pressure_avg": 1026.5,
      "rain_mult": 0.001,
      "soil_mult": 0.95,
      "humidity_mult": 1.044,
      "raw_dynamic_score": 0.009,
      "dynamic_level": "Low"
    },
    {
      "id": "nan",
      "name": "Richards Bay, South Africa",
      "latitude": -28.823,
      "longitude": 32.018,
      "base_risk": 8.56,
      "rain_6h_mm": 0.0,
      "humidity_avg": 84.2,
      "soil_moisture_avg": 0.0,
      "temperature_avg": 19.0,
      "pressure_avg": 1028.0,
      "rain_mult": 0.0,
      "soil_mult": 0.95,
      "humidity_mult": 1.042,
      "raw_dynamic_score": 0.0,
      "dynamic_level": "None"
    },
    {
      "id": "nan",
      "name": "Bergen, Norway",
      "latitude": 60.452,
      "longitude": 5.284,
      "base_risk": 9.31,
      "rain_6h_mm": 5.1,
      "humidity_avg": 82.5,
      "soil_moisture_avg": 0.513,
      "temperature_avg": 8.8,
      "pressure_avg": 998.4,
      "rain_mult": 0.051,
      "soil_mult": 1.386,
      "humidity_mult": 1.041,
      "raw_dynamic_score": 0.685,
      "dynamic_level": "Low"
    },
    {
      "id": "nan",
      "name": "Cork, Ireland",
      "latitude": 51.958,
      "longitude": -8.515,
      "base_risk": 8.96,
      "rain_6h_mm": 0.4,
      "humidity_avg": 95.3,
      "soil_moisture_avg": 0.649,
      "temperature_avg": 10.6,
      "pressure_avg": 991.3,
      "rain_mult": 0.004,
      "soil_mult": 1.502,
      "humidity_mult": 1.048,
      "raw_dynamic_score": 0.056,
      "dynamic_level": "Low"
    },
    {
      "id": "nan",
      "name": "Glasgow, Scotland",
      "latitude": 55.824,
      "longitude": -4.232,
      "base_risk": 8.91,
      "rain_6h_mm": 0.1,
      "humidity_avg": 76.8,
      "soil_moisture_avg": 0.796,
      "temperature_avg": 9.5,
      "pressure_avg": 997.1,
      "rain_mult": 0.001,
      "soil_mult": 1.627,
      "humidity_mult": 1.038,
      "raw_dynamic_score": 0.015,
      "dynamic_level": "Low"
    },
    {
      "id": "nan",
      "name": "Bilbao, Spain",
      "latitude": 43.283,
      "longitude": -2.935,
      "base_risk": 9.49,
      "rain_6h_mm": 0.0,
      "humidity_avg": 70.0,
      "soil_moisture_avg": 0.0,
      "temperature_avg": 14.5,
      "pressure_avg": 1010.6,
      "rain_mult": 0.0,
      "soil_mult": 0.95,
      "humidity_mult": 1.035,
      "raw_dynamic_score": 0.0,
      "dynamic_level": "None"
    },
    {
      "id": "nan",
      "name": "Brest, France",
      "latitude": 48.39,
      "longitude": -4.466,
      "base_risk": 8.9,
      "rain_6h_mm": 0.0,
      "humidity_avg": 80.7,
      "soil_moisture_avg": 0.0,
      "temperature_avg": 13.4,
      "pressure_avg": 1008.9,
      "rain_mult": 0.0,
      "soil_mult": 0.95,
      "humidity_mult": 1.04,
      "raw_dynamic_score": 0.0,
      "dynamic_level": "None"
    },
    {
      "id": "nan",
      "name": "Keelung, Taiwan",
      "latitude": 25.108,
      "longitude": 121.7,
      "base_risk": 9.18,
      "rain_6h_mm": 0.0,
      "humidity_avg": 73.2,
      "soil_moisture_avg": 0.0,
      "temperature_avg": 21.1,
      "pressure_avg": 999.5,
      "rain_mult": 0.0,
      "soil_mult": 0.95,
      "humidity_mult": 1.037,
      "raw_dynamic_score": 0.0,
      "dynamic_level": "None"
    },
    {
      "id": "nan",
      "name": "Taipei, Taiwan",
      "latitude": 25.074,
      "longitude": 121.604,
      "base_risk": 9.37,
      "rain_6h_mm": 0.0,
      "humidity_avg": 72.7,
      "soil_moisture_avg": 0.0,
      "temperature_avg": 20.9,
      "pressure_avg": 1017.3,
      "rain_mult": 0.0,
      "soil_mult": 0.95,
      "humidity_mult": 1.036,
      "raw_dynamic_score": 0.0,
      "dynamic_level": "None"
    },
    {
      "id": "nan",
      "name": "Kagoshima, Japan",
      "latitude": 31.539,
      "longitude": 130.537,
      "base_risk": 9.19,
      "rain_6h_mm": 0.0,
      "humidity_avg": 62.5,
      "soil_moisture_avg": 0.0,
      "temperature_avg": 16.1,
      "pressure_avg": 1020.5,
      "rain_mult": 0.0,
      "soil_mult": 0.95,
      "humidity_mult": 1.031,
      "raw_dynamic_score": 0.0,
      "dynamic_level": "None"
    },
    {
      "id": "nan",
      "name": "Yakushima (Miyanoura), Japan",
      "latitude": 30.427,
      "longitude": 130.631,
      "base_risk": 8.55,
      "rain_6h_mm": 0.0,
      "humidity_avg": 60.8,
      "soil_moisture_avg": 0.0,
      "temperature_avg": 20.4,
      "pressure_avg": 1020.6,
      "rain_mult": 0.0,
      "soil_mult": 0.95,
      "humidity_mult": 1.03,
      "raw_dynamic_score": 0.0,
      "dynamic_level": "None"
    },
    {
      "id": "nan",
      "name": "Rize, Türkiye",
      "latitude": 41.005,
      "longitude": 40.561,
      "base_risk": 9.34,
      "rain_6h_mm": 0.0,
      "humidity_avg": 81.7,
      "soil_moisture_avg": 0.0,
      "temperature_avg": 10.9,
      "pressure_avg": 995.9,
      "rain_mult": 0.0,
      "soil_mult": 0.95,
      "humidity_mult": 1.041,
      "raw_dynamic_score": 0.0,
      "dynamic_level": "None"
    },
    {
      "id": "nan",
      "name": "Salalah, Oman",
      "latitude": 17.019,
      "longitude": 54.132,
      "base_risk": 9.24,
      "rain_6h_mm": 0.0,
      "humidity_avg": 54.8,
      "soil_moisture_avg": 0.0,
      "temperature_avg": 26.6,
      "pressure_avg": 1013.8,
      "rain_mult": 0.0,
      "soil_mult": 0.95,
      "humidity_mult": 1.027,
      "raw_dynamic_score": 0.0,
      "dynamic_level": "None"
    },
    {
      "id": "nan",
      "name": "Cherrapunji, India",
      "latitude": 25.231,
      "longitude": 91.73,
      "base_risk": 9.05,
      "rain_6h_mm": 0.1,
      "humidity_avg": 85.7,
      "soil_moisture_avg": 0.0,
      "temperature_avg": 22.4,
      "pressure_avg": 888.0,
      "rain_mult": 0.001,
      "soil_mult": 0.95,
      "humidity_mult": 1.043,
      "raw_dynamic_score": 0.009,
      "dynamic_level": "Low"
    },
    {
      "id": "nan",
      "name": "Mumbai, India",
      "latitude": 19.136,
      "longitude": 72.858,
      "base_risk": 8.65,
      "rain_6h_mm": 1.4,
      "humidity_avg": 87.8,
      "soil_moisture_avg": 0.0,
      "temperature_avg": 26.5,
      "pressure_avg": 1011.0,
      "rain_mult": 0.014,
      "soil_mult": 0.95,
      "humidity_mult": 1.044,
      "raw_dynamic_score": 0.12,
      "dynamic_level": "Low"
    },
    {
      "id": "nan",
      "name": "Mangalore, India",
      "latitude": 12.974,
      "longitude": 74.816,
      "base_risk": 9.47,
      "rain_6h_mm": 0.6,
      "humidity_avg": 76.7,
      "soil_moisture_avg": 0.0,
      "temperature_avg": 28.0,
      "pressure_avg": 1011.4,
      "rain_mult": 0.006,
      "soil_mult": 0.95,
      "humidity_mult": 1.038,
      "raw_dynamic_score": 0.056,
      "dynamic_level": "Low"
    },
    {
      "id": "nan",
      "name": "Kochi, India",
      "latitude": 9.891,
      "longitude": 76.227,
      "base_risk": 8.9,
      "rain_6h_mm": 0.0,
      "humidity_avg": 69.7,
      "soil_moisture_avg": 0.0,
      "temperature_avg": 29.0,
      "pressure_avg": 1013.1,
      "rain_mult": 0.0,
      "soil_mult": 0.95,
      "humidity_mult": 1.035,
      "raw_dynamic_score": 0.0,
      "dynamic_level": "None"
    },
    {
      "id": "nan",
      "name": "Kolkata, India",
      "latitude": 22.572,
      "longitude": 88.364,
      "base_risk": 8.98,
      "rain_6h_mm": 0.0,
      "humidity_avg": 91.2,
      "soil_moisture_avg": 0.0,
      "temperature_avg": 24.2,
      "pressure_avg": 1007.8,
      "rain_mult": 0.0,
      "soil_mult": 0.95,
      "humidity_mult": 1.046,
      "raw_dynamic_score": 0.0,
      "dynamic_level": "None"
    },
    {
      "id": "nan",
      "name": "Sylhet, Bangladesh",
      "latitude": 24.874,
      "longitude": 91.888,
      "base_risk": 8.63,
      "rain_6h_mm": 0.1,
      "humidity_avg": 97.7,
      "soil_moisture_avg": 0.0,
      "temperature_avg": 24.0,
      "pressure_avg": 1006.8,
      "rain_mult": 0.001,
      "soil_mult": 0.95,
      "humidity_mult": 1.049,
      "raw_dynamic_score": 0.009,
      "dynamic_level": "Low"
    },
    {
      "id": "nan",
      "name": "Chattogram, Bangladesh",
      "latitude": 22.396,
      "longitude": 91.743,
      "base_risk": 9.25,
      "rain_6h_mm": 0.6,
      "humidity_avg": 86.7,
      "soil_moisture_avg": 0.0,
      "temperature_avg": 27.3,
      "pressure_avg": 1007.9,
      "rain_mult": 0.006,
      "soil_mult": 0.95,
      "humidity_mult": 1.043,
      "raw_dynamic_score": 0.055,
      "dynamic_level": "Low"
    },
    {
      "id": "nan",
      "name": "Cox's Bazar, Bangladesh",
      "latitude": 21.367,
      "longitude": 92.019,
      "base_risk": 9.25,
      "rain_6h_mm": 1.2,
      "humidity_avg": 84.7,
      "soil_moisture_avg": 0.0,
      "temperature_avg": 28.1,
      "pressure_avg": 1001.7,
      "rain_mult": 0.012,
      "soil_mult": 0.95,
      "humidity_mult": 1.042,
      "raw_dynamic_score": 0.11,
      "dynamic_level": "Low"
    },
    {
      "id": "nan",
      "name": "Dawei, Myanmar",
      "latitude": 14.122,
      "longitude": 98.194,
      "base_risk": 8.82,
      "rain_6h_mm": 8.5,
      "humidity_avg": 93.2,
      "soil_moisture_avg": 0.0,
      "temperature_avg": 26.1,
      "pressure_avg": 1010.0,
      "rain_mult": 0.085,
      "soil_mult": 0.95,
      "humidity_mult": 1.047,
      "raw_dynamic_score": 0.745,
      "dynamic_level": "Low"
    },
    {
      "id": "nan",
      "name": "Ho Chi Minh City, Vietnam",
      "latitude": 10.803,
      "longitude": 106.61,
      "base_risk": 8.8,
      "rain_6h_mm": 0.3,
      "humidity_avg": 94.2,
      "soil_moisture_avg": 0.0,
      "temperature_avg": 24.9,
      "pressure_avg": 1008.4,
      "rain_mult": 0.003,
      "soil_mult": 0.95,
      "humidity_mult": 1.047,
      "raw_dynamic_score": 0.026,
      "dynamic_level": "Low"
    },
    {
      "id": "nan",
      "name": "Hue, Vietnam",
      "latitude": 16.463,
      "longitude": 107.63,
      "base_risk": 8.93,
      "rain_6h_mm": 33.2,
      "humidity_avg": 93.2,
      "soil_moisture_avg": 0.0,
      "temperature_avg": 24.8,
      "pressure_avg": 1011.1,
      "rain_mult": 0.332,
      "soil_mult": 0.95,
      "humidity_mult": 1.047,
      "raw_dynamic_score": 2.948,
      "dynamic_level": "Low"
    },
    {
      "id": "nan",
      "name": "Sihanoukville, Cambodia",
      "latitude": 10.585,
      "longitude": 103.542,
      "base_risk": 8.53,
      "rain_6h_mm": 10.0,
      "humidity_avg": 86.2,
      "soil_moisture_avg": 0.0,
      "temperature_avg": 27.5,
      "pressure_avg": 1009.8,
      "rain_mult": 0.1,
      "soil_mult": 0.95,
      "humidity_mult": 1.043,
      "raw_dynamic_score": 0.845,
      "dynamic_level": "Low"
    },
    {
      "id": "nan",
      "name": "Bangkok, Thailand",
      "latitude": 13.816,
      "longitude": 100.501,
      "base_risk": 8.78,
      "rain_6h_mm": 3.2,
      "humidity_avg": 94.7,
      "soil_moisture_avg": 0.0,
      "temperature_avg": 25.6,
      "pressure_avg": 1009.5,
      "rain_mult": 0.032,
      "soil_mult": 0.95,
      "humidity_mult": 1.047,
      "raw_dynamic_score": 0.28,
      "dynamic_level": "Low"
    },
    {
      "id": "nan",
      "name": "Chiang Mai, Thailand",
      "latitude": 18.848,
      "longitude": 98.966,
      "base_risk": 9.19,
      "rain_6h_mm": 9.8,
      "humidity_avg": 96.0,
      "soil_moisture_avg": 0.0,
      "temperature_avg": 21.4,
      "pressure_avg": 975.4,
      "rain_mult": 0.098,
      "soil_mult": 0.95,
      "humidity_mult": 1.048,
      "raw_dynamic_score": 0.897,
      "dynamic_level": "Low"
    },
    {
      "id": "nan",
      "name": "Kuala Lumpur, Malaysia",
      "latitude": 3.159,
      "longitude": 101.646,
      "base_risk": 9.04,
      "rain_6h_mm": 1.9,
      "humidity_avg": 94.5,
      "soil_moisture_avg": 0.0,
      "temperature_avg": 25.5,
      "pressure_avg": 1000.0,
      "rain_mult": 0.019,
      "soil_mult": 0.95,
      "humidity_mult": 1.047,
      "raw_dynamic_score": 0.171,
      "dynamic_level": "Low"
    },
    {
      "id": "nan",
      "name": "Kuching, Malaysia",
      "latitude": 1.553,
      "longitude": 110.379,
      "base_risk": 8.89,
      "rain_6h_mm": 0.0,
      "humidity_avg": 94.8,
      "soil_moisture_avg": 0.0,
      "temperature_avg": 25.0,
      "pressure_avg": 1010.0,
      "rain_mult": 0.0,
      "soil_mult": 0.95,
      "humidity_mult": 1.047,
      "raw_dynamic_score": 0.0,
      "dynamic_level": "None"
    },
    {
      "id": "nan",
      "name": "Kota Kinabalu, Malaysia",
      "latitude": 5.96,
      "longitude": 116.073,
      "base_risk": 9.01,
      "rain_6h_mm": 0.0,
      "humidity_avg": 90.2,
      "soil_moisture_avg": 0.0,
      "temperature_avg": 25.6,
      "pressure_avg": 1007.8,
      "rain_mult": 0.0,
      "soil_mult": 0.95,
      "humidity_mult": 1.045,
      "raw_dynamic_score": 0.0,
      "dynamic_level": "None"
    },
    {
      "id": "nan",
      "name": "Jakarta, Indonesia",
      "latitude": -6.268,
      "longitude": 106.805,
      "base_risk": 8.98,
      "rain_6h_mm": 0.0,
      "humidity_avg": 89.8,
      "soil_moisture_avg": 0.0,
      "temperature_avg": 25.7,
      "pressure_avg": 1006.7,
      "rain_mult": 0.0,
      "soil_mult": 0.95,
      "humidity_mult": 1.045,
      "raw_dynamic_score": 0.0,
      "dynamic_level": "None"
    },
    {
      "id": "nan",
      "name": "Bogor, Indonesia",
      "latitude": -6.655,
      "longitude": 106.857,
      "base_risk": 9.02,
      "rain_6h_mm": 1.1,
      "humidity_avg": 97.0,
      "soil_moisture_avg": 0.0,
      "temperature_avg": 22.2,
      "pressure_avg": 958.9,
      "rain_mult": 0.011,
      "soil_mult": 0.95,
      "humidity_mult": 1.048,
      "raw_dynamic_score": 0.099,
      "dynamic_level": "Low"
    },
    {
      "id": "nan",
      "name": "Bandung, Indonesia",
      "latitude": -6.877,
      "longitude": 107.599,
      "base_risk": 9.08,
      "rain_6h_mm": 0.0,
      "humidity_avg": 90.8,
      "soil_moisture_avg": 0.0,
      "temperature_avg": 23.0,
      "pressure_avg": 921.4,
      "rain_mult": 0.0,
      "soil_mult": 0.95,
      "humidity_mult": 1.045,
      "raw_dynamic_score": 0.0,
      "dynamic_level": "None"
    },
    {
      "id": "nan",
      "name": "Lae, Papua New Guinea",
      "latitude": -6.753,
      "longitude": 146.983,
      "base_risk": 9.49,
      "rain_6h_mm": 0.0,
      "humidity_avg": 90.2,
      "soil_moisture_avg": 0.0,
      "temperature_avg": 24.1,
      "pressure_avg": 1010.1,
      "rain_mult": 0.0,
      "soil_mult": 0.95,
      "humidity_mult": 1.045,
      "raw_dynamic_score": 0.0,
      "dynamic_level": "None"
    },
    {
      "id": "nan",
      "name": "Port Moresby, Papua New Guinea",
      "latitude": -9.423,
      "longitude": 147.22,
      "base_risk": 8.81,
      "rain_6h_mm": 0.8,
      "humidity_avg": 83.5,
      "soil_moisture_avg": 0.0,
      "temperature_avg": 27.7,
      "pressure_avg": 1004.1,
      "rain_mult": 0.008,
      "soil_mult": 0.95,
      "humidity_mult": 1.042,
      "raw_dynamic_score": 0.07,
      "dynamic_level": "Low"
    },
    {
      "id": "nan",
      "name": "Honiara, Solomon Islands",
      "latitude": -9.473,
      "longitude": 159.99,
      "base_risk": 9.1,
      "rain_6h_mm": 0.0,
      "humidity_avg": 94.7,
      "soil_moisture_avg": 0.0,
      "temperature_avg": 22.5,
      "pressure_avg": 983.9,
      "rain_mult": 0.0,
      "soil_mult": 0.95,
      "humidity_mult": 1.047,
      "raw_dynamic_score": 0.0,
      "dynamic_level": "None"
    },
    {
      "id": "nan",
      "name": "Suva, Fiji",
      "latitude": -18.081,
      "longitude": 178.461,
      "base_risk": 9.27,
      "rain_6h_mm": 0.0,
      "humidity_avg": 89.8,
      "soil_moisture_avg": 0.0,
      "temperature_avg": 23.7,
      "pressure_avg": 995.5,
      "rain_mult": 0.0,
      "soil_mult": 0.95,
      "humidity_mult": 1.045,
      "raw_dynamic_score": 0.0,
      "dynamic_level": "None"
    },
    {
      "id": "nan",
      "name": "Apia, Samoa",
      "latitude": -13.773,
      "longitude": -171.75,
      "base_risk": 8.54,
      "rain_6h_mm": 1.6,
      "humidity_avg": 86.5,
      "soil_moisture_avg": 0.0,
      "temperature_avg": 26.8,
      "pressure_avg": 1012.3,
      "rain_mult": 0.016,
      "soil_mult": 0.95,
      "humidity_mult": 1.043,
      "raw_dynamic_score": 0.135,
      "dynamic_level": "Low"
    },
    {
      "id": "nan",
      "name": "Palikir, Micronesia",
      "latitude": 6.877,
      "longitude": 158.13,
      "base_risk": 8.55,
      "rain_6h_mm": 1.5,
      "humidity_avg": 80.3,
      "soil_moisture_avg": 0.0,
      "temperature_avg": 27.7,
      "pressure_avg": 1008.5,
      "rain_mult": 0.015,
      "soil_mult": 0.95,
      "humidity_mult": 1.04,
      "raw_dynamic_score": 0.127,
      "dynamic_level": "Low"
    },
    {
      "id": "nan",
      "name": "Port Vila, Vanuatu",
      "latitude": -17.733,
      "longitude": 168.287,
      "base_risk": 8.75,
      "rain_6h_mm": 0.0,
      "humidity_avg": 82.8,
      "soil_moisture_avg": 0.0,
      "temperature_avg": 26.7,
      "pressure_avg": 1011.3,
      "rain_mult": 0.0,
      "soil_mult": 0.95,
      "humidity_mult": 1.041,
      "raw_dynamic_score": 0.0,
      "dynamic_level": "None"
    },
    {
      "id": "nan",
      "name": "Cairns, Australia",
      "latitude": -16.94,
      "longitude": 145.79,
      "base_risk": 9.49,
      "rain_6h_mm": 0.0,
      "humidity_avg": 96.0,
      "soil_moisture_avg": 0.0,
      "temperature_avg": 23.1,
      "pressure_avg": 1010.7,
      "rain_mult": 0.0,
      "soil_mult": 0.95,
      "humidity_mult": 1.048,
      "raw_dynamic_score": 0.0,
      "dynamic_level": "None"
    },